"stop_id","stop_name","stop_lon","stop_lat","stop_code"
"24200425","Lüdenscheid, Piepersloh Waldfriedhof",7.66377,51.19332,"de:5962:425"
"24203829","Kierspe, Rönsahl Markt",7.49563,51.09923,"de:5962:3829"
"24206058","Menden (Sauerland), Süd",7.80754,51.42821,"de:5962:6058"
"24206021","Iserlohn, Iserlohnerheide Bf",7.69201,51.39976,"de:5962:6021"
"24205999","Iserlohn, Dechenhöhle Htp. DB",7.64438,51.36553,"de:5962:5999"
"24206023","Iserlohn, Hennen Bf.",7.64679,51.43726,"de:5962:6023"
"24205223","Werdohl, Haus Versetal",7.76463,51.23898,"de:5962:5223"
"24205224","Werdohl, Wallgrabenstr.",7.7708,51.24104,"de:5962:5224"
"24205228","Werdohl, Turmstraße",7.77596,51.24327,"de:5962:5228"
"24205225","Werdohl, Burggrafenstr.",7.76972,51.2418,"de:5962:5225"
"24205221","Werdohl, An der Falkenlei",7.79861,51.25843,"de:5962:5221"
"24205226","Werdohl, Espenhagen 1",7.77013,51.24455,"de:5962:5226"
"24205227","Werdohl, Espenhagen 2",7.76627,51.24365,"de:5962:5227"
"24205222","Werdohl, Kettenbecke",7.79324,51.2598,"de:5962:5222"
"24205230","Werdohl, Am Fahrenstück",7.7869,51.25571,"de:5962:5230"
"24205229","Werdohl, Ascheyer Str.",7.78534,51.25487,"de:5962:5229"
"24205214","Werdohl, Eickelsborn I",7.76581,51.24859,"de:5962:5214"
"24205215","Werdohl, Eickelsborn II",7.76613,51.24997,"de:5962:5215"
"24205216","Werdohl, Bergstraße",7.76689,51.25047,"de:5962:5216"
"24205217","Werdohl, Feldstraße I",7.76902,51.25123,"de:5962:5217"
"24205220","Werdohl, Feldstraße II",7.77575,51.25891,"de:5962:5220"
"24205205","Werdohl, Goethestraße",7.76338,51.2539,"de:5962:5205"
"24205201","Werdohl, Rudolfstraße",7.76771,51.25835,"de:5962:5201"
"24205208","Werdohl, Herbscheider Weg",7.77818,51.26508,"de:5962:5208"
"24205202","Werdohl, Eggenpfad",7.76975,51.26029,"de:5962:5202"
"24205207","Werdohl, Schmalefeld",7.77489,51.26318,"de:5962:5207"
"24205203","Werdohl, Friedensstraße",7.76792,51.2613,"de:5962:5203"
"24205209","Werdohl, Unterm Bausenberg",7.77251,51.26409,"de:5962:5209"
"24204962","Halver, Linde",7.41866,51.19699,"de:5962:4962"
"24205231","Werdohl, Derwentsider Straße",7.76283,51.25952,"de:5962:5231"
"24205213","Werdohl, Hardtstraße",7.76329,51.26114,"de:5962:5213"
"24205212","Werdohl, Wilhelmshöhe",7.76412,51.26224,"de:5962:5212"
"24205210","Werdohl, Borgheller Straße I",7.7667,51.26345,"de:5962:5210"
"24205211","Werdohl, Borgheller Straße II",7.76046,51.26352,"de:5962:5211"
"24206003","Schalksmühle, Schalksmühle",7.53292,51.24063,"de:5962:6003"
"24203889","Kierspe, Grote + Brocksieper",7.58459,51.18096,"de:5962:3889"
"24203951","Kierspe, Lammecke",7.55135,51.16881,"de:5962:3951"
"24203959","Kierspe, Ober-Romberg",7.5449,51.16568,"de:5962:3959"
"24203858","Kierspe, Halzenbach",7.55675,51.17103,"de:5962:3858"
"24203861","Kierspe, Romberg",7.54481,51.16349,"de:5962:3861"
"24203838","Kierspe, Löh",7.54016,51.15766,"de:5962:3838"
"24203857","Kierspe, Berkermühle",7.56847,51.17046,"de:5962:3857"
"24203854","Kierspe, Feld",7.56145,51.16661,"de:5962:3854"
"24203837","Kierspe, Kiersper Neuenhaus",7.5466,51.15843,"de:5962:3837"
"24203839","Kierspe, Vornholt",7.55973,51.16461,"de:5962:3839"
"24203847","Kierspe, Mittel-Heukelbach",7.51056,51.1286,"de:5962:3847"
"24203862","Kierspe, Vor der Mark",7.54969,51.15742,"de:5962:3862"
"24203843","Kierspe, Mühlenschmidthausen",7.53477,51.14782,"de:5962:3843"
"24203855","Kierspe, Hemecke",7.56947,51.16525,"de:5962:3855"
"24203886","Kierspe, Bollwerkstraße",7.58494,51.17032,"de:5962:3886"
"24203950","Kierspe, Rinschen",7.52979,51.14274,"de:5962:3950"
"24203860","Kierspe, Berken",7.57501,51.1667,"de:5962:3860"
"24203846","Kierspe, Rönsahler Woeste",7.52016,51.12784,"de:5962:3846"
"24203948","Kierspe, Rönsahl Neuenhaus",7.50891,51.11072,"de:5962:3948"
"24203830","Kierspe, Rönsahl",7.50919,51.11037,"de:5962:3830"
"24203877","Kierspe, Beckinghausen",7.60094,51.16917,"de:5962:3877"
"24203844","Kierspe, Vor dem Rensiepen",7.52702,51.1312,"de:5962:3844"
"24203836","Kierspe, Abzweig Feld",7.5613,51.15421,"de:5962:3836"
"24203848","Kierspe, Glietenberg",7.5335,51.13111,"de:5962:3848"
"24203835","Kierspe, Hölterhaus",7.567,51.15263,"de:5962:3835"
"24203845","Kierspe, Antlenberg",7.54279,51.13681,"de:5962:3845"
"24203887","Kierspe, Brake",7.60527,51.16429,"de:5962:3887"
"24203958","Kierspe, Wienhagener Haus",7.5443,51.13364,"de:5962:3958"
"24203842","Kierspe, Eltinghausen",7.56198,51.14513,"de:5962:3842"
"24206044","Meinerzhagen, Hunswinkel Schule",7.79709,51.08024,"de:5962:6044"
"24203834","Kierspe, Handweiser",7.57751,51.14914,"de:5962:3834"
"24203866","Kierspe, Dörscheln",7.53988,51.12252,"de:5962:3866"
"24203882","Kierspe, Fernhagen",7.64062,51.16127,"de:5962:3882"
"24203881","Kierspe, Belkenscheid",7.62197,51.15897,"de:5962:3881"
"24203850","Kierspe, Elbringhausen",7.55936,51.13434,"de:5962:3850"
"24203841","Kierspe, Im Thal",7.57087,51.14048,"de:5962:3841"
"24203833","Kierspe, Vor der Brücke",7.58039,51.14456,"de:5962:3833"
"24203851","Kierspe, Limpurg",7.56472,51.13596,"de:5962:3851"
"24203885","Kierspe, Werfelscheid",7.59688,51.14739,"de:5962:3885"
"24203879","Kierspe, Abzw. Wolzenburg",7.59544,51.14591,"de:5962:3879"
"24203952","Kierspe, Bruch",7.57506,51.13598,"de:5962:3952"
"24203849","Kierspe, Quabecke",7.573,51.13446,"de:5962:3849"
"24203873","Kierspe, Büchen",7.56692,51.13008,"de:5962:3873"
"24203840","Kierspe, Isenburg",7.57084,51.13044,"de:5962:3840"
"24203893","Kierspe, Schmiedestraße",7.58459,51.13517,"de:5962:3893"
"24203888","Kierspe, Immelscheid",7.64741,51.15012,"de:5962:3888"
"24203867","Kierspe, Benninghausen",7.55053,51.10599,"de:5962:3867"
"24203880","Kierspe, Linden",7.63629,51.14874,"de:5962:3880"
"24203943","Kierspe, Lessingstraße",7.58387,51.13315,"de:5962:3943"
"24203853","Kierspe, Bismarckschule",7.58984,51.1359,"de:5962:3853"
"24203910","Kierspe, Büscherweg",7.59131,51.13649,"de:5962:3910"
"24203891","Kierspe, Düren",7.56384,51.11815,"de:5962:3891"
"24203884","Kierspe, Vorderste Vornberg",7.62334,51.14544,"de:5962:3884"
"24203942","Kierspe, Wiesenstraße",7.58602,51.13284,"de:5962:3942"
"24203938","Kierspe, Friedhof",7.59456,51.13642,"de:5962:3938"
"24203892","Kierspe, Korteberg",7.62194,51.14461,"de:5962:3892"
"24203852","Kierspe, Freie Schule",7.61842,51.14298,"de:5962:3852"
"24203883","Kierspe, Hinterste Vornberg",7.62948,51.14437,"de:5962:3883"
"24203922","Kierspe, Schubertstraße",7.59852,51.13531,"de:5962:3922"
"24203941","Kierspe, Fritz-Linde-Straße",7.58962,51.1308,"de:5962:3941"
"24203935","Kierspe, Berliner Straße",7.58952,51.12943,"de:5962:3935"
"24203870","Kierspe, Stöcken II",7.56301,51.108,"de:5962:3870"
"24203934","Kierspe, Königsberger Straße",7.58964,51.12846,"de:5962:3934"
"24203931","Kierspe, Thingslindestraße",7.60019,51.13202,"de:5962:3931"
"24203878","Kierspe, Schleipe",7.62682,51.13975,"de:5962:3878"
"24203832","Kierspe, Gesamtschule",7.59517,51.12867,"de:5962:3832"
"24203939","Kierspe, Birkenweg",7.59984,51.13012,"de:5962:3939"
"24203940","Kierspe, Schanhollenschule",7.59516,51.12783,"de:5962:3940"
"24203856","Kierspe, Sprottenhammer",7.63736,51.13938,"de:5962:3856"
"24203894","Kierspe, Ev. Johanneswerk",7.58313,51.11904,"de:5962:3894"
"24203926","Kierspe, Rathaus",7.60041,51.12785,"de:5962:3926"
"24203890","Kierspe, A O K",7.60168,51.12588,"de:5962:3890"
"24203928","Kierspe, Am Nocken",7.61482,51.13056,"de:5962:3928"
"24203872","Kierspe, Heednocken",7.58643,51.11674,"de:5962:3872"
"24203927","Kierspe, Seniorenzentrum",7.60383,51.12629,"de:5962:3927"
"24203863","Kierspe, Netto",7.59735,51.12259,"de:5962:3863"
"24203936","Kierspe, Haunerbusch",7.60772,51.12707,"de:5962:3936"
"24203831","Kierspe, Pestalozzischule",7.61109,51.12828,"de:5962:3831"
"24203859","Kierspe, EKZ/Lidl",7.60371,51.12437,"de:5962:3859"
"24203929","Kierspe, Am Denkmal",7.61408,51.12753,"de:5962:3929"
"24203930","Kierspe, Op de Fuar",7.61197,51.12638,"de:5962:3930"
"24203944","Kierspe, An der Währ",7.61889,51.12639,"de:5962:3944"
"24203945","Kierspe, Hoher Hahn",7.62173,51.12599,"de:5962:3945"
"24203946","Kierspe, Windfuhr",7.6269,51.12576,"de:5962:3946"
"24203875","Kierspe, Höhlen",7.59692,51.11272,"de:5962:3875"
"24203874","Kierspe, Oberhof",7.59623,51.1105,"de:5962:3874"
"24062070","Billmerich, Friedhof",7.676,51.49787,"de:5978:62070"
"24202768","Meinerzhagen, Eckertsmühle",7.67801,55.56066,"de:5962:2768"
"24202890","Plettenberg, Jeutmecke",7.82022,51.22862,"de:5962:2890"
"24202859","Plettenberg, Ohle Friedhof",7.83006,51.22942,"de:5962:2859"
"24202860","Plettenberg, Burg",7.82562,51.23193,"de:5962:2860"
"24202858","Plettenberg, Ohle Gringel",7.8354,51.23052,"de:5962:2858"
"24202826","Plettenberg, Papenkuhle",7.84082,51.22959,"de:5962:2826"
"24202851","Plettenberg, Auf der Weide",7.87396,51.22008,"de:5962:2851"
"24202888","Plettenberg, Kersmecke",7.86101,51.22419,"de:5962:2888"
"24202825","Plettenberg, Papenkuhle Brücke",7.84628,51.22946,"de:5962:2825"
"24202857","Plettenberg, Ohle Dorf",7.83262,51.23531,"de:5962:2857"
"24202887","Plettenberg, Breslauer Straße",7.86412,51.22406,"de:5962:2887"
"24202889","Plettenberg, Berliner Straße",7.86327,51.2249,"de:5962:2889"
"24202900","Plettenberg, Ohle Post",7.83501,51.23521,"de:5962:2900"
"24202827","Plettenberg, Ohle Schule",7.82928,51.23869,"de:5962:2827"
"24202899","Plettenberg, AquaMagis",7.8503,51.23139,"de:5962:2899"
"24202856","Plettenberg, Ohle Kolonie",7.84407,51.23382,"de:5962:2856"
"24202828","Plettenberg, Abzw. Elhausen",7.82437,51.24244,"de:5962:2828"
"24202829","Plettenberg, Schloß Brüninghausen",7.8208,51.24532,"de:5962:2829"
"24202916","Plettenberg, Weidenstraße",7.86894,51.22675,"de:5962:2916"
"24202852","Plettenberg, Bahnhofstraße",7.87134,51.22634,"de:5962:2852"
"24202914","Plettenberg, Abzweig Kersmecke",7.86881,51.2272,"de:5962:2914"
"24202824","Plettenberg, Böddinghausen Schulzentrum",7.85718,51.23109,"de:5962:2824"
"24202787","Meinerzhagen, Sebastopol",7.69484,51.09385,"de:5962:2787"
"24202925","Plettenberg, Böddinghausen Hauptschule",7.85416,51.23216,"de:5962:2925"
"24202823","Plettenberg, Böddinghausen",7.85976,51.23067,"de:5962:2823"
"24202822","Plettenberg, Böddinghausen Brücke",7.86664,51.22946,"de:5962:2822"
"24202894","Plettenberg, Böddinghausen Hallenbad",7.86047,51.23164,"de:5962:2894"
"24202897","Plettenberg, Brockhauser Weg",7.8731,51.22793,"de:5962:2897"
"24202905","Plettenberg, Siesel Ort",7.90403,51.22159,"de:5962:2905"
"24202853","Plettenberg, Lennebrücke",7.87178,51.22923,"de:5962:2853"
"24202855","Plettenberg, Kahley",7.85557,51.2346,"de:5962:2855"
"24202974","Plettenberg, Einkaufszentrum",7.87027,51.23,"de:5962:2974"
"24202877","Plettenberg, Brandenbergstraße",7.87704,51.22917,"de:5962:2877"
"24202854","Plettenberg, Bahnhof",7.86921,51.23216,"de:5962:2854"
"24202906","Plettenberg, Gasthof zur Lenne",7.90152,51.22435,"de:5962:2906"
"24202878","Plettenberg, Im Erlenkamp",7.87981,51.23033,"de:5962:2878"
"24202901","Plettenberg, Jüttenstraße",7.87429,51.23289,"de:5962:2901"
"24202876","Plettenberg, Am Graben",7.86997,51.2343,"de:5962:2876"
"24202972","Plettenberg, Elise-Lüsebrink-Straße",7.88649,51.22984,"de:5962:2972"
"24202908","Plettenberg, Pasel",7.92875,51.22274,"de:5962:2908"
"24202970","Plettenberg, Grabenstraße Friedhof",7.8669,51.23627,"de:5962:2970"
"24202880","Plettenberg, Eschen Schule",7.88363,51.2314,"de:5962:2880"
"24202862","Plettenberg, Hallenschule",7.86957,51.23585,"de:5962:2862"
"24202864","Plettenberg, Friedhof",7.8745,51.23535,"de:5962:2864"
"24202910","Plettenberg, Randstraße / Friedhof",7.87575,51.23539,"de:5962:2910"
"24202879","Plettenberg, Eschen Loh",7.8845,51.23304,"de:5962:2879"
"24202863","Plettenberg, Affelner Straße",7.86976,51.23762,"de:5962:2863"
"24202907","Plettenberg, Wiebecke",7.90787,51.2282,"de:5962:2907"
"24202902","Plettenberg, Blemke",7.87942,51.23661,"de:5962:2902"
"24202904","Plettenberg, Abzweig Leinschede",7.89126,51.23371,"de:5962:2904"
"24202929","Plettenberg, In der Blemke",7.87871,51.23752,"de:5962:2929"
"24202865","Plettenberg, Auf der Halle",7.87273,51.23987,"de:5962:2865"
"24202903","Plettenberg, Unterm Einig",7.88543,51.23689,"de:5962:2903"
"24202866","Plettenberg, Wasserbehälter",7.86972,51.24164,"de:5962:2866"
"24202966","Plettenberg, Blemke Spielplatz",7.87761,51.23968,"de:5962:2966"
"24203135","Neuenrade, Am Ausspann",7.86241,51.24979,"de:5962:3135"
"24202967","Plettenberg, Unterm Kahlberg",7.88048,51.24374,"de:5962:2967"
"24202778","Meinerzhagen, Überm Hofe",7.64626,51.11643,"de:5962:2778"
"24203117","Neuenrade, Garbecker Straße",7.8177,51.28513,"de:5962:3117"
"24203133","Neuenrade, Birnbaum",7.86514,51.25859,"de:5962:3133"
"24203098","Neuenrade, Roder Weg",7.81541,51.28769,"de:05962:3098"
"24203168","Neuenrade, Küntrop Mitte",7.82009,51.28464,"de:5962:3168"
"24203118","Neuenrade, Küntrop Wendestelle",7.82062,51.28475,"de:5962:3118"
"24203116","Neuenrade, Küntrop Bahnhof",7.81448,51.29331,"de:5962:3116"
"24203339","Neuenrade, Hönnestraße",7.81607,51.29263,"de:5962:3339"
"24203132","Neuenrade, Bieringsen",7.8582,51.2666,"de:5962:3132"
"24203139","Neuenrade, Oberhofstraße",7.83541,51.27954,"de:5962:3139"
"24202783","Meinerzhagen, Schoppen",7.72967,51.07958,"de:5962:2783"
"24202782","Meinerzhagen, Hardenberg",7.72587,51.0947,"de:5962:2782"
"24203119","Neuenrade, Borke",7.83837,51.27937,"de:5962:3119"
"24203131","Neuenrade, Zum Imberg",7.85742,51.27325,"de:5962:3131"
"24203194","Neuenrade, Wasserburgstraße",7.82648,51.29343,"de:5962:3194"
"24202786","Meinerzhagen, Abzw. Grünewald",7.69113,51.08935,"de:5962:2786"
"24202788","Meinerzhagen, Valbert Bf",7.72272,51.10506,"de:5962:2788"
"24203138","Neuenrade, Weidenstr.",7.86115,51.27336,"de:5962:3138"
"24202775","Meinerzhagen, Abzweig Hardenberg",7.69012,51.09,"de:5962:2775"
"24203120","Neuenrade, Affeln",7.85882,51.27453,"de:5962:3120"
"24203144","Neuenrade, Mühlenstr.",7.86336,51.27558,"de:5962:3144"
"24203121","Neuenrade, Altenaffeln",7.87611,51.27183,"de:5962:3121"
"24203137","Neuenrade, Borkeweg",7.84787,51.28718,"de:5962:3137"
"24203147","Neuenrade, Altenaffeln Schule",7.87663,51.2725,"de:5962:3147"
"24203007","Balve, Höveringhausen",7.82398,51.30757,"de:5962:3007"
"24203028","Balve, Abzweig Höveringhausen",7.82831,51.30484,"de:5962:3028"
"24203812","Kierspe, Hinterste Berg",7.62256,51.12752,"de:5962:3812"
"24203814","Kierspe, Sparkasse",7.61218,51.12559,"de:5962:3814"
"24203122","Neuenrade, Blintrop",7.84934,51.28931,"de:5962:3122"
"24203813","Kierspe, Hammerkamp",7.61608,51.12815,"de:5962:3813"
"24203053","Balve, Tiefental Abzw. Eberg",7.82038,51.31772,"de:5962:3053"
"24203100","Neuenrade, Kuschert",7.84652,51.29474,"de:5962:3100"
"24203145","Neuenrade, Affelner Mühle",7.87647,51.28,"de:5962:3145"
"24203815","Kierspe, Wildenkuhlen",7.60417,51.12479,"de:5962:3815"
"24202776","Meinerzhagen, Darmcher Grund",7.67592,51.09756,"de:5962:2776"
"24203123","Neuenrade, Blintrop Kapelle",7.85524,51.29188,"de:5962:3123"
"24202780","Meinerzhagen, Am Rottland",7.67592,51.09756,"de:5962:2780"
"24203062","Balve, Kolpingstraße",7.82748,51.31922,"de:5962:3062"
"24203822","Kierspe, Waldheim",7.59499,51.12165,"de:5962:3822"
"24203044","Balve, Im Kirchfeld",7.83619,51.3104,"de:5962:3044"
"24203060","Balve, Garbeck Sparkasse",7.83074,51.31736,"de:5962:3060"
"24202777","Meinerzhagen, Rottland Wendest.",7.67895,51.09438,"de:5962:2777"
"24203067","Balve, Natfeld",7.83053,51.31979,"de:5962:3067"
"24203816","Kierspe, Bremicker",7.59971,51.12665,"de:5962:3816"
"24203032","Balve, Garbeck Schulstraße",7.8321,51.31872,"de:5962:3032"
"24203059","Balve, Garbeck Schützenhalle",7.83423,51.31607,"de:5962:3059"
"24203124","Neuenrade, Niedernhöfen",7.85967,51.29501,"de:5962:3124"
"24203797","Kierspe, Bungenrodt",7.63228,51.13713,"de:5962:3797"
"24203823","Kierspe, Neuenhagen",7.58356,51.11905,"de:5962:3823"
"24203065","Balve, Königstraße",7.83582,51.31717,"de:5962:3065"
"24203063","Balve, Garbeck Buchenstraße",7.83343,51.32085,"de:5962:3063"
"24203052","Balve, Taunusstraße",7.83514,51.32008,"de:5962:3052"
"24203004","Balve, Benkamp",7.85417,51.30146,"de:5962:3004"
"24203029","Balve, Frühlinghausen",7.83409,51.32472,"de:5962:3029"
"24203801","Kierspe, Schleifkotten",7.61714,51.13632,"de:5962:3801"
"24203027","Balve, Garbeck Bahnhof",7.83958,51.32118,"de:5962:3027"
"24203026","Balve, Abzweig Frühlinghausen",7.84232,51.32504,"de:5962:3026"
"24203817","Kierspe, Felderhof",7.5959,51.12911,"de:5962:3817"
"24203005","Balve, Schulzentrum",7.8519,51.32822,"de:5962:3005"
"24203034","Balve, Abzweig Schulzentrum",7.8542,51.32863,"de:5962:3034"
"24203055","Balve, Am Darloh",7.85659,51.32704,"de:5962:3055"
"24203039","Balve, Zum Ossenkamp",7.86208,51.32117,"de:5962:3039"
"24203798","Kierspe, Grünenschlade",7.64692,51.14348,"de:5962:3798"
"24203066","Balve, Auf dem Stoppelkamp",7.85543,51.33049,"de:5962:3066"
"24203824","Kierspe, Kiersperhagen",7.57584,51.12041,"de:5962:3824"
"24203048","Balve, Garb. Kirchweg",7.85876,51.32644,"de:5962:3048"
"24203070","Balve, Im Dörntken",7.85841,51.32712,"de:5962:3070"
"24203818","Kierspe, Bachstraße",7.59091,51.13154,"de:5962:3818"
"24203082","Balve, Zum Hassenborn",7.8566,51.33222,"de:5962:3082"
"24203047","Balve, Gerberweg",7.8592,51.32937,"de:5962:3047"
"24203073","Balve, Drosselweg",7.86457,51.32279,"de:5962:3073"
"24203545","Halver, Dommelnheider Kopf",7.48611,51.21961,"de:5962:3545"
"24203069","Balve, Hofstraße",7.86062,51.3276,"de:5962:3069"
"24203825","Kierspe, Dürener Haus",7.56648,51.11923,"de:5962:3825"
"24203546","Halver, Dommelnheide",7.485,51.22195,"de:5962:3546"
"24203582","Halver, Glörfeld",7.49111,51.22593,"de:5962:3582"
"24203610","Halver, Sportplatz Kreisch",7.47139,51.21916,"de:5962:3610"
"24203547","Halver, Grünenbaum",7.48131,51.22547,"de:5962:3547"
"24203586","Halver, Vormbaum",7.47247,51.22571,"de:5962:3586"
"24203819","Kierspe, Klingelhöfer",7.58801,51.13422,"de:5962:3819"
"24203802","Kierspe, Grünenbaum",7.61918,51.14503,"de:5962:3802"
"24203585","Halver, Nieder-Vahlefeld",7.46673,51.22487,"de:5962:3585"
"24203577","Halver, Kamscheid",7.45625,51.2224,"de:5962:3577"
"24203548","Halver, Landwehr",7.47111,51.23538,"de:5962:3548"
"24203072","Balve, Geringer Schlade",7.86384,51.32445,"de:5962:3072"
"24203432","Schalksmühle, Hüsmecker Weg",7.49712,51.25089,"de:5962:3432"
"24203003","Balve, Langenholthausen",7.87767,51.31224,"de:5962:3003"
"24203433","Schalksmühle, Glör Parkplatz",7.49476,51.24949,"de:5962:3433"
"24203617","Halver, Neuen-Vahlefeld",7.48667,51.2154,"de:5962:3617"
"24203544","Halver, Rothenbruch",7.48778,51.21011,"de:5962:3544"
"24203799","Kierspe, Varmerter Holz",7.55897,51.11906,"de:5962:3799"
"24203820","Kierspe, Amtshaus",7.58652,51.13816,"de:5962:3820"
"24203036","Balve, Langenholthausen Grundschule",7.87867,51.31194,"de:5962:3036"
"24203049","Balve, Am Kreuzkamp",7.86259,51.32773,"de:5962:3049"
"24203584","Halver, Abzweig Kreisch",7.46497,51.21835,"de:5962:3584"
"24203043","Balve, Langenholthausen Uferstraße",7.88026,51.31135,"de:5962:3043"
"24203821","Kierspe, Feuerwehrgerätehaus",7.58549,51.13931,"de:5962:3821"
"24203014","Balve, Langenholthausen Grote",7.88173,51.31051,"de:5962:3014"
"24203803","Kierspe, Vorth",7.61102,51.14873,"de:5962:3803"
"24203581","Halver, Kreisch",7.46535,51.21601,"de:5962:3581"
"24203583","Halver, Buschhausen",7.45371,51.21782,"de:5962:3583"
"24203068","Balve, Rathaus",7.86202,51.32951,"de:5962:3068"
"24203576","Halver, Becke",7.46781,51.20858,"de:5962:3576"
"24203826","Kierspe, Varmert",7.54846,51.11543,"de:5962:3826"
"24203543","Halver, Hürxtal",7.48801,51.19975,"de:5962:3543"
"24203578","Halver, Nieder-Buschhausen",7.45241,51.2132,"de:5962:3578"
"24202796","Meinerzhagen, Wormgermühle",7.77043,51.11299,"de:5962:2796"
"24203081","Balve, Am Brunnen",7.86135,51.33218,"de:5962:3081"
"24203804","Kierspe, Wilmersberg",7.60746,51.15242,"de:5962:3804"
"24203056","Balve, Friedhofskapelle",7.86694,51.32504,"de:5962:3056"
"24203827","Kierspe, Grüner Weg",7.54161,51.11507,"de:5962:3827"
"24203071","Balve, In der Schieferkuhle",7.86551,51.32812,"de:5962:3071"
"24203674","Halver, Danziger Straße / Lieder",7.4942,51.19591,"de:5962:3674"
"24203001","Balve, Mitte",7.86453,51.33015,"de:5962:3001"
"24203668","Halver, Hagener Straße",7.49214,51.19656,"de:5962:3668"
"24203575","Halver, Lingensiepen",7.47303,51.20484,"de:5962:3575"
"24203080","Balve, Zur Wolfskuhle",7.86174,51.33453,"de:5962:3080"
"24203741","Herscheid (Westf), Hervel",7.71451,51.15223,"de:5962:3741"
"24203740","Herscheid (Westf), Rollsiepener Weg",7.70869,51.15394,"de:5962:3740"
"24203573","Halver, Kuhlen",7.47733,51.20245,"de:5962:3573"
"24203046","Balve, Zur Trift",7.86218,51.33391,"de:5962:3046"
"24202795","Meinerzhagen, Ihne",7.77922,51.11005,"de:5962:2795"
"24203572","Halver, Löhbach",7.48185,51.19818,"de:5962:3572"
"24203542","Halver, Weißenpferd",7.49245,51.19244,"de:5962:3542"
"24202909","Meinerzhagen, Spädinghausen I",7.7769,51.11439,"de:5962:2909"
"24203000","Balve, Balve Bahnhof",7.86322,51.33244,"de:5962:3000"
"24202893","Meinerzhagen, Spädinghausen II",7.77651,51.11682,"de:5962:2893"
"24203828","Kierspe, Bürhausen",7.531,51.11113,"de:5962:3828"
"24203742","Herscheid (Westf), Becke",7.72205,51.15299,"de:5962:3742"
"24203579","Halver, Burbach",7.44584,51.21051,"de:5962:3579"
"24203061","Balve, Sparkasse Markant",7.86418,51.3316,"de:5962:3061"
"24203002","Balve, Krankenhaus",7.86745,51.32745,"de:5962:3002"
"24203022","Balve, Binolen Abzweig Eisborn",7.85834,51.37617,"de:5962:3022"
"24203035","Balve, Abzweig Bahnhof",7.86441,51.33229,"de:5962:3035"
"24203516","Halver, Frankfurter Straße",7.49993,51.18663,"de:5962:3516"
"24203805","Kierspe, Vollme Jubach",7.6022,51.15863,"de:5962:3805"
"24203078","Balve, Zur fahlen Schlade",7.86237,51.33577,"de:5962:3078"
"24203541","Halver, Leye",7.4962,51.18856,"de:5962:3541"
"24203074","Balve, Brucknerweg",7.86798,51.32836,"de:5962:3074"
"24203743","Herscheid (Westf), Erlen",7.72926,51.15448,"de:5962:3743"
"24203649","Halver, Hotel Zur Post",7.498,51.18706,"de:5962:3649"
"24203651","Halver, Südstraße",7.49982,51.18591,"de:5962:3651"
"24203054","Balve, Städt. Hallenbad",7.86913,51.32697,"de:5962:3054"
"24203650","Halver, Helle",7.49789,51.18651,"de:5962:3650"
"24203806","Kierspe, Vollme Bahnhof",7.59327,51.16134,"de:5962:3806"
"24203040","Balve, Kesberg",7.90183,51.30341,"de:5962:3040"
"24203642","Halver, Berliner Platz",7.49762,51.1863,"de:5962:3642"
"24203744","Herscheid (Westf), Jagdhaus",7.73516,51.15606,"de:5962:3744"
"24203648","Halver, Seniorenzentrum",7.49915,51.18505,"de:5962:3648"
"24203528","Halver, Friedhof",7.49002,51.18988,"de:5962:3528"
"24202794","Meinerzhagen, Haumcher Mühle",7.79609,51.11109,"de:5962:2794"
"24202789","Meinerzhagen, Oberworbscheid",7.80185,51.10052,"de:5962:2789"
"24203807","Kierspe, Hüttebruch",7.58888,51.1625,"de:5962:3807"
"24203031","Balve, Grundschule",7.86924,51.32801,"de:5962:3031"
"24203708","Herscheid (Westf), Ober-Holte",7.71166,51.16747,"de:5962:3708"
"24203745","Herscheid (Westf), Abzweig Valbert",7.74117,51.15801,"de:5962:3745"
"24203083","Balve, Apflh. St. Johannes",7.86896,51.32845,"de:5962:3083"
"24203658","Halver, Hartmecke",7.44791,51.20712,"de:5962:3658"
"24203645","Halver, Holte",7.43604,51.2106,"de:5962:3645"
"24202790","Meinerzhagen, Mittelworbscheid",7.80623,51.10145,"de:5962:2790"
"24203700","Herscheid (Westf), Abzweig Reblin",7.74463,51.15806,"de:5962:3700"
"24203707","Herscheid (Westf), Nieder-Holte",7.70331,51.17096,"de:5962:3707"
"24203527","Halver, Goethestraße",7.49317,51.18755,"de:5962:3527"
"24203023","Balve, Binolen Bahnhof",7.85958,51.37214,"de:5962:3023"
"24203030","Balve, Binolen Horst",7.86354,51.37812,"de:5962:3030"
"24203535","Halver, Schulzentrum",7.49437,51.18621,"de:5962:3535"
"24203644","Halver, Eversberge",7.46948,51.19656,"de:5962:3644"
"24203746","Herscheid (Westf), Reblin",7.74535,51.15881,"de:5962:3746"
"24203013","Balve, Langenholthausen Zöllner",7.89334,51.31032,"de:5962:3013"
"24202793","Meinerzhagen, Mühlhofe",7.80234,51.11331,"de:5962:2793"
"24203709","Herscheid (Westf), Piene",7.72124,51.16759,"de:5962:3709"
"24203717","Herscheid (Westf), Ebbefeld",7.75028,51.15718,"de:5962:3717"
"24203041","Balve, Kaufpark",7.86791,51.33561,"de:5962:3041"
"24203529","Halver, Ober-Schmalenbach",7.48204,51.1908,"de:5962:3529"
"24203021","Balve, Binolen Hörster",7.86646,51.37991,"de:5962:3021"
"24203808","Kierspe, Beckinghauser Weg",7.58387,51.16729,"de:5962:3808"
"24202797","Meinerzhagen, Unterworbscheid II",7.81165,51.10019,"de:5962:2797"
"24203716","Herscheid (Westf), Daum",7.75603,51.15761,"de:5962:3716"
"24203710","Herscheid (Westf), Abzweig Mesten",7.72635,51.16937,"de:5962:3710"
"24203620","Halver, Beisen",7.46576,51.19794,"de:5962:3620"
"24203638","Halver, Weststraße",7.49556,51.18323,"de:5962:3638"
"24203580","Halver, Stieneichhofen",7.45627,51.20033,"de:5962:3580"
"24203526","Halver, Bächterhof",7.49268,51.18383,"de:5962:3526"
"24203038","Balve, Alte Ziegelei",7.8687,51.33629,"de:5962:3038"
"24202770","Meinerzhagen, Rinkscheid Mitte",7.80765,51.11729,"de:5962:2770"
"24203042","Balve, Lidl",7.8693,51.33662,"de:5962:3042"
"24203646","Halver, Am Mühlengrund",7.49553,51.18184,"de:5962:3646"
"24203643","Halver, Abzw. Kirchlöh",7.47151,51.19372,"de:5962:3643"
"24203715","Herscheid (Westf), Weißenstein",7.75667,51.1609,"de:5962:3715"
"24203640","Halver, Am Hügel",7.4934,51.18211,"de:5962:3640"
"24203006","Balve, Eisenstollen",7.87199,51.33271,"de:5962:3006"
"24203079","Balve, Am Hohlen Stein",7.87228,51.33439,"de:5962:3079"
"24203015","Balve, Höhle",7.87091,51.33985,"de:5962:3015"
"24203719","Herscheid (Westf), Ober-Mesten",7.73281,51.1719,"de:5962:3719"
"24203530","Halver, Schmalenbach",7.47098,51.19249,"de:5962:3530"
"24203666","Halver, Kölner Straße",7.49416,51.18054,"de:5962:3666"
"24203747","Herscheid (Westf), Rüendanz",7.75446,51.16416,"de:5962:3747"
"24203633","Halver, Abzw. Grafweg",7.44265,51.20238,"de:5962:3633"
"24203636","Halver, Eichhofermühle",7.45564,51.19746,"de:5962:3636"
"24203639","Halver, AWO-Kindergarten",7.49069,51.18062,"de:5962:3639"
"24203706","Herscheid (Westf), Gasmert",7.70356,51.1824,"de:5962:3706"
"24203769","Herscheid (Westf), An der Schmachtkorste",7.74356,51.17202,"de:5962:3769"
"24203809","Kierspe, Bollwerk",7.58607,51.17779,"de:5962:3809"
"24203748","Herscheid (Westf), Winzenberg",7.75492,51.16858,"de:5962:3748"
"24203705","Herscheid (Westf), Höhermühle",7.76427,51.16454,"de:5962:3705"
"24203767","Herscheid (Westf), Am Rohbusch",7.74537,51.1727,"de:5962:3767"
"24203587","Halver, Untere Mühlenstraße",7.48873,51.18151,"de:5962:3587"
"24203774","Herscheid (Westf), Breslauer Straße",7.75539,51.16931,"de:5962:3774"
"24203704","Herscheid (Westf), Kiesbert",7.77211,51.16145,"de:5962:3704"
"24203788","Herscheid (Westf), Obere Jahnstraße",7.74731,51.17292,"de:5962:3788"
"24203698","Herscheid (Westf), Mozartstr.",7.75942,51.16811,"de:5962:3698"
"24203085","Balve, Grübeck Abzw. Deponie",7.87067,51.37078,"de:5962:3085"
"24203731","Herscheid (Westf), Elektro Rieger GmbH",7.75779,51.16946,"de:5962:3731"
"24203661","Halver, Lessingstr./Wagnerring",7.48587,51.18272,"de:5962:3661"
"24203730","Herscheid (Westf), Ennert",7.75259,51.17244,"de:5962:3730"
"24203662","Halver, Händelstr./Mozartstr.",7.48699,51.18181,"de:5962:3662"
"24203539","Halver, Schmidthausen",7.53423,51.15991,"de:5962:3539"
"24203531","Halver, Ennepe Schulte",7.45503,51.19295,"de:5962:3531"
"24203699","Herscheid (Westf), Müggenbruch Hauswald",7.75637,51.17093,"de:5962:3699"
"24203796","Herscheid (Westf), Untere Jahnstraße",7.74631,51.17501,"de:5962:3796"
"24203588","Halver, Neuemühle",7.48443,51.1794,"de:5962:3588"
"24203605","Halver, Nieder-Hedfeld",7.51534,51.14745,"de:5962:3605"
"24203795","Herscheid (Westf), Unterdorfstraße",7.7444,51.17607,"de:5962:3795"
"24203771","Herscheid (Westf), Bauhof",7.75371,51.17274,"de:5962:3771"
"24203749","Herscheid (Westf), Emmeszaun",7.78211,51.1588,"de:5962:3749"
"24203726","Herscheid (Westf), Denkmal",7.73893,51.17855,"de:5962:3726"
"24203781","Herscheid (Westf), Gartenstr.",7.74814,51.17539,"de:5962:3781"
"24203725","Herscheid (Westf), Wermecke",7.72688,51.18238,"de:5962:3725"
"24203729","Herscheid (Westf), Mühlenweg",7.74845,51.17583,"de:5962:3729"
"24203537","Halver, Abzweig Nieder-Hedfeld",7.51821,51.15167,"de:5962:3537"
"24203033","Balve, Eisborn Schützenhalle",7.88194,51.38611,"de:5962:3033"
"24203695","Herscheid (Westf), Mittelstraße Apotheke",7.74244,51.17816,"de:5962:3695"
"24203732","Herscheid (Westf), Müggenbruch Kurve",7.75875,51.17199,"de:5962:3732"
"24203787","Herscheid (Westf), Neuer Weg",7.74482,51.1777,"de:5962:3787"
"24203722","Herscheid (Westf), Abzweig Rahlenberg",7.74034,51.17927,"de:5962:3722"
"24203724","Herscheid (Westf), Hardt",7.71737,51.18568,"de:5962:3724"
"24203736","Herscheid (Westf), Raiffeisenmarkt",7.75164,51.17566,"de:5962:3736"
"24203727","Herscheid (Westf), Markt",7.74298,51.1789,"de:5962:3727"
"24203703","Herscheid (Westf), Ebbemühle",7.78645,51.15894,"de:5962:3703"
"24203810","Kierspe, Haus Bremer",7.58039,51.18282,"de:5962:3810"
"24203562","Halver, Auf dem Heede",7.48164,51.14425,"de:5962:3562"
"24203728","Herscheid (Westf), Rathaus",7.75007,51.17764,"de:5962:3728"
"24203761","Herscheid (Westf), Evangelischer Kindergarten",7.74844,51.17841,"de:5962:3761"
"24203024","Balve, Volkringhausen",7.87222,51.35988,"de:5962:3024"
"24203770","Herscheid (Westf), Auf dem Rode Rathaus",7.74984,51.17875,"de:5962:3770"
"24203779","Herscheid (Westf), Falkenweg",7.74536,51.18038,"de:5962:3779"
"24203793","Herscheid (Westf), Spielbergweg",7.75131,51.17826,"de:5962:3793"
"24203608","Halver, Niederbommert",7.50328,51.1454,"de:5962:3608"
"24203720","Herscheid (Westf), Rahlenbergschule",7.74191,51.18247,"de:5962:3720"
"24203759","Herscheid (Westf), Herscheider Mühle",7.71293,51.19002,"de:5962:3759"
"24203008","Balve, Eisborn",7.88268,51.38681,"de:5962:3008"
"24203599","Halver, Brüninghausen",7.53767,51.16936,"de:5962:3599"
"24203536","Halver, Schulten-Hedfeld",7.51466,51.15538,"de:5962:3536"
"24203777","Herscheid (Westf), Eichenweg",7.7523,51.17969,"de:5962:3777"
"24203016","Balve, Helle",7.87753,51.34514,"de:5962:3016"
"24203773","Herscheid (Westf), Bergstraße",7.74471,51.18295,"de:5962:3773"
"24203538","Halver, Giersiepen",7.50862,51.15215,"de:5962:3538"
"24203811","Kierspe, Rhadermühle",7.57337,51.1849,"de:5962:3811"
"24203564","Halver, Bommert",7.50244,51.14737,"de:5962:3564"
"24203697","Herscheid (Westf), Auf dem Rode Seniorenzentrum",7.7485,51.18195,"de:5962:3697"
"24203780","Herscheid (Westf), Friedhof",7.7507,51.18122,"de:5962:3780"
"24203702","Herscheid (Westf), Hardt Schäfer",7.79392,51.16022,"de:5962:3702"
"24203064","Balve, Woklum Kläranlage",7.8796,51.34195,"de:5962:3064"
"24203540","Halver, Wegerhof",7.52238,51.16513,"de:5962:3540"
"24203733","Herscheid (Westf), Grünenthal",7.76898,51.17732,"de:5962:3733"
"24203765","Herscheid (Westf), Im Ebbe",7.79904,51.16144,"de:5962:3765"
"24203734","Herscheid (Westf), Birkenhof",7.77583,51.17484,"de:5962:3734"
"24203084","Balve, Eisborn Grübecker Str.",7.88562,51.38543,"de:5962:3084"
"24203020","Balve, Grübeck",7.8825,51.37776,"de:5962:3020"
"24203598","Halver, Sticht",7.53865,51.17741,"de:5962:3598"
"24203017","Balve, Sanssouci Bahnhof",7.8792,51.35356,"de:5962:3017"
"24203701","Herscheid (Westf), Hardt Oestertalsperre",7.80145,51.16247,"de:5962:3701"
"24203595","Halver, Hagebüchen",7.5124,51.16397,"de:5962:3595"
"24203512","Halver, Bergfeld",7.52185,51.17068,"de:5962:3512"
"24203025","Balve, Wocklum",7.88773,51.34112,"de:5962:3025"
"24203517","Halver, Oberbrügge",7.57325,51.1923,"de:5962:3517"
"24203790","Herscheid (Westf), Schmiedeweg",7.76461,51.1837,"de:5962:3790"
"24203711","Herscheid (Westf), Abzweig Hohl",7.74869,51.18958,"de:5962:3711"
"24203057","Balve, Am Beule",7.88317,51.35651,"de:5962:3057"
"24203518","Halver, Oberbrügge Schule",7.5634,51.18957,"de:5962:3518"
"24203513","Halver, Wilhelmshöhe",7.51406,51.167,"de:5962:3513"
"24203525","Halver, Oberbrügge Post",7.57242,51.1926,"de:5962:3525"
"24203050","Balve, Volkringhauser Weg",7.88387,51.35764,"de:5962:3050"
"24203758","Herscheid (Westf), Verse",7.71859,51.19818,"de:5962:3758"
"24203519","Halver, St. Georg",7.56991,51.19224,"de:5962:3519"
"24203634","Halver, Staklenberg",7.55038,51.18601,"de:5962:3634"
"24203010","Balve, Mellen Kirche",7.9016,51.32884,"de:5962:3010"
"24203520","Halver, Dorfschänke",7.56352,51.1912,"de:5962:3520"
"24203012","Balve, Am Knapp",7.90725,51.32499,"de:5962:3012"
"24203009","Balve, Karhof",7.89548,51.38331,"de:5962:3009"
"24203011","Balve, Mellen Schützenhalle",7.90553,51.3274,"de:5962:3011"
"24203604","Halver, Grund 5",7.54332,51.18462,"de:5962:3604"
"24203593","Halver, Grund",7.53854,51.18374,"de:5962:3593"
"24203597","Halver, Abzweig Collenberg",7.52095,51.17508,"de:5962:3597"
"24203603","Halver, Auf der Mark",7.51146,51.1699,"de:5962:3603"
"24203018","Balve, Beckum Feuerwehr",7.89066,51.3546,"de:5962:3018"
"24203521","Halver, Ehringhausen",7.55211,51.18964,"de:5962:3521"
"24203735","Herscheid (Westf), Weiße Ahe",7.78856,51.17737,"de:5962:3735"
"24203051","Balve, Dorfstraße",7.89066,51.35491,"de:5962:3051"
"24203037","Balve, Beckum Grundschule",7.89377,51.3547,"de:5962:3037"
"24203076","Balve, Zum Langeloh",7.89633,51.35282,"de:5962:3076"
"24203019","Balve, Beckum Oberste",7.89612,51.35565,"de:5962:3019"
"24203077","Balve, Am Südfeld",7.89746,51.35415,"de:5962:3077"
"24203075","Balve, Zur Hinsel",7.89872,51.35338,"de:5962:3075"
"24203561","Halver, Engstfeld Mitte",7.47316,51.15073,"de:5962:3561"
"24203594","Halver, Im Wiebusch",7.52938,51.18115,"de:5962:3594"
"24203611","Halver, Engstfeld 4",7.47505,51.14971,"de:5962:3611"
"24203677","Halver, Auf der Höh",7.4787,51.1471,"de:5962:3677"
"24203515","Halver, Engstfeld",7.47096,51.15447,"de:5962:3515"
"24202891","Plettenberg, Erkelze",7.81092,51.23134,"de:5962:2891"
"24202892","Plettenberg, Selscheid",7.79576,51.23193,"de:5962:2892"
"24203755","Herscheid (Westf), Schwarze Ahe",7.72236,51.2211,"de:5962:3755"
"24203751","Herscheid (Westf), Bubbecke Eick",7.73223,51.22182,"de:5962:3751"
"24203754","Herscheid (Westf), Ahehammer",7.72199,51.22437,"de:5962:3754"
"24203607","Halver, Schrödersherweg",7.52709,51.18246,"de:5962:3607"
"24203752","Herscheid (Westf), Wiesenfeld Nr. 8",7.73239,51.22411,"de:5962:3752"
"24203753","Herscheid (Westf), Wiesenfeld",7.72644,51.22687,"de:5962:3753"
"24202830","Plettenberg, Autohaus Jürgens",7.81056,51.25143,"de:5962:2830"
"24203294","Werdohl, Bremfeld",7.73758,51.22965,"de:5962:3294"
"24203213","Werdohl, Altenmühle",7.72588,51.23028,"de:5962:3213"
"24203522","Halver, Schmidtsiepen",7.53687,51.1878,"de:5962:3522"
"24203275","Werdohl, Hesmecke",7.75728,51.23223,"de:5962:3275"
"24203293","Werdohl, Waldschlößchen",7.73377,51.23093,"de:5962:3293"
"24203757","Herscheid (Westf), Schönebecke",7.72218,51.20488,"de:5962:3757"
"24203274","Werdohl, Hesmecke Mitte",7.75932,51.23332,"de:5962:3274"
"24203612","Halver, Im Heede",7.51089,51.1757,"de:5962:3612"
"24203289","Werdohl, Obere Heide",7.75181,51.23232,"de:5962:3289"
"24203214","Werdohl, Bärenstein",7.72398,51.23204,"de:5962:3214"
"24203199","Werdohl, Lange Straße",7.73585,51.23167,"de:5962:3199"
"24203299","Werdohl, Friedhof Obere Heide",7.75596,51.23345,"de:5962:3299"
"24203609","Halver, Abzw. Siepen",7.53388,51.188,"de:5962:3609"
"24203523","Halver, Abzw. Schrödersherweg",7.52643,51.18487,"de:5962:3523"
"24203277","Werdohl, In der Lothmecke",7.81091,51.25885,"de:5962:3277"
"24203250","Werdohl, Kleinhammer Schule",7.76223,51.2355,"de:5962:3250"
"24203273","Werdohl, Im Eichkamp",7.76024,51.23513,"de:5962:3273"
"24203511","Halver, Neuenherweg",7.51466,51.17954,"de:5962:3511"
"24203212","Werdohl, Eveking II",7.73468,51.23299,"de:5962:3212"
"24203524","Halver, Ober-Herweg",7.52058,51.18275,"de:5962:3524"
"24203291","Werdohl, Weg zum Mühlenschlad",7.73685,51.23335,"de:5962:3291"
"24203261","Werdohl, Bauckloh",7.80714,51.25741,"de:5962:3261"
"24203272","Werdohl, Brauck",7.76124,51.23648,"de:5962:3272"
"24203210","Werdohl, Kirchstraße",7.74526,51.23428,"de:5962:3210"
"24203778","Herscheid (Westf), Elsen",7.775,51.1917,"de:5962:3778"
"24203211","Werdohl, Eveking I",7.74098,51.23428,"de:5962:3211"
"24203295","Werdohl, Abzweig Eveking",7.74043,51.23427,"de:5962:3295"
"24203209","Werdohl, Deitenbecke",7.75189,51.23536,"de:5962:3209"
"24203208","Werdohl, Esmecke",7.75591,51.23702,"de:5962:3208"
"24203292","Werdohl, Mühlenschlad",7.73718,51.23552,"de:5962:3292"
"24203675","Halver, Wiebusch Hedfeld",7.45824,51.16378,"de:5962:3675"
"24203246","Werdohl, Pungelscheid I",7.77796,51.24302,"de:5962:3246"
"24203549","Halver, Marderweg",7.5163,51.18307,"de:5962:3549"
"24203206","Werdohl, Rutenpaul",7.76333,51.23895,"de:5962:3206"
"24203260","Werdohl, Kracht",7.80063,51.2557,"de:5962:3260"
"24203568","Halver, Vorst",7.44917,51.17019,"de:5962:3568"
"24203245","Werdohl, Im Springen",7.77334,51.24185,"de:5962:3245"
"24203217","Werdohl, Borbecke",7.72356,51.23639,"de:5962:3217"
"24203207","Werdohl, Kleinhammer",7.76044,51.23892,"de:5962:3207"
"24203563","Halver, Schlachtenrade",7.49251,51.14339,"de:5962:3563"
"24203215","Werdohl, Selvestraße",7.72349,51.23714,"de:5962:3215"
"24203784","Herscheid (Westf), Im Lohsiepen",7.80513,51.17939,"de:5962:3784"
"24203247","Werdohl, Pungelscheid II",7.77707,51.24412,"de:5962:3247"
"24203556","Halver, Kotten",7.44751,51.17404,"de:5962:3556"
"24203248","Werdohl, Auf dem Kopf",7.77809,51.24619,"de:5962:3248"
"24203676","Halver, Berken",7.47097,51.16241,"de:5962:3676"
"24203259","Werdohl, Gewerbestraße",7.79684,51.2571,"de:5962:3259"
"24203216","Werdohl, Am Großen Stück",7.72592,51.23887,"de:5962:3216"
"24203218","Werdohl, Fischersverse",7.72071,51.23991,"de:5962:3218"
"24203570","Halver, Eickerschmitte",7.44741,51.17818,"de:5962:3570"
"24203712","Herscheid (Westf), Abzw. Marlin",7.75577,51.20206,"de:5962:3712"
"24203756","Herscheid (Westf), Vogelsang",7.72325,51.21046,"de:5962:3756"
"24203618","Halver, Birkenbaum",7.4676,51.16981,"de:5962:3618"
"24203258","Werdohl, Hohe Fuhr",7.796,51.25797,"de:5962:3258"
"24203249","Werdohl, Repke",7.77867,51.24887,"de:5962:3249"
"24203219","Werdohl, Oberborbecke",7.71641,51.24175,"de:5962:3219"
"24203140","Neuenrade, Küntroper Straße",7.81012,51.28481,"de:5962:3140"
"24203198","Werdohl, Osterhardt",7.75866,51.24433,"de:5962:3198"
"24203280","Werdohl, Osmecke Wendestelle",7.75154,51.24313,"de:5962:3280"
"24203205","Werdohl, Blechhammer",7.76121,51.24499,"de:5962:3205"
"24203279","Werdohl, Osmecke",7.75553,51.24392,"de:5962:3279"
"24203637","Halver, Lausberge",7.47301,51.16689,"de:5962:3637"
"24203257","Werdohl, Kettling",7.7925,51.25942,"de:5962:3257"
"24203569","Halver, Eickerhöh",7.45163,51.17766,"de:5962:3569"
"24203567","Halver, Heinken - Hedfeld",7.47123,51.1687,"de:5962:3567"
"24203233","Werdohl, Schulzentrum Riesei",7.78,51.25228,"de:5962:3233"
"24203282","Werdohl, In der Becke",7.78288,51.25432,"de:5962:3282"
"24203204","Werdohl, Ehrenfeld",7.76314,51.2475,"de:5962:3204"
"24203234","Werdohl, Hallenbad",7.77778,51.25282,"de:5962:3234"
"24203510","Halver, Karlshöhe",7.5094,51.18424,"de:5962:3510"
"24203191","Neuenrade, Baumarkt",7.80644,51.28692,"de:5962:3191"
"24203653","Halver, Oesterberg I",7.50664,51.18277,"de:5962:3653"
"24203559","Halver, Hohenplanken",7.44195,51.18326,"de:5962:3559"
"24203113","Neuenrade, Bauhof",7.80518,51.28835,"de:5962:3113"
"24203297","Werdohl, Parkplatz Riesei",7.77706,51.25379,"de:5962:3297"
"24203514","Halver, Anschlag",7.48047,51.16495,"de:5962:3514"
"24203115","Neuenrade, Balver Straße",7.80439,51.29003,"de:5962:3115"
"24203256","Werdohl, Pumpstation",7.78835,51.26136,"de:5962:3256"
"24203574","Halver, Abzweig  Anschlag",7.48174,51.16434,"de:5962:3574"
"24203560","Halver, Anschlag Schule",7.48028,51.16561,"de:5962:3560"
"24203203","Werdohl, Versevörde",7.76656,51.25139,"de:5962:3203"
"24203114","Neuenrade, Schöntal",7.80265,51.28772,"de:5962:3114"
"24203238","Werdohl, Am Holte",7.77345,51.25411,"de:5962:3238"
"24203112","Neuenrade, Friedrichstal",7.80185,51.29036,"de:5962:3112"
"24203654","Halver, Oesterberg II",7.50573,51.18503,"de:5962:3654"
"24203652","Halver, Bahnweg",7.50269,51.1834,"de:5962:3652"
"24203693","Herscheid (Westf), Unterm Sterl",7.79012,51.19393,"de:5962:3693"
"24203763","Herscheid (Westf), Alfrin",7.74127,51.21096,"de:5962:3763"
"24203236","Werdohl, Hermann-Löns-Straße",7.77814,51.25723,"de:5962:3236"
"24203326","Werdohl, Abzweig Feldstraße",7.78104,51.25946,"de:5962:3326"
"24203237","Werdohl, Waldstraße",7.77584,51.25659,"de:5962:3237"
"24203252","Werdohl, Fichtenstraße",7.75941,51.25087,"de:5962:3252"
"24203251","Werdohl, Rodt",7.76039,51.25131,"de:5962:3251"
"24203239","Werdohl, Königsburg",7.77316,51.25603,"de:5962:3239"
"24203655","Halver, Hagedornstraße",7.50657,51.18727,"de:5962:3655"
"24203647","Halver, Lohstraße",7.50033,51.18389,"de:5962:3647"
"24203380","Werdohl, Oststr I",7.77484,51.25693,"de:5962:3380"
"24203301","Werdohl, Seniorenheim Forsthaus",7.74464,51.2487,"de:5962:3301"
"24203165","Neuenrade, Welmecke",7.79868,51.28217,"de:5962:3165"
"24203739","Herscheid (Westf), Hüinghausen Schule",7.79675,51.19252,"de:5962:3739"
"24203253","Werdohl, Nordhelle",7.75769,51.25107,"de:5962:3253"
"24203501","Halver, Ostendorf Schule",7.55044,51.20701,"de:5962:3501"
"24203692","Herscheid (Westf), Im Kämpchen",7.79437,51.19437,"de:5962:3692"
"24203764","Herscheid (Westf), Heusprenkel",7.7365,51.21426,"de:5962:3764"
"24203381","Werdohl, Oststr. II",7.77809,51.25908,"de:5962:3381"
"24203240","Werdohl, Am Nocken",7.77431,51.25744,"de:5962:3240"
"24203738","Herscheid (Westf), Hüinghausen",7.80129,51.19153,"de:5962:3738"
"24203623","Halver, Waldlehrpfad",7.5176,51.19482,"de:5962:3623"
"24203500","Halver, Sparkasse ZOB",7.50236,51.18746,"de:5962:3500"
"24203624","Halver, Sperlingweg",7.52262,51.19753,"de:5962:3624"
"24203622","Halver, Falkenstraße",7.51377,51.1938,"de:5962:3622"
"24203166","Neuenrade, Vollmarstraße",7.79794,51.28302,"de:5962:3166"
"24203616","Halver, Mittelstraße",7.50353,51.18878,"de:5962:3616"
"24203509","Halver, Schulstraße Grundschule Ost",7.50268,51.18874,"de:5962:3509"
"24203625","Halver, Sperberweg",7.52084,51.19777,"de:5962:3625"
"24203626","Halver, Elsterweg",7.51745,51.19624,"de:5962:3626"
"24203721","Herscheid (Westf), Neue Wermecke",7.72466,51.21863,"de:5962:3721"
"24203107","Neuenrade, Oststraße",7.79845,51.28571,"de:5962:3107"
"24203502","Halver, Ostendorf",7.55258,51.2104,"de:5962:3502"
"24203627","Halver, Zeisigweg",7.51208,51.19467,"de:5962:3627"
"24203589","Halver, Abzweig Halverscheid",7.55262,51.21084,"de:5962:3589"
"24203507","Halver, Eichholz",7.50842,51.19364,"de:5962:3507"
"24203508","Halver, Langenscheid",7.50345,51.19138,"de:5962:3508"
"24203506","Halver, Steinbruch",7.51546,51.19737,"de:5962:3506"
"24203750","Herscheid (Westf), Bubbecke Brinker",7.73471,51.21846,"de:5962:3750"
"24203656","Halver, In der Bräumcke",7.5076,51.19468,"de:5962:3656"
"24203503","Halver, Heesfeld",7.53874,51.20859,"de:5962:3503"
"24203760","Herscheid (Westf), Rärin Feuerwehr",7.76037,51.2136,"de:5962:3760"
"24203558","Halver, Gehärte",7.54838,51.21283,"de:5962:3558"
"24203504","Halver, Deutsches Eck",7.52802,51.20592,"de:5962:3504"
"24203714","Herscheid (Westf), Wellin",7.77413,51.21054,"de:5962:3714"
"24203505","Halver, Oeckinghausen Kaiser",7.52236,51.20453,"de:5962:3505"
"24203659","Halver, Heide/Neosid",7.50268,51.19541,"de:5962:3659"
"24202839","Plettenberg, Mühlhoff",7.81176,51.19465,"de:5962:2839"
"24203554","Halver, Susannenhöh",7.52822,51.20765,"de:5962:3554"
"24203660","Halver, Breslauer Weg",7.50109,51.19886,"de:5962:3660"
"24203606","Halver, Halverscheid 27",7.54853,51.21863,"de:5962:3606"
"24203552","Halver, Rolandseck",7.53276,51.21488,"de:5962:3552"
"24203553","Halver, Carthausen",7.5271,51.21408,"de:5962:3553"
"24203551","Halver, Steinbach",7.53584,51.21866,"de:5962:3551"
"24202771","Meinerzhagen, Abzweig Siepen",7.82776,51.10687,"de:5962:2771"
"24203202","Werdohl, Lüdenscheider Straße",7.76591,51.25412,"de:5962:3202"
"24203672","Halver, Beverstraße",7.43427,51.18767,"de:5962:3672"
"24202791","Meinerzhagen, Unterworbscheid I",7.81513,51.10061,"de:5962:2791"
"24202792","Meinerzhagen, Grotewiese",7.81304,51.11065,"de:5962:2792"
"24202875","Plettenberg, In der Walkmühle",7.9342,51.18287,"de:5962:2875"
"24202769","Meinerzhagen, Sellenrade",7.81586,51.12734,"de:5962:2769"
"24202874","Plettenberg, Landemert",7.93317,51.18638,"de:5962:2874"
"24202816","Plettenberg, Halsmecke",7.85702,51.16448,"de:5962:2816"
"24202873","Plettenberg, Abzweig Habbecke",7.92863,51.18768,"de:5962:2873"
"24202872","Plettenberg, In der Mühle",7.9251,51.19185,"de:5962:2872"
"24202810","Plettenberg, Kückelheim",7.84684,51.16906,"de:5962:2810"
"24202808","Plettenberg, Lettmecke",7.85919,51.17509,"de:5962:2808"
"24202871","Plettenberg, Steinkuhle",7.92543,51.19389,"de:5962:2871"
"24202809","Plettenberg, An der Ebbecke",7.85446,51.17297,"de:5962:2809"
"24202919","Plettenberg, Schule Lettmecke",7.85884,51.1765,"de:5962:2919"
"24202811","Plettenberg, Wiesenthal",7.84025,51.16892,"de:5962:2811"
"24202807","Plettenberg, Oesterau",7.85843,51.18055,"de:5962:2807"
"24202870","Plettenberg, Hachmecke",7.9133,51.19981,"de:5962:2870"
"24202812","Plettenberg, Mayer",7.83216,51.17175,"de:5962:2812"
"24202898","Plettenberg, Siedlung Ohlwiese",7.858,51.18563,"de:5962:2898"
"24202806","Plettenberg, Sägewerk Geisweid",7.85882,51.18614,"de:5962:2806"
"24202838","Plettenberg, Himmelmert",7.82766,51.17233,"de:5962:2838"
"24202915","Plettenberg, Oestertalsperre Wendestelle",7.8208,51.16852,"de:5962:2915"
"24202805","Plettenberg, Malik",7.86157,51.19108,"de:5962:2805"
"24202869","Plettenberg, Heveschotten",7.90879,51.2043,"de:5962:2869"
"24202920","Plettenberg, Oesterhammer Brücke",7.87436,51.19751,"de:5962:2920"
"24202804","Plettenberg, Oesterhammer",7.87298,51.19716,"de:5962:2804"
"24202803","Plettenberg, Langenbach & Köster",7.87546,51.20071,"de:5962:2803"
"24202868","Plettenberg, Siedlung Grünetal",7.89727,51.20766,"de:5962:2868"
"24202953","Plettenberg, Höhenweg Schrebergärten",7.86379,51.19868,"de:5962:2953"
"24202952","Plettenberg, Sundheller Straße",7.86862,51.20045,"de:5962:2952"
"24202951","Plettenberg, Höhenweg",7.87189,51.20206,"de:5962:2951"
"24202883","Plettenberg, Bruchweg",7.85769,51.19783,"de:5962:2883"
"24202882","Plettenberg, Lehmweg",7.85216,51.19594,"de:5962:2882"
"24202884","Plettenberg, Bergstraße",7.8649,51.20061,"de:5962:2884"
"24202867","Plettenberg, Gasthof Freibad",7.88964,51.20813,"de:5962:2867"
"24202885","Plettenberg, Dingeringhauser Weg",7.86785,51.20234,"de:5962:2885"
"24202802","Plettenberg, Oestertalstraße",7.87761,51.20576,"de:5962:2802"
"24202956","Plettenberg, Ratschelle / DRK - Heim",7.87475,51.20507,"de:5962:2956"
"24202895","Plettenberg, Zeppelinschule",7.87173,51.20522,"de:5962:2895"
"24202886","Plettenberg, Grafweg",7.87269,51.20557,"de:5962:2886"
"24202881","Plettenberg, Prinzstraße",7.84961,51.19861,"de:5962:2881"
"24202848","Plettenberg, Oberstadt Bahnhof",7.86385,51.20436,"de:5962:2848"
"24202950","Plettenberg, Ziegelstraße",7.87175,51.20684,"de:5962:2950"
"24202844","Plettenberg, Dürerstraße",7.86101,51.20373,"de:5962:2844"
"24202843","Plettenberg, Holbeinstraße",7.85711,51.20274,"de:5962:2843"
"24202845","Plettenberg, Oberstadt",7.86682,51.20637,"de:5962:2845"
"24202801","Plettenberg, Uhlandbrücke",7.88145,51.21056,"de:5962:2801"
"24202815","Plettenberg, Goethestraße",7.88851,51.21253,"de:5962:2815"
"24202842","Plettenberg, Holthausen",7.85305,51.202,"de:5962:2842"
"24202817","Plettenberg, Schubertstraße",7.86066,51.20475,"de:5962:2817"
"24202943","Plettenberg, Dorfstraße",7.85365,51.20278,"de:5962:2943"
"24202949","Plettenberg, Ratscheller Weg",7.8739,51.20942,"de:5962:2949"
"24202819","Plettenberg, Holthausen Dorfstraße",7.85319,51.20276,"de:5962:2819"
"24202939","Plettenberg, Hechmecker Weg",7.86576,51.20719,"de:5962:2939"
"24202813","Plettenberg, Schule Königstraße",7.8774,51.21074,"de:5962:2813"
"24202944","Plettenberg, Maibaumstraße",7.84755,51.20101,"de:5962:2944"
"24202922","Plettenberg, Industriestraße",7.83696,51.19668,"de:5962:2922"
"24202935","Plettenberg, Rilkeweg",7.89236,51.21466,"de:5962:2935"
"24202814","Plettenberg, Krankenhaus",7.88724,51.21349,"de:5962:2814"
"24202999","Plettenberg, Liedweg",7.84968,51.20233,"de:5962:2999"
"24202968","Plettenberg, Spitzwegstraße",7.85551,51.20446,"de:5962:2968"
"24202937","Plettenberg, Am Kirchlöh",7.88544,51.21333,"de:5962:2937"
"24202846","Plettenberg, Herscheider Straße",7.87006,51.20921,"de:5962:2846"
"24202896","Plettenberg, Steinbrinkstraße",7.88059,51.21229,"de:5962:2896"
"24202818","Plettenberg, Holthausen Schule",7.8478,51.20186,"de:5962:2818"
"24202936","Plettenberg, Hölderlinstr.",7.88909,51.21451,"de:5962:2936"
"24202945","Plettenberg, Holthausen Friedhof",7.84298,51.20023,"de:5962:2945"
"24202847","Plettenberg, Kaiserstraße",7.87336,51.21063,"de:5962:2847"
"24202821","Plettenberg, Hechmecke",7.8585,51.20602,"de:5962:2821"
"24202938","Plettenberg, Marler Weg",7.86824,51.20916,"de:5962:2938"
"24202850","Plettenberg, Rathaus",7.8782,51.21219,"de:5962:2850"
"24202940","Plettenberg, Slevogtstraße",7.85613,51.206,"de:5962:2940"
"24202942","Plettenberg, Crummenerl",7.8509,51.20427,"de:5962:2942"
"24202841","Plettenberg, Bremckerlinde",7.83829,51.19933,"de:5962:2841"
"24202834","Plettenberg, Köbbinghausen Unterführung",7.83141,51.19634,"de:5962:2834"
"24202833","Plettenberg, Köbbinghausen",7.82338,51.19253,"de:5962:2833"
"24202831","Plettenberg, Köbbinghauser Hammer",7.83246,51.19702,"de:5962:2831"
"24202948","Plettenberg, Moosuferstraße",7.86427,51.20992,"de:5962:2948"
"24202800","Plettenberg, Grünestraße ZOB",7.87459,51.21303,"de:5962:2800"
"24202947","Plettenberg, Haydnstraße",7.86564,51.21077,"de:5962:2947"
"24202941","Plettenberg, Gartenstraße",7.8532,51.20674,"de:5962:2941"
"24202946","Plettenberg, Brahmsweg",7.86561,51.21178,"de:5962:2946"
"24202955","Plettenberg, Im Käsebrink",7.8337,51.2002,"de:5962:2955"
"24202832","Plettenberg, Daimlerstraße",7.82532,51.1968,"de:5962:2832"
"24202849","Plettenberg, Am Untertor",7.87402,51.21498,"de:5962:2849"
"24202835","Plettenberg, Zimmerstraße",7.87262,51.21488,"de:5962:2835"
"24202861","Plettenberg, Weg nach Bremcke",7.82763,51.19868,"de:5962:2861"
"24202840","Plettenberg, Osterloh",7.82082,51.19715,"de:5962:2840"
"24202954","Plettenberg, Bremcke",7.82872,51.20091,"de:5962:2954"
"24203164","Neuenrade, Neuer Friedhof",7.79664,51.28184,"de:5962:3164"
"24203463","Schalksmühle, Rölvede",7.57915,51.28584,"de:5962:3463"
"24203462","Schalksmühle, Albringwerde",7.58739,51.28003,"de:5962:3462"
"24203497","Schalksmühle, Reineberge",7.57387,51.27495,"de:5962:3497"
"24203420","Schalksmühle, Winkeln",7.60143,51.27554,"de:5962:3420"
"24203337","Nachrodt, Brenscheid",7.60869,51.29564,"de:5962:3337"
"24203499","Schalksmühle, Mummesohl",7.56768,51.2686,"de:5962:3499"
"24203458","Schalksmühle, Everinghausen",7.55801,51.2693,"de:5962:3458"
"24203396","Schalksmühle, Mesewinkel",7.56786,51.26593,"de:5962:3396"
"24203498","Schalksmühle, Altenhülscheid",7.58163,51.26445,"de:5962:3498"
"24203419","Schalksmühle, Wersbecke",7.60685,51.27043,"de:5962:3419"
"24203395","Schalksmühle, Siepen",7.56804,51.2628,"de:5962:3395"
"24203471","Schalksmühle, Hülscheid",7.57575,51.26182,"de:5962:3471"
"24203474","Schalksmühle, Sterbecke",7.59775,51.26441,"de:5962:3474"
"24203345","Nachrodt, Niggehuser Hof",7.60969,51.30876,"de:5962:3345"
"24203464","Schalksmühle, Sonnenscheid",7.61772,51.27525,"de:5962:3464"
"24203394","Schalksmühle, Berkey",7.56835,51.26097,"de:5962:3394"
"24203403","Schalksmühle, Ramsloh",7.56665,51.26026,"de:5962:3403"
"24203352","Nachrodt, Kolping Familenferienstätte",7.61831,51.30595,"de:5962:3352"
"24203492","Schalksmühle, Gewerbegebiet",7.56384,51.26003,"de:5962:3492"
"24203319","Nachrodt, Wörden",7.60719,51.31355,"de:5962:3319"
"24203324","Nachrodt, Hahn",7.6269,51.29055,"de:5962:3324"
"24203495","Schalksmühle, Kuhlenkeppig",7.59597,51.26033,"de:5962:3495"
"24203455","Schalksmühle, Spormecke Schule",7.57075,51.25824,"de:5962:3455"
"24203478","Schalksmühle, Fa. Kaiser",7.56158,51.25957,"de:5962:3478"
"24203402","Schalksmühle, Spormecke",7.57199,51.258,"de:5962:3402"
"24203325","Nachrodt, Oevenscheid",7.62826,51.28765,"de:5962:3325"
"24203320","Nachrodt, Wiblingwerde",7.61664,51.3095,"de:5962:3320"
"24203323","Nachrodt, Am Leimbleck",7.62783,51.29599,"de:5962:3323"
"24203321","Nachrodt, Abzweig Neuenhaus",7.6216,51.30577,"de:5962:3321"
"24203401","Schalksmühle, Heedfeld",7.58183,51.25718,"de:5962:3401"
"24203347","Nachrodt, Harpkestraße",7.61362,51.31238,"de:5962:3347"
"24203322","Nachrodt, Abzweig Brenscheid",7.62713,51.2997,"de:5962:3322"
"24203404","Schalksmühle, Abzweig Harrenscheid",7.55843,51.25889,"de:5962:3404"
"24203336","Nachrodt, Waldstück",7.63104,51.28524,"de:5962:3336"
"24203318","Nachrodt, Vogelhenne",7.60253,51.31989,"de:5962:3318"
"24203418","Schalksmühle, Winkler Hauptweg",7.61209,51.26172,"de:5962:3418"
"24203316","Nachrodt, Abzweig Kreinberg",7.62009,51.31291,"de:5962:3316"
"24203348","Nachrodt, Todtenhelle",7.60161,51.32148,"de:5962:3348"
"24203397","Schalksmühle, Lumberg Zentrale",7.54989,51.25819,"de:5962:3397"
"24203421","Schalksmühle, Abzweig Sonnenscheid",7.62489,51.2676,"de:5962:3421"
"24203565","Halver, Kreisstraße",7.4988,51.15434,"de:5962:3565"
"24203393","Schalksmühle, Holthausen",7.54234,51.25868,"de:5962:3393"
"24203465","Schalksmühle, Grünental",7.56054,51.25289,"de:5962:3465"
"24203392","Schalksmühle, Lauensch. Mühle",7.56465,51.25202,"de:5962:3392"
"24203221","Werdohl, Mühlhoff",7.7507,51.25101,"de:5962:3221"
"24203108","Neuenrade, Leopoldweg",7.79682,51.28811,"de:5962:3108"
"24203167","Neuenrade, Huffelmannweg",7.79558,51.28238,"de:5962:3167"
"24203406","Schalksmühle, Abzweig Linscheid",7.54516,51.25658,"de:5962:3406"
"24203315","Nachrodt, Eilerde",7.62203,51.31658,"de:5962:3315"
"24203398","Schalksmühle, Sperberweg",7.54886,51.25458,"de:5962:3398"
"24203416","Schalksmühle, Gewerbegebiet Heedfeld",7.59121,51.25082,"de:5962:3416"
"24203456","Schalksmühle, Kuhlenhagen",7.54263,51.25662,"de:5962:3456"
"24203344","Nachrodt, Sassenscheid",7.63705,51.30339,"de:5962:3344"
"24203111","Neuenrade, Eisenweg",7.79629,51.2909,"de:5962:3111"
"24203192","Werdohl, An der Vorthbrücke",7.76963,51.25741,"de:5962:3192"
"24203298","Werdohl, Schlacht",7.753,51.25257,"de:5962:3298"
"24203317","Nachrodt, Veserde",7.60155,51.32649,"de:5962:3317"
"24203255","Werdohl, Herbscheider Mühle",7.77918,51.26308,"de:5962:3255"
"24203408","Schalksmühle, Waldesruh",7.54987,51.25265,"de:5962:3408"
"24203407","Schalksmühle, Stallhaus",7.54651,51.25334,"de:5962:3407"
"24203493","Schalksmühle, Lauenscheid",7.56682,51.24818,"de:5962:3493"
"24203405","Schalksmühle, Rolle",7.55536,51.24988,"de:5962:3405"
"24203109","Neuenrade, Schütteloher Weg",7.79549,51.28895,"de:5962:3109"
"24203314","Nachrodt, Großenhahn",7.62199,51.32115,"de:5962:3314"
"24203241","Werdohl, Brücke zur Vorth",7.76884,51.25754,"de:5962:3241"
"24203141","Neuenrade, Bahnhof",7.79465,51.28475,"de:5962:3141"
"24203290","Werdohl, Evangelischer Friedhof",7.77938,51.26456,"de:5962:3290"
"24203457","Schalksmühle, Linscheid",7.53385,51.25579,"de:5962:3457"
"24203222","Werdohl, Ütterlingsen",7.74713,51.25267,"de:5962:3222"
"24203409","Schalksmühle, Oberklagebach",7.5506,51.24828,"de:5962:3409"
"24203163","Neuenrade, Wilkestraße",7.79244,51.28119,"de:5962:3163"
"24203351","Nachrodt, Deierter Weg",7.60377,51.33126,"de:5962:3351"
"24203367","Nachrodt, Rennerde Dorf",7.6209,51.32619,"de:5962:3367"
"24203566","Halver, Kückelhausen",7.48867,51.16241,"de:5962:3566"
"24203435","Schalksmühle, Walze",7.52062,51.26064,"de:5962:3435"
"24203110","Neuenrade, Brunnenbach",7.79359,51.28952,"de:5962:3110"
"24203286","Werdohl, Krankenhaus",7.76493,51.25741,"de:5962:3286"
"24203494","Schalksmühle, Golsberg",7.57427,51.24301,"de:5962:3494"
"24203410","Schalksmühle, Siedlung",7.54658,51.24729,"de:5962:3410"
"24203242","Werdohl, Danziger Straße",7.74872,51.25335,"de:5962:3242"
"24203386","Schalksmühle, Linscheid Dorfsteige",7.52981,51.25333,"de:5962:3386"
"24203313","Nachrodt, Rennerde",7.62446,51.32626,"de:5962:3313"
"24203461","Schalksmühle, Dahlhausen",7.53664,51.24963,"de:5962:3461"
"24203201","Werdohl, Kirche",7.76332,51.25709,"de:5962:3201"
"24203254","Werdohl, Stahlwerk Brüninghaus",7.77074,51.26023,"de:5962:3254"
"24203185","Neuenrade, Weg zum Wemensiepen",7.79305,51.288,"de:5962:3185"
"24203186","Neuenrade, Oberer Wemensiepen",7.7929,51.28859,"de:5962:3186"
"24203148","Neuenrade, Neue Mühle",7.79188,51.28246,"de:5962:3148"
"24203571","Halver, Büchenbaum",7.44179,51.1859,"de:5962:3571"
"24203349","Nachrodt, Deierte",7.60701,51.33396,"de:5962:3349"
"24203592","Halver, Sondern",7.48411,51.16736,"de:5962:3592"
"24203485","Schalksmühle, Linscheider Berg Wendestelle",7.52112,51.2557,"de:5962:3485"
"24203288","Werdohl, Katholische Kirche",7.76676,51.25898,"de:5962:3288"
"24203340","Nachrodt, Im Hötting Hahn",7.64605,51.3137,"de:5962:3340"
"24203534","Halver, Schwenke Wendeschleife",7.4375,51.19008,"de:5962:3534"
"24203460","Schalksmühle, Dahlhauser Kopf",7.53149,51.24933,"de:5962:3460"
"24203312","Nachrodt, Opperhusen",7.64747,51.31383,"de:5962:3312"
"24203262","Werdohl, Röther",7.77098,51.26121,"de:5962:3262"
"24203184","Neuenrade, Wemenschlad",7.79174,51.28726,"de:5962:3184"
"24203243","Werdohl, Berliner Straße",7.74908,51.25487,"de:5962:3243"
"24203170","Neuenrade, Landwehr I",7.79044,51.28457,"de:5962:3170"
"24203341","Nachrodt, Wiesenstraße",7.64899,51.31307,"de:5962:3341"
"24203276","Werdohl, Friedrich-Keßler-Platz",7.76241,51.25845,"de:5962:3276"
"24203484","Schalksmühle, Schlüchtern",7.51223,51.25963,"de:5962:3484"
"24203220","Werdohl, Friedrichstraße",7.75624,51.2566,"de:5962:3220"
"24203486","Schalksmühle, Linscheider Berg  Mitte",7.51958,51.25357,"de:5962:3486"
"24203411","Schalksmühle, Berker",7.54004,51.24394,"de:5962:3411"
"24203296","Werdohl, Bürgerhaus",7.76549,51.25972,"de:5962:3296"
"24203311","Nachrodt, Bahnüberg.Helbecke",7.644,51.3195,"de:5962:3311"
"24203342","Werdohl, Abzweig Borgheller Straße",7.77158,51.26272,"de:5962:3342"
"24203490","Schalksmühle, Im Dahl Wendestelle",7.51385,51.25705,"de:5962:3490"
"24203266","Werdohl, Mozartstraße",7.77448,51.26448,"de:5962:3266"
"24203327","Nachrodt, Lüke",7.65025,51.31462,"de:5962:3327"
"24203183","Neuenrade, Landwehr II",7.79022,51.28552,"de:5962:3183"
"24203487","Schalksmühle, Im Dahl  Mitte",7.51503,51.25533,"de:5962:3487"
"24203244","Werdohl, Leipziger Straße",7.75003,51.25542,"de:5962:3244"
"24203426","Schalksmühle, Lauenscheiderohl",7.54798,51.24061,"de:5962:3426"
"24203328","Nachrodt, Helbecke",7.64498,51.32041,"de:5962:3328"
"24203371","Nachrodt, Hermann-Löns-Weg II",7.64106,51.32375,"de:5962:3371"
"24203425","Schalksmühle, Strücken",7.55321,51.23894,"de:5962:3425"
"24203180","Neuenrade, Jahnstraße II",7.78805,51.27901,"de:5962:3180"
"24203310","Nachrodt, Helbecker Weg",7.64297,51.32305,"de:5962:3310"
"24203357","Nachrodt, Bachstraße I",7.6356,51.3279,"de:5962:3357"
"24203162","Neuenrade, Rütherbruch",7.78869,51.28053,"de:5962:3162"
"24203350","Nachrodt, Buchenweg",7.64173,51.32416,"de:5962:3350"
"24203270","Werdohl, Wichernhaus",7.76816,51.26118,"de:5962:3270"
"24203439","Schalksmühle, Strücken Fußweg",7.55347,51.23823,"de:5962:3439"
"24203459","Schalksmühle, Flaßkamp",7.52621,51.24701,"de:5962:3459"
"24203434","Schalksmühle, Dahlerbrück",7.51732,51.25187,"de:5962:3434"
"24203427","Schalksmühle, Mesenhöller",7.54234,51.24071,"de:5962:3427"
"24203473","Schalksmühle, Mühlenweg",7.51417,51.25385,"de:5962:3473"
"24203368","Nachrodt, Beisheim",7.63467,51.32913,"de:5962:3368"
"24203533","Halver, In der Mark",7.432,51.19193,"de:5962:3533"
"24203307","Nachrodt, Obstfelder Stall",7.63389,51.32978,"de:5962:3307"
"24203269","Werdohl, Katholischer Friedhof",7.77169,51.26331,"de:5962:3269"
"24203437","Schalksmühle, Strücken Mitte",7.55521,51.23742,"de:5962:3437"
"24203308","Nachrodt, Hermann-Löns-Weg",7.63973,51.32657,"de:5962:3308"
"24203412","Schalksmühle, Klagebach Schule",7.53605,51.24205,"de:5962:3412"
"24203370","Nachrodt, Hermann-Löns-Weg I",7.64068,51.32634,"de:5962:3370"
"24203390","Schalksmühle, Turnhalle",7.51426,51.2526,"de:5962:3390"
"24203309","Nachrodt, Friedhofsweg",7.64189,51.32582,"de:5962:3309"
"24203532","Halver, Schwenke",7.43763,51.19145,"de:5962:3532"
"24203430","Schalksmühle, Abzweig  Im Dahl",7.51478,51.25099,"de:5962:3430"
"24203591","Halver, Im Sumpf",7.4777,51.17462,"de:5962:3591"
"24203429","Schalksmühle, Holthaus - Schüppenburg",7.51889,51.2483,"de:5962:3429"
"24203358","Nachrodt, Bachstraße II",7.64341,51.32616,"de:5962:3358"
"24203415","Schalksmühle, Katholische Kirche",7.52904,51.24307,"de:5962:3415"
"24203263","Werdohl, Bausenberg",7.77211,51.26392,"de:5962:3263"
"24203400","Schalksmühle, Rathausplatz",7.53393,51.24052,"de:5962:3400"
"24203384","Schalksmühle, Netto",7.53685,51.23944,"de:5962:3384"
"24203428","Schalksmühle, Ohlerberg",7.52138,51.24576,"de:5962:3428"
"24203424","Lüdenscheid, Hammerhaus",7.55687,51.23465,"de:5962:3424"
"24203632","Halver, Bärendahl",7.44178,51.19639,"de:5962:3632"
"24203329","Nachrodt, Einsal",7.64516,51.32645,"de:5962:3329"
"24203491","Schalksmühle, Rathauscenter",7.53332,51.2404,"de:5962:3491"
"24203438","Schalksmühle, Strücken Wendestelle",7.55458,51.2347,"de:5962:3438"
"24203414","Schalksmühle, Mitte",7.53006,51.24115,"de:5962:3414"
"24203391","Schalksmühle, Erlöserkirche",7.53116,51.2407,"de:5962:3391"
"24203431","Schalksmühle, Abzw. Reeswinkel",7.51056,51.25143,"de:5962:3431"
"24203271","Werdohl, Kommandobrücke",7.76509,51.26047,"de:5962:3271"
"24203454","Schalksmühle, Viktoriastraße",7.52836,51.24144,"de:5962:3454"
"24203423","Lüdenscheid, Linneper Mühle",7.56145,51.2329,"de:5962:3423"
"24203187","Neuenrade, Weg nach Berentrop",7.78938,51.28741,"de:5962:3187"
"24203306","Nachrodt, Holensiepen",7.63847,51.33217,"de:5962:3306"
"24203387","Schalksmühle, Worthstraße",7.53663,51.238,"de:5962:3387"
"24203469","Schalksmühle, Seniorenheim",7.51434,51.24792,"de:5962:3469"
"24203223","Werdohl, Freibad",7.74627,51.25548,"de:5962:3223"
"24203265","Werdohl, Oberer Bausenberg",7.77355,51.26529,"de:5962:3265"
"24203480","Schalksmühle, Friedhofstraße Asenbach",7.52005,51.24434,"de:5962:3480"
"24203389","Schalksmühle, Unteres Tor",7.53334,51.23864,"de:5962:3389"
"24203264","Werdohl, Herbscheid",7.77633,51.26737,"de:5962:3264"
"24203466","Schalksmühle, Am Sundern",7.52386,51.24203,"de:5962:3466"
"24203361","Nachrodt, Am Tunnel",7.64591,51.32907,"de:5962:3361"
"24203475","Schalksmühle, Friedhof  Wippekühl",7.53315,51.23768,"de:5962:3475"
"24203467","Schalksmühle, Brucher Weg",7.526,51.2403,"de:5962:3467"
"24203496","Schalksmühle, Unterm Ried",7.51603,51.245,"de:5962:3496"
"24203388","Schalksmühle, Glörstraße",7.50487,51.25191,"de:5962:3388"
"24203105","Neuenrade, Bahnhofstraße",7.78783,51.28259,"de:5962:3105"
"24203453","Schalksmühle, Sportplatz",7.52123,51.24151,"de:5962:3453"
"24203305","Nachrodt, Friedhof",7.64346,51.33241,"de:5962:3305"
"24203372","Nachrodt, Niemöllerstr.",7.64174,51.33355,"de:5962:3372"
"24203179","Neuenrade, Jahnstraße Mitte",7.78606,51.27849,"de:5962:3179"
"24203440","Schalksmühle, Bär",7.52867,51.23787,"de:5962:3440"
"24203353","Nachrodt, Evangelische Kirche",7.63791,51.33585,"de:5962:3353"
"24203171","Neuenrade, Friedhofsweg I",7.78801,51.28396,"de:5962:3171"
"24203363","Nachrodt, Kirchstraße",7.6384,51.33598,"de:5962:3363"
"24203445","Schalksmühle, Reeswinkel",7.5131,51.2446,"de:5962:3445"
"24203300","Nachrodt, Amtshaus",7.63549,51.33774,"de:5962:3300"
"24203482","Schalksmühle, Verbindungsweg",7.51888,51.24133,"de:5962:3482"
"24203417","Schalksmühle, Reeswinkeler Weg",7.51294,51.24435,"de:5962:3417"
"24203366","Nachrodt, Apotheke",7.63646,51.33756,"de:5962:3366"
"24203481","Schalksmühle, Asenbach",7.51619,51.24192,"de:5962:3481"
"24203452","Schalksmühle, Löher Weg",7.52007,51.23975,"de:5962:3452"
"24203285","Werdohl, Derwentsider Straße",7.76179,51.25987,"de:5962:3285"
"24203304","Nachrodt, Grundschule",7.6487,51.33184,"de:5962:3304"
"24203302","Nachrodt, Sparkasse",7.64186,51.33587,"de:5962:3302"
"24203422","Lüdenscheid, Nöllenhammer",7.56045,51.22854,"de:5962:3422"
"24203142","Neuenrade, HS Niederheide",7.78649,51.28122,"de:5962:3142"
"24203303","Nachrodt, Ebertstraße",7.64448,51.33479,"de:5962:3303"
"24203335","Nachrodt, Nachrodter Hof",7.63609,51.33924,"de:5962:3335"
"24203451","Schalksmühle, Am Mathagen",7.52073,51.23859,"de:5962:3451"
"24203450","Schalksmühle, Schule Löh",7.5232,51.23744,"de:5962:3450"
"24203267","Werdohl, Albert-Schweitzer-Straße",7.77257,51.26559,"de:5962:3267"
"24203444","Schalksmühle, Am Rauhen Stück",7.52186,51.23776,"de:5962:3444"
"24203373","Nachrodt, AWO Kiga",7.6378,51.33891,"de:5962:3373"
"24203446","Schalksmühle, Ober-Reeswinkel",7.51175,51.24238,"de:5962:3446"
"24203479","Schalksmühle, Bergstraße",7.51904,51.23859,"de:5962:3479"
"24203331","Nachrodt, Renfordt",7.64853,51.33391,"de:5962:3331"
"24203330","Nachrodt, Obstfeld",7.65217,51.33221,"de:5962:3330"
"24203489","Schalksmühle, Hälverstr.",7.52821,51.234,"de:5962:3489"
"24203369","Nachrodt, Edeka",7.65052,51.3334,"de:5962:3369"
"24203374","Nachrodt, Netto",7.65225,51.33287,"de:5962:3374"
"24203200","Werdohl, Werdohl Bahnhof",7.75773,51.25917,"de:5962:3200"
"24203332","Nachrodt, Bahnhofsbrücke",7.63682,51.34185,"de:5962:3332"
"24203602","Halver, Abzw. Ehberg",7.4874,51.1691,"de:5962:3602"
"24203161","Neuenrade, Niederheide",7.7857,51.28048,"de:5962:3161"
"24203182","Neuenrade, Gartenweg II",7.78699,51.28453,"de:5962:3182"
"24203399","Schalksmühle, Löher Kopf",7.51744,51.23612,"de:5962:3399"
"24203287","Werdohl, Wacholderweg",7.76953,51.26435,"de:5962:3287"
"24203188","Neuenrade, Tannenweg",7.78674,51.28595,"de:5962:3188"
"24203146","Neuenrade, Neuenrade , Mühlendorf",7.78527,51.28129,"de:5962:3146"
"24203488","Schalksmühle, Am Breiten Wege",7.50833,51.24037,"de:5962:3488"
"24203283","Werdohl, Klosterweg",7.76763,51.26387,"de:5962:3283"
"24203449","Schalksmühle, Mollsiepen",7.5148,51.23685,"de:5962:3449"
"24203631","Halver, Hulvershorn",7.4864,51.17286,"de:5962:3631"
"24203477","Schalksmühle, Eichendorffstraße",7.52075,51.23407,"de:5962:3477"
"24203590","Halver, Abzweig Gesenberg",7.4797,51.17707,"de:5962:3590"
"24203268","Werdohl, Hartmecke",7.77109,51.26599,"de:5962:3268"
"24203441","Schalksmühle, Herbecke",7.52503,51.23213,"de:5962:3441"
"24203178","Neuenrade, Jahnstraße I",7.78352,51.27838,"de:5962:3178"
"24203106","Neuenrade, Neuenrade Bahnhof/Feuerwehr",7.78462,51.28088,"de:5962:3106"
"24203172","Neuenrade, Am Semberg",7.78499,51.28341,"de:5962:3172"
"24203284","Werdohl, Am Paulstück",7.76947,51.26575,"de:5962:3284"
"24203181","Neuenrade, Gartenweg I",7.78466,51.28402,"de:5962:3181"
"24203476","Schalksmühle, Im Winkel",7.51846,51.23418,"de:5962:3476"
"24203382","Werdohl, Am Krähenacker",7.7637,51.26313,"de:5962:3382"
"24203169","Neuenrade, Lange Gasse",7.78376,51.28274,"de:5962:3169"
"24203104","Neuenrade, Mitte",7.78327,51.28214,"de:5962:3104"
"24203189","Neuenrade, Fichtenweg",7.78345,51.2841,"de:5962:3189"
"24203177","Neuenrade, Heckengasse",7.78028,51.27814,"de:5962:3177"
"24203630","Halver, Hagedorn",7.49003,51.17353,"de:5962:3630"
"24203134","Neuenrade, Rathaus / Schule",7.78072,51.28038,"de:5962:3134"
"24203149","Neuenrade, Zweite Straße",7.78126,51.28227,"de:5962:3149"
"24203176","Neuenrade, Rabeneiche",7.77761,51.27768,"de:5962:3176"
"24203160","Neuenrade, Poststraße",7.77931,51.28109,"de:5962:3160"
"24203333","Nachrodt, Werk",7.63857,51.34564,"de:5962:3333"
"24203159","Neuenrade, Grünewald",7.77776,51.27982,"de:5962:3159"
"24203442","Schalksmühle, Am Alten Hammer",7.52841,51.22851,"de:5962:3442"
"24203175","Neuenrade, Südstraße",7.77572,51.27672,"de:5962:3175"
"24203103","Neuenrade, Dahler Straße",7.77815,51.28119,"de:5962:3103"
"24203448","Schalksmühle, Rotthausen",7.5114,51.23462,"de:5962:3448"
"24203173","Neuenrade, Haller Weg I",7.77702,51.27935,"de:5962:3173"
"24203174","Neuenrade, Haller Weg II",7.77444,51.27728,"de:5962:3174"
"24203443","Schalksmühle, Krampenhammer",7.53244,51.22644,"de:5962:3443"
"24203447","Schalksmühle, Auf dem Mühlenfeld",7.50739,51.23615,"de:5962:3447"
"24203150","Neuenrade, Wieser Weg/DEA",7.77536,51.27999,"de:5962:3150"
"24203190","Neuenrade, Überm Eiskeller",7.77191,51.27538,"de:5962:3190"
"24203557","Halver, Halverscheid",7.54866,51.22162,"de:5962:3557"
"24203102","Neuenrade, Elisental",7.77455,51.27871,"de:5962:3102"
"24203126","Neuenrade, Wieser Weg",7.7743,51.2796,"de:5962:3126"
"24203152","Neuenrade, Graf-Engelbert-Straße",7.77519,51.28269,"de:5962:3152"
"24203197","Neuenrade, Freiherr von Stein - Straße",7.77363,51.27983,"de:5962:3197"
"24203127","Neuenrade, Lunke",7.77557,51.2842,"de:5962:3127"
"24203101","Neuenrade, Wilhelmshöhe",7.77073,51.27606,"de:5962:3101"
"24203151","Neuenrade, Altenheim",7.77425,51.28151,"de:5962:3151"
"24203099","Neuenrade, Waldorfschule",7.76103,51.26957,"de:5962:3099"
"24203143","Neuenrade, Weg zur roten Mütze",7.77043,51.27749,"de:5962:3143"
"24203224","Werdohl, Höllmecke",7.74315,51.26455,"de:5962:3224"
"24203125","Neuenrade, Gosekamp",7.77076,51.27841,"de:5962:3125"
"24203195","Neuenrade, Bergstraße I",7.77238,51.28178,"de:5962:3195"
"24203550","Halver, Lynker",7.53644,51.22142,"de:5962:3550"
"24203153","Neuenrade, Beuler Weg I",7.77282,51.28287,"de:5962:3153"
"24203196","Neuenrade, Im alten Dorf",7.76884,51.27676,"de:5962:3196"
"24203278","Werdohl, Abzweig Elverlingsen",7.70295,51.27421,"de:5962:3278"
"24203155","Neuenrade, Bergstraße II",7.77102,51.28083,"de:5962:3155"
"24203158","Neuenrade, Heerweg II",7.76808,51.27784,"de:5962:3158"
"24203225","Werdohl, Wilhelmsthal I",7.72899,51.26615,"de:5962:3225"
"24203156","Neuenrade, Kantstraße",7.76822,51.27971,"de:5962:3156"
"24203154","Neuenrade, Beuler Weg II",7.76899,51.28251,"de:5962:3154"
"24203157","Neuenrade, Heerweg I",7.76638,51.27875,"de:5962:3157"
"24203334","Nachrodt, Ledigenheim",7.64151,51.35087,"de:5962:3334"
"24203226","Werdohl, Wilhelmsthal II",7.72415,51.26823,"de:5962:3226"
"24203128","Neuenrade, Waldhotel",7.76895,51.29176,"de:5962:3128"
"24203227","Werdohl, Dresel",7.72029,51.27129,"de:5962:3227"
"24203281","Werdohl, In der Lacke",7.7159,51.27372,"de:5962:3281"
"24203129","Neuenrade, Quitmannsturm",7.76452,51.29215,"de:5962:3129"
"24203130","Altena (Westf), Kohlberghaus",7.76228,51.29537,"de:5962:3130"
"24203228","Werdohl, Burhagen",7.71726,51.2767,"de:5962:3228"
"24203229","Werdohl, Biesenberg",7.71665,51.28092,"de:5962:3229"
"24032597","Mönninghausen, Haunstweg",8.44903,51.67521,"de:5974:32597"
"24202609","Meinerzhagen, Handweiser",7.63338,51.09954,"de:5962:2609"
"24202644","Meinerzhagen, An den Holzhäusern",7.65431,51.10438,"de:5962:2644"
"24202612","Meinerzhagen, Südschule",7.63525,51.10095,"de:5962:2612"
"24202754","Meinerzhagen, Buntelichte",7.69818,51.08204,"de:5962:2754"
"24202643","Meinerzhagen, Hochhaus",7.65095,51.10494,"de:5962:2643"
"24202635","Meinerzhagen, Haydnstraße",7.66861,51.10415,"de:5962:2635"
"24202636","Meinerzhagen, Abzweig Willertshagen",7.67213,51.10375,"de:5962:2636"
"24202611","Meinerzhagen, Schöppenkampstraße",7.63157,51.10094,"de:5962:2611"
"24202614","Meinerzhagen, Abzweig Stadion",7.65586,51.10578,"de:5962:2614"
"24202642","Meinerzhagen, Höltchen",7.64773,51.10539,"de:5962:2642"
"24202755","Meinerzhagen, Neuenschmiede",7.70055,51.07818,"de:5962:2755"
"24202634","Meinerzhagen, Unterm Hestenberg",7.66394,51.10579,"de:5962:2634"
"24202632","Meinerzhagen, Stadion",7.65661,51.10623,"de:5962:2632"
"24202753","Meinerzhagen, Langenohl",7.69908,51.08574,"de:5962:2753"
"24202610","Meinerzhagen, Höhenstraße",7.63001,51.10092,"de:5962:2610"
"24202641","Meinerzhagen, Amtsgericht",7.64413,51.10526,"de:5962:2641"
"24202633","Meinerzhagen, Immecke",7.66174,51.10637,"de:5962:2633"
"24202613","Meinerzhagen, Betriebskrankenkasse",7.63807,51.10422,"de:5962:2613"
"24202757","Meinerzhagen, Willertshagen Schule",7.68073,51.10217,"de:5962:2757"
"24202631","Meinerzhagen, Korbecker Weg",7.65193,51.10664,"de:5962:2631"
"24202712","Meinerzhagen, Otto-Fuchs-Straße",7.6314,51.1022,"de:5962:2712"
"24202646","Meinerzhagen, Kohlbergstraße",7.65311,51.10705,"de:5962:2646"
"24202628","Meinerzhagen, Apotheke",7.64259,51.10635,"de:5962:2628"
"24202625","Meinerzhagen, Schulzentrum Rothenstein",7.66134,51.1077,"de:5962:2625"
"24202647","Meinerzhagen, Beurhausstraße",7.65292,51.10811,"de:5962:2647"
"24202650","Meinerzhagen, Siepener Weg",7.6503,51.10801,"de:5962:2650"
"24202649","Meinerzhagen, Dränkerkampstr.",7.64993,51.10839,"de:5962:2649"
"24202648","Meinerzhagen, Zum Rothenstein",7.65667,51.10871,"de:5962:2648"
"24202669","Meinerzhagen, Güntenbecke",7.62041,51.09894,"de:5962:2669"
"24202670","Meinerzhagen, Genkel",7.60961,51.08796,"de:5962:2670"
"24202656","Meinerzhagen, Zur Birkeshöh",7.64588,51.10851,"de:5962:2656"
"24202681","Meinerzhagen, Sinderhof",7.68972,51.10137,"de:5962:2681"
"24202694","Meinerzhagen, Fröbelstraße",7.65128,51.10942,"de:5962:2694"
"24202627","Meinerzhagen, Stadthalle",7.63973,51.10785,"de:5962:2627"
"24202689","Meinerzhagen, Goethestraße",7.66194,51.10974,"de:5962:2689"
"24202651","Meinerzhagen, Siepen",7.64924,51.10981,"de:5962:2651"
"24202693","Meinerzhagen, Schillerstraße",7.66099,51.11034,"de:5962:2693"
"24202652","Meinerzhagen, Auf der Leye",7.64676,51.10998,"de:5962:2652"
"24202630","Meinerzhagen, Bahnhof/ZOB",7.63442,51.10788,"de:5962:2630"
"24202629","Meinerzhagen, Landesschule",7.64674,51.11099,"de:5962:2629"
"24202653","Meinerzhagen, Katholische Kirche",7.64368,51.1114,"de:5962:2653"
"24202690","Meinerzhagen, Uhlandweg",7.66377,51.11209,"de:5962:2690"
"24202692","Meinerzhagen, Mörikeweg",7.66073,51.11278,"de:5962:2692"
"24202711","Meinerzhagen, Zeisigweg",7.647,51.11326,"de:5962:2711"
"24202654","Meinerzhagen, Birkeshöh",7.64426,51.11312,"de:5962:2654"
"24202691","Meinerzhagen, Kleiststraße",7.66114,51.11388,"de:5962:2691"
"24202662","Meinerzhagen, Amselweg",7.64662,51.11362,"de:5962:2662"
"24202682","Meinerzhagen, Listermühle",7.69659,51.10436,"de:5962:2682"
"24202666","Meinerzhagen, Herweg",7.61096,51.10164,"de:5962:2666"
"24202626","Meinerzhagen, Hahnenbecke",7.62741,51.11079,"de:5962:2626"
"24202655","Meinerzhagen, Heerhof",7.64778,51.11522,"de:5962:2655"
"24202705","Meinerzhagen, IJsselmuidener Straße",7.64312,51.11552,"de:5962:2705"
"24202706","Meinerzhagen, St. Cyr Allee",7.64268,51.11634,"de:5962:2706"
"24202683","Meinerzhagen, Listerhammer",7.70564,51.10534,"de:5962:2683"
"24202664","Meinerzhagen, Kotten",7.61295,51.11034,"de:5962:2664"
"24202665","Meinerzhagen, Gräfingsholz",7.62042,51.11451,"de:5962:2665"
"24202663","Meinerzhagen, Wehe",7.60716,51.11017,"de:5962:2663"
"24202684","Meinerzhagen, Breddershaus",7.71153,51.10758,"de:5962:2684"
"24202623","Meinerzhagen, Wiebelsaat",7.64622,51.1258,"de:5962:2623"
"24202624","Meinerzhagen, Dachpappenfabrik",7.63656,51.12581,"de:5962:2624"
"24202707","Meinerzhagen, Österfeld (Abzweig Hardenberg)",7.72236,51.10711,"de:5962:2707"
"24202735","Meinerzhagen, Grünewald",7.68979,51.09025,"de:5962:2735"
"24202685","Meinerzhagen, Österfeld",7.72266,51.10785,"de:5962:2685"
"24202622","Meinerzhagen, Ohl",7.64668,51.12928,"de:5962:2622"
"24202701","Meinerzhagen, Abzweig Hohlinden",7.64726,51.13039,"de:5962:2701"
"24202673","Meinerzhagen, Winzenberg",7.63039,51.09541,"de:5962:2673"
"24202749","Meinerzhagen, Ingemertermühle",7.74142,51.07659,"de:5962:2749"
"24202675","Meinerzhagen, Schule Wahr",7.64343,51.10032,"de:5962:2675"
"24202638","Meinerzhagen, Am Tarrenbrink",7.67471,51.09816,"de:5962:2638"
"24202677","Kierspe, Kierspe, ZOB",7.61598,51.12901,"de:5962:2677"
"24202621","Meinerzhagen, Neu-Hohlinden",7.65128,51.1357,"de:5962:2621"
"24202674","Meinerzhagen, Königsberger Str.",7.64394,51.09895,"de:5962:2674"
"24202708","Meinerzhagen, Genkeler Straße",7.63111,51.0934,"de:5962:2708"
"24202658","Meinerzhagen, Fumberg",7.64363,51.09859,"de:5962:2658"
"24202671","Meinerzhagen, Listringhausen",7.62423,51.08428,"de:5962:2671"
"24202748","Meinerzhagen, Plate und Stremmel",7.75185,51.07684,"de:5962:2748"
"24202686","Meinerzhagen, Hösinghausen",7.73434,51.11387,"de:5962:2686"
"24202695","Meinerzhagen, Schlenke",7.64124,51.09681,"de:5962:2695"
"24202698","Meinerzhagen, Im Brannten",7.64756,51.09819,"de:5962:2698"
"24202639","Meinerzhagen, Eisenweg",7.6746,51.09537,"de:5962:2639"
"24202618","Meinerzhagen, Krummenerl Viadukt",7.75537,51.07881,"de:5962:2618"
"24202704","Meinerzhagen, ehemaliges Warnamt",7.67018,51.09676,"de:5962:2704"
"24202657","Meinerzhagen, Heerstraße",7.6643,51.09807,"de:5962:2657"
"24202747","Meinerzhagen, Krummenerl",7.75699,51.07936,"de:5962:2747"
"24202697","Meinerzhagen, Milanweg",7.64649,51.09755,"de:5962:2697"
"24202620","Meinerzhagen, Lengelscheid",7.67038,51.14152,"de:5962:2620"
"24202696","Meinerzhagen, Bussardweg",7.64399,51.09695,"de:5962:2696"
"24202645","Meinerzhagen, Auf der Koppel",7.67278,51.09558,"de:5962:2645"
"24202672","Meinerzhagen, Redlendorf",7.63061,51.08917,"de:5962:2672"
"24202640","Meinerzhagen, Schwenke",7.67443,51.09271,"de:5962:2640"
"24202661","Meinerzhagen, Heed",7.64233,51.08705,"de:5962:2661"
"24202660","Meinerzhagen, Niederbadinghagen",7.64922,51.08166,"de:5962:2660"
"24202659","Meinerzhagen, Kropplenberg",7.65591,51.08023,"de:5962:2659"
"24202746","Meinerzhagen, Krummenerl Abzweig Berg",7.76471,51.07709,"de:5962:2746"
"24202702","Meinerzhagen, Aggerberg",7.65375,51.07854,"de:5962:2702"
"24202619","Meinerzhagen, Drögenpütt",7.67628,51.14635,"de:5962:2619"
"24202687","Meinerzhagen, Valbert Kuhlen",7.74973,51.11872,"de:5962:2687"
"24202743","Meinerzhagen, Wilkenberg Ort",7.76128,51.10616,"de:5962:2743"
"24202617","Meinerzhagen, Fürwiggetalsperre",7.68682,51.15021,"de:5962:2617"
"24202745","Meinerzhagen, Berlinghausen",7.77513,51.07885,"de:5962:2745"
"24202688","Meinerzhagen, Valbert Ort",7.7553,51.11991,"de:5962:2688"
"24202700","Meinerzhagen, Abzw. Werkshagen",7.67934,51.1525,"de:5962:2700"
"24202679","Meinerzhagen, Valbert Auf dem Breien",7.75782,51.12096,"de:5962:2679"
"24202733","Meinerzhagen, Fernholz",7.77217,51.11078,"de:5962:2733"
"24202736","Meinerzhagen, Wiebche",7.78011,51.09809,"de:5962:2736"
"24202616","Meinerzhagen, Neuemühle Schule",7.70055,51.15421,"de:5962:2616"
"24202615","Meinerzhagen, Neuemühle",7.69356,51.15636,"de:5962:2615"
"24202737","Meinerzhagen, Haustadt",7.78521,51.09241,"de:5962:2737"
"24202738","Meinerzhagen, Abzweig Pütthof",7.78764,51.09034,"de:5962:2738"
"24202759","Meinerzhagen, Vorderhagen",7.76777,51.1246,"de:5962:2759"
"24202739","Meinerzhagen, Herringhausen",7.79067,51.09312,"de:5962:2739"
"24202744","Meinerzhagen, Hunswinkel Vollmerhaus",7.79319,51.08107,"de:5962:2744"
"24202760","Meinerzhagen, Mittelhagen",7.77137,51.12522,"de:5962:2760"
"24202740","Meinerzhagen, Köster",7.79708,51.08077,"de:5962:2740"
"24202725","Meinerzhagen, Heiligenberg",7.80803,51.07623,"de:5962:2725"
"24202761","Meinerzhagen, Echternhagen",7.78614,51.12957,"de:5962:2761"
"24202762","Meinerzhagen, Schaffeld",7.7919,51.12628,"de:5962:2762"
"24202763","Meinerzhagen, Freisemicke",7.79577,51.12258,"de:5962:2763"
"24202764","Meinerzhagen, Schleifkotten",7.79989,51.12003,"de:5962:2764"
"24202765","Meinerzhagen, Rinkscheid Ort",7.80911,51.11524,"de:5962:2765"
"24202766","Meinerzhagen, Rinkscheid Schule",7.80943,51.1194,"de:5962:2766"
"24202767","Meinerzhagen, Schmittepaul",7.80762,51.12333,"de:5962:2767"
"24202637","Meinerzhagen, Scherl",7.6719,51.10233,"de:5962:2637"
"24202742","Meinerzhagen, Windebruch Mitte",7.81665,51.0802,"de:5962:2742"
"24202741","Meinerzhagen, Windebruch Fischerheim",7.81658,51.07767,"de:5962:2741"
"24015901","Meschede, Unterer Trappweg",8.29765,51.35208,"de:5958:15901"
"24200025","Lüdenscheid, Worth",7.64888,51.22803,"de:5962:25"
"24200076","Lüdenscheid, Ballettschule Klüttermann",7.61567,51.22718,"de:5962:76"
"24200035","Lüdenscheid, Buckesfelder Straße",7.61357,51.2267,"de:5962:35"
"24200226","Lüdenscheid, Stephansohl",7.56168,51.22382,"de:5962:226"
"24200036","Lüdenscheid, Berufsschule",7.60875,51.22598,"de:5962:36"
"24200179","Lüdenscheid, Unterm Asenberg",7.6332,51.233,"de:5962:179"
"24200422","Lüdenscheid, Willy-Bürger-Str.",7.63767,51.23496,"de:5962:422"
"24200365","Lüdenscheid, Offenbachstraße",7.59484,51.22433,"de:5962:365"
"24200364","Lüdenscheid, Orffstraße",7.59303,51.22428,"de:5962:364"
"24202559","Altena (Westf), Königsberger Straße",7.68267,51.28384,"de:5962:2559"
"24202546","Altena (Westf), Halsknopf",7.68415,51.29482,"de:5962:2546"
"24202459","Altena (Westf), Winkelser Brücke",7.6822,51.29233,"de:5962:2459"
"24202280","Hemer, Am Heistück",7.73749,51.32192,"de:5962:2280"
"24200037","Lüdenscheid, Buckesfeld",7.60223,51.2255,"de:5962:37"
"24200424","Lüdenscheid, An der Steinert",7.61275,51.22746,"de:5962:424"
"24200077","Lüdenscheid, Hasenkamp",7.61884,51.22952,"de:5962:77"
"24200233","Lüdenscheid, Humperdinckstraße",7.59737,51.22563,"de:5962:233"
"24201064","Iserlohn, Lennemühle",7.60056,51.35191,"de:5962:1064"
"24200180","Lüdenscheid, Mettbergswalze",7.63209,51.23481,"de:5962:180"
"24202534","Altena (Westf), Mozartstraße II",7.68122,51.2862,"de:5962:2534"
"24200078","Lüdenscheid, Hochstein",7.61895,51.23242,"de:5962:78"
"24200109","Lüdenscheid, Wehberg",7.62016,51.23326,"de:5962:109"
"24202533","Altena (Westf), Mozartstraße I",7.68051,51.28673,"de:5962:2533"
"24202560","Altena (Westf), Kolbergerstraße",7.6811,51.28343,"de:5962:2560"
"24202606","Meinerzhagen, Viadukt",7.63773,51.10157,"de:5962:2606"
"24200079","Lüdenscheid, Breitenfeld",7.61566,51.23384,"de:5962:79"
"24202558","Altena (Westf), Obere Memeler Straße",7.68109,51.28259,"de:5962:2558"
"24202513","Altena (Westf), Katholische Kirche",7.67999,51.28836,"de:5962:2513"
"24202416","Altena (Westf), Zum Hohle",7.65555,51.25403,"de:5962:2416"
"24201065","Iserlohn, Oege Umspannwerk",7.59761,51.34704,"de:5962:1065"
"24200356","Lüdenscheid, Abzweig Wislade",7.62981,51.24125,"de:5962:356"
"24202456","Altena (Westf), St.Vinzenz-Hospital",7.67983,51.28993,"de:5962:2456"
"24200080","Lüdenscheid, Am Weiten Blick",7.61384,51.23615,"de:5962:80"
"24202439","Altena (Westf), Nette Schule",7.68063,51.29597,"de:5962:2439"
"24202480","Altena (Westf), Memeler Straße",7.68045,51.28221,"de:5962:2480"
"24200114","Lüdenscheid, Noell",7.62867,51.24117,"de:5962:114"
"24200426","Lüdenscheid, Gevelndorfer Str.",7.62434,51.23971,"de:5962:426"
"24200081","Lüdenscheid, Autohaus Jürgens",7.61047,51.2359,"de:5962:81"
"24200115","Lüdenscheid, Gevelndorf",7.62203,51.2408,"de:5962:115"
"24202417","Altena (Westf), Grünewiese",7.64834,51.25586,"de:5962:2417"
"24200113","Lüdenscheid, Hüttenberg",7.61642,51.23991,"de:5962:113"
"24200112","Lüdenscheid, Kettenberg",7.61214,51.23989,"de:5962:112"
"24200181","Lüdenscheid, Oberrahmede Friedhof",7.61857,51.24203,"de:5962:181"
"24202479","Altena (Westf), Breitenhagen Schule",7.67919,51.2835,"de:5962:2479"
"24200259","Lüdenscheid, Abzweig Brockhausen",7.60727,51.23928,"de:5962:259"
"24202494","Altena (Westf), Kreuzbuche",7.65196,51.26314,"de:5962:2494"
"24200082","Lüdenscheid, McDonalds",7.60612,51.23935,"de:5962:82"
"24202481","Altena (Westf), Pragpaul",7.655,51.30876,"de:5962:2481"
"24200182","Lüdenscheid, Dannenberg",7.62003,51.24433,"de:5962:182"
"24202457","Altena (Westf), Am Knerling",7.65613,51.30572,"de:5962:2457"
"24202267","Hemer, Hüingsen",7.77044,51.31607,"de:5962:2267"
"24202436","Altena (Westf), Mühlenbach I",7.65182,51.26648,"de:5962:2436"
"24202501","Altena (Westf), Gustav-Selve-Straße",7.65607,51.30465,"de:5962:2501"
"24200227","Lüdenscheid, Langenfeld",7.63773,51.25452,"de:5962:227"
"24200183","Lüdenscheid, Oberrahmede",7.62034,51.24585,"de:5962:183"
"24202496","Altena (Westf), Eichendorffstraße",7.65429,51.3048,"de:5962:2496"
"24202536","Altena (Westf), Schubertstraße I",7.6781,51.28531,"de:5962:2536"
"24200087","Lüdenscheid, Hulsberg",7.60206,51.24143,"de:5962:87"
"24202270","Hemer, Ihmert Tütebelle",7.73567,51.32456,"de:5962:2270"
"24202532","Altena (Westf), Breitenhagener Weg",7.67753,51.28578,"de:5962:2532"
"24202497","Altena (Westf), Elsa-Brändström-Straße",7.65421,51.30424,"de:5962:2497"
"24202438","Altena (Westf), Burgweg",7.67817,51.29679,"de:5962:2438"
"24202408","Altena (Westf), Steinerne Brücke",7.67691,51.28691,"de:5962:2408"
"24202478","Altena (Westf), Obere Wilhelmstraße",7.67787,51.28188,"de:5962:2478"
"24202503","Altena (Westf), Windberke",7.6556,51.27709,"de:5962:2503"
"24202493","Altena (Westf), Lenscheid",7.64655,51.26468,"de:5962:2493"
"24200083","Lüdenscheid, Kerkhagen",7.60303,51.24257,"de:5962:83"
"24200084","Lüdenscheid, Siedlungsweg",7.60883,51.2443,"de:5962:84"
"24200085","Lüdenscheid, Preußborn",7.61089,51.24543,"de:5962:85"
"24200261","Lüdenscheid, Abzweig Dickenberg",7.63242,51.25488,"de:5962:261"
"24200269","Lüdenscheid, Sauerlandring",7.6019,51.24325,"de:5962:269"
"24202537","Altena (Westf), Schubertstraße II",7.67643,51.28378,"de:5962:2537"
"24200184","Lüdenscheid, Abzw. Im Wiesental",7.61993,51.24925,"de:5962:184"
"24200091","Lüdenscheid, Freisenbergstraße",7.6037,51.24435,"de:5962:91"
"24200185","Lüdenscheid, Dünnebrett",7.63128,51.25528,"de:5962:185"
"24200086","Lüdenscheid, Freisenberg",7.61164,51.24747,"de:5962:86"
"24202492","Altena (Westf), Großendrescheid",7.64619,51.27175,"de:5962:2492"
"24200196","Lüdenscheid, Fabiolastraße",7.60665,51.24674,"de:5962:196"
"24202458","Altena (Westf), Lindenstraße",7.67508,51.28983,"de:5962:2458"
"24200089","Lüdenscheid, Gerhardi",7.60745,51.24715,"de:5962:89"
"24200186","Lüdenscheid, Kaukenberger Weg",7.62709,51.25619,"de:5962:186"
"24200090","Lüdenscheid, Hülscheiderbaum",7.59656,51.24704,"de:5962:90"
"24200263","Lüdenscheid, Abzweig Eggenscheid",7.59765,51.24764,"de:5962:263"
"24202437","Altena (Westf), Bachstraße",7.67686,51.29974,"de:5962:2437"
"24202477","Altena (Westf), Untere Wilhelmstraße",7.67566,51.28134,"de:5962:2477"
"24200088","Lüdenscheid, Busch-Jaeger Elektro",7.60431,51.24915,"de:5962:88"
"24202407","Altena (Westf), Lüdenscheider Straße",7.67366,51.28961,"de:5962:2407"
"24202552","Altena (Westf), Drahtmuseum",7.67424,51.29475,"de:5962:2552"
"24202553","Altena (Westf), Burg",7.67521,51.29869,"de:5962:2553"
"24200187","Lüdenscheid, Schulstraße",7.62486,51.25751,"de:5962:187"
"24200264","Lüdenscheid, Römerweg",7.59989,51.24947,"de:5962:264"
"24200188","Lüdenscheid, Uhlandstraße",7.61783,51.25745,"de:5962:188"
"24202531","Altena (Westf), Südstraße",7.67338,51.28561,"de:5962:2531"
"24200367","Lüdenscheid, Hoher Hagen",7.5976,51.25107,"de:5962:367"
"24202476","Altena (Westf), Am Ziegenberg",7.67423,51.28102,"de:5962:2476"
"24202409","Altena (Westf), Kronprinz",7.67368,51.28265,"de:5962:2409"
"24200189","Lüdenscheid, Kinderdorf",7.61929,51.25877,"de:5962:189"
"24202556","Altena (Westf), Wacholderbrücke",7.67297,51.28425,"de:5962:2556"
"24200362","Lüdenscheid, Industriegebiet Nord",7.60255,51.25257,"de:5962:362"
"24202551","Altena (Westf), Bungern Parkplatz",7.67261,51.29242,"de:5962:2551"
"24202428","Altena (Westf), Abzweig Großendrescheid",7.63139,51.26994,"de:5962:2428"
"24202530","Altena (Westf), Schule Drescheider Berg",7.67293,51.28313,"de:5962:2530"
"24200191","Lüdenscheid, Dickenberg",7.61169,51.25719,"de:5962:191"
"24202432","Altena (Westf), Bungern",7.67203,51.2925,"de:5962:2432"
"24202529","Altena (Westf), Ackerstraße II",7.67262,51.28263,"de:5962:2529"
"24202431","Altena (Westf), Post",7.673,51.29697,"de:5962:2431"
"24202566","Altena (Westf), Netto",7.67204,51.28474,"de:5962:2566"
"24202426","Altena (Westf), Hegenscheider Weg",7.67923,51.30806,"de:5962:2426"
"24200190","Lüdenscheid, Fontanestraße",7.6147,51.2587,"de:5962:190"
"24202410","Altena (Westf), Steinbruch",7.67278,51.28057,"de:5962:2410"
"24202528","Altena (Westf), Ackerstraße I",7.67223,51.28182,"de:5962:2528"
"24200265","Lüdenscheid, Schnarüm",7.60371,51.25491,"de:5962:265"
"24200237","Lüdenscheid, A O K",7.62408,51.21924,"de:5962:237"
"24202422","Altena (Westf), Abzweig Bergfeld",7.68493,51.26433,"de:5962:2422"
"24201035","Iserlohn, Lasbeck",7.63458,51.34571,"de:5962:1035"
"24202405","Altena (Westf), Mittlere Brücke",7.67203,51.29743,"de:5962:2405"
"24202525","Altena (Westf), Wiesenstraße",7.67112,51.28397,"de:5962:2525"
"24202271","Hemer, Ihmert Berkenhoff",7.73754,51.32895,"de:5962:2271"
"24202406","Altena (Westf), Rentrop",7.6707,51.29408,"de:5962:2406"
"24202440","Altena (Westf), Müller & Schröder",7.68493,51.29643,"de:5962:2440"
"24200043","Lüdenscheid, Jägerhäuschen",7.56894,51.21459,"de:5962:43"
"24200042","Lüdenscheid, Winkhausen",7.56503,51.21273,"de:5962:42"
"24202411","Altena (Westf), Städtisch Rahmede",7.67353,51.27595,"de:5962:2411"
"24202273","Hemer, Ihmert Westendorf",7.72991,51.32931,"de:5962:2273"
"24200044","Lüdenscheid, Crummenerl",7.57367,51.21385,"de:5962:44"
"24202404","Altena (Westf), Rotes Kreuz",7.67178,51.2998,"de:5962:2404"
"24200354","Lüdenscheid, Opderbeckstraße",7.56876,51.21262,"de:5962:354"
"24202526","Altena (Westf), Waldstraße",7.66982,51.28451,"de:5962:2526"
"24202527","Altena (Westf), Im Steinsiepen",7.67009,51.28281,"de:5962:2527"
"24200147","Lüdenscheid, Brügge Schule",7.57143,51.21291,"de:5962:147"
"24200051","Lüdenscheid, Oberlösenbach",7.60134,51.21837,"de:5962:51"
"24200529","Iserlohn, Oberdahlsen",7.71526,51.32819,"de:5962:529"
"24202400","Altena (Westf), Am Markaner ZOB",7.67199,51.30135,"de:5962:2400"
"24200049","Lüdenscheid, Rescher Dach",7.5981,51.21777,"de:5962:49"
"24200048","Lüdenscheid, Waldlust",7.59386,51.21693,"de:5962:48"
"24200531","Iserlohn, Gunzenheide",7.70405,51.3254,"de:5962:531"
"24200061","Lüdenscheid, Brügge Post",7.56656,51.21035,"de:5962:61"
"24202272","Hemer, Ihmert Ringstraße",7.73484,51.33019,"de:5962:2272"
"24200047","Lüdenscheid, Lösenbach Steinbruch",7.59073,51.2158,"de:5962:47"
"24202281","Hemer, Ihmert Schule",7.73685,51.33026,"de:5962:2281"
"24200407","Lüdenscheid, Märkenstück",7.6041,51.21798,"de:5962:407"
"24200530","Iserlohn, Dahlsen",7.70805,51.3271,"de:5962:530"
"24200146","Lüdenscheid, Am Ziegenkopf",7.57533,51.2123,"de:5962:146"
"24200063","Lüdenscheid, Wahrder Weg",7.55836,51.20763,"de:5962:63"
"24202423","Altena (Westf), Hemecke Spielplatz",7.68051,51.26465,"de:5962:2423"
"24200062","Lüdenscheid, Husmecke",7.5615,51.20846,"de:5962:62"
"24200242","Lüdenscheid, Am Hang",7.57912,51.2119,"de:5962:242"
"24202282","Hemer, Hubbert & Wagner",7.73524,51.33157,"de:5962:2282"
"24202541","Altena (Westf), Feldstraße",7.67336,51.308,"de:5962:2541"
"24202427","Altena (Westf), Hartenstein",7.67398,51.30877,"de:5962:2427"
"24200045","Lüdenscheid, Wiesenthal",7.58465,51.21283,"de:5962:45"
"24200064","Lüdenscheid, Brügge Kirche",7.56661,51.20828,"de:5962:64"
"24200046","Lüdenscheid, In der Brummecke",7.588,51.21325,"de:5962:46"
"24200532","Iserlohn, Hombeck im Siepen",7.69846,51.32567,"de:5962:532"
"24202540","Altena (Westf), Gehegder Weg",7.67113,51.30612,"de:5962:2540"
"24202557","Altena (Westf), Reformierter Friedhof",7.67044,51.30547,"de:5962:2557"
"24202357","Hemer, Heidermühle Seniorenheim",7.7764,51.32341,"de:5962:2357"
"24202403","Altena (Westf), Altena Bahnhof",7.66809,51.30183,"de:5962:2403"
"24202266","Hemer, Heidermühle",7.776,51.32406,"de:5962:2266"
"24200241","Lüdenscheid, Martin-Niemöller-Straße",7.62751,51.21866,"de:5962:241"
"24200145","Lüdenscheid, Brügge Friedhof",7.58134,51.21176,"de:5962:145"
"24200137","Lüdenscheid, Gotenstraße",7.61099,51.21647,"de:5962:137"
"24200031","Lüdenscheid, Hauptpost",7.6305,51.21841,"de:5962:31"
"24202568","Altena (Westf), Nordstraße",7.67337,51.31064,"de:5962:2568"
"24202412","Altena (Westf), Ardeyweg",7.67241,51.26854,"de:5962:2412"
"24200075","Lüdenscheid, Wildmecke",7.62101,51.21724,"de:5962:75"
"24202538","Altena (Westf), Friedhof Mühlendorf",7.66991,51.30701,"de:5962:2538"
"24201081","Iserlohn, Zur Friedenseiche",7.65354,51.34888,"de:5962:1081"
"24200028","Lüdenscheid, Humboldtstraße",7.63724,51.21829,"de:5962:28"
"24202433","Altena (Westf), Freibad",7.67111,51.30905,"de:5962:2433"
"24202401","Altena (Westf), Stadtwerke",7.66712,51.30424,"de:5962:2401"
"24202539","Altena (Westf), Gartenstraße",7.66876,51.307,"de:5962:2539"
"24202435","Altena (Westf), Lüling",7.66714,51.3049,"de:5962:2435"
"24200040","Lüdenscheid, Brügge Bahnhof",7.57119,51.20825,"de:5962:40"
"24200138","Lüdenscheid, Stadtpark",7.60437,51.21489,"de:5962:138"
"24202301","Hemer, Im Hahn",7.77597,51.32597,"de:5962:2301"
"24202569","Altena (Westf), Am Richtpfad",7.67074,51.31046,"de:5962:2569"
"24202565","Altena (Westf), ALDI",7.66557,51.30326,"de:5962:2565"
"24200248","Lüdenscheid, Agentur für Arbeit",7.63474,51.21784,"de:5962:248"
"24200095","Lüdenscheid, Brüninghausen Friedhof",7.68829,51.21704,"de:5962:95"
"24202434","Altena (Westf), Wixbergstraße",7.6677,51.30776,"de:5962:2434"
"24200533","Iserlohn, Lennestück",7.69169,51.32625,"de:5962:533"
"24200238","Lüdenscheid, Rathausplatz",7.62725,51.21731,"de:5962:238"
"24202542","Altena (Westf), Am Loerweg",7.66788,51.30982,"de:5962:2542"
"24200139","Lüdenscheid, Teutonenstraße",7.60053,51.214,"de:5962:139"
"24202283","Hemer, Haßbergstraße",7.73315,51.33571,"de:5962:2283"
"24200172","Lüdenscheid, Schützenhalle",7.64383,51.21818,"de:5962:172"
"24200098","Lüdenscheid, Kalve",7.66131,51.21808,"de:5962:98"
"24202413","Altena (Westf), Mühlenrahmede",7.67145,51.26369,"de:5962:2413"
"24200169","Lüdenscheid, Karl-Reeber-Zentrum",7.64683,51.21792,"de:5962:169"
"24200097","Lüdenscheid, Kattenbusch",7.66562,51.21789,"de:5962:97"
"24200144","Lüdenscheid, Stüttinghausen",7.58543,51.21073,"de:5962:144"
"24200074","Lüdenscheid, Luisental",7.61891,51.21582,"de:5962:74"
"24200140","Lüdenscheid, Haus Schöneck",7.59405,51.21223,"de:5962:140"
"24200092","Lüdenscheid, Kölner Straße",7.62583,51.21643,"de:5962:92"
"24202402","Altena (Westf), Am Halse",7.66368,51.30619,"de:5962:2402"
"24200103","Lüdenscheid, Brüninghausen Schulweg",7.69535,51.21535,"de:5962:103"
"24202511","Altena (Westf), Graf-Adolf-Straße",7.66171,51.30464,"de:5962:2511"
"24202510","Altena (Westf), Graf-Dietrich-Straße",7.66037,51.30319,"de:5962:2510"
"24202421","Altena (Westf), Abzweig Horst",7.68359,51.25255,"de:5962:2421"
"24202424","Altena (Westf), Mühlenrahmede Alte Schule",7.6695,51.26256,"de:5962:2424"
"24200173","Lüdenscheid, Schützenplatz",7.64192,51.21719,"de:5962:173"
"24202508","Altena (Westf), Evangelische Melanchthon Kirche",7.66064,51.30471,"de:5962:2508"
"24202491","Altena (Westf), Kleinendrescheid",7.6601,51.27401,"de:5962:2491"
"24200029","Lüdenscheid, Eduardstraße",7.63665,51.2168,"de:5962:29"
"24202483","Altena (Westf), Am Hünengraben",7.66186,51.30775,"de:5962:2483"
"24200534","Iserlohn, Weg nach Voßwinkel",7.68825,51.32901,"de:5962:534"
"24200255","Lüdenscheid, Leifringhauser Bach",7.68589,51.21588,"de:5962:255"
"24200056","Lüdenscheid, Berliner Straße",7.6493,51.21702,"de:5962:56"
"24202284","Hemer, Holmecker Weg",7.73503,51.33873,"de:5962:2284"
"24202509","Altena (Westf), Tiergarten",7.65718,51.30093,"de:5962:2509"
"24200143","Lüdenscheid, Dohlengasse",7.58592,51.20949,"de:5962:143"
"24200165","Lüdenscheid, Harlingerstraße",7.61302,51.21392,"de:5962:165"
"24202359","Hemer, Heppingsen",7.77256,51.33305,"de:5962:2359"
"24202482","Altena (Westf), Sportplatz",7.65962,51.30726,"de:5962:2482"
"24202430","Altena (Westf), Knerling",7.65819,51.30559,"de:5962:2430"
"24200527","Iserlohn, Kesbern",7.70749,51.33662,"de:5962:527"
"24200030","Lüdenscheid, Wilhelmstraße",7.63534,51.21578,"de:5962:30"
"24200141","Lüdenscheid, Im Langen Hahn",7.59357,51.21067,"de:5962:141"
"24200151","Lüdenscheid, Kurze Straße",7.6253,51.21476,"de:5962:151"
"24200161","Lüdenscheid, Nottebohmstraße",7.65454,51.21606,"de:5962:161"
"24202414","Altena (Westf), Kirchweg",7.66743,51.25975,"de:5962:2414"
"24200117","Lüdenscheid, Trempershof",7.711,51.23955,"de:5962:117"
"24202265","Hemer, Heppingsen Feuerwehrhaus",7.77369,51.33482,"de:5962:2265"
"24200174","Lüdenscheid, Mittelstraße",7.63882,51.21557,"de:5962:174"
"24200300","Lüdenscheid, Sauerfeld ZOB",7.62907,51.21489,"de:5962:300"
"24202356","Hemer, Frönsberg Friedhof",7.77234,51.33579,"de:5962:2356"
"24200167","Lüdenscheid, Oeneking",7.60499,51.21195,"de:5962:167"
"24202285","Hemer, Adolf vom Braucke",7.74071,51.34141,"de:5962:2285"
"24200535","Iserlohn, Weg nach Attern",7.68134,51.32989,"de:5962:535"
"24202420","Altena (Westf), Rosmart",7.68042,51.24865,"de:5962:2420"
"24200166","Lüdenscheid, Burgunderweg",7.61078,51.21273,"de:5962:166"
"24200171","Lüdenscheid, Schlittenbacher Straße",7.64332,51.21542,"de:5962:171"
"24200526","Iserlohn, Weg nach Dahlsen",7.7075,51.33949,"de:5962:526"
"24200215","Lüdenscheid, Schlade",7.58013,51.20703,"de:5962:215"
"24200065","Lüdenscheid, Birkenweg",7.60083,51.21109,"de:5962:65"
"24200099","Lüdenscheid, Kalve Schule",7.6627,51.21538,"de:5962:99"
"24200073","Lüdenscheid, Oenekinger Hang",7.61599,51.21293,"de:5962:73"
"24200152","Lüdenscheid, Friedrich-Wilhelm-Straße",7.62297,51.2136,"de:5962:152"
"24202358","Hemer, Hof Bauer",7.7677,51.33828,"de:5962:2358"
"24202490","Altena (Westf), Mühlenbach II",7.65684,51.26651,"de:5962:2490"
"24200104","Lüdenscheid, Brüninghauser Halle",7.69402,51.21287,"de:5962:104"
"24200142","Lüdenscheid, Brügger Höh",7.58964,51.20821,"de:5962:142"
"24200176","Lüdenscheid, Schmalspurstraße",7.63193,51.22063,"de:5962:176"
"24200251","Lüdenscheid, Geschwister Scholl Gymnasium",7.63449,51.2137,"de:5962:251"
"24202425","Altena (Westf), Mühlenrahmede Schule",7.66188,51.25952,"de:5962:2425"
"24202419","Altena (Westf), Abzweig Brenge",7.68917,51.24218,"de:5962:2419"
"24200160","Lüdenscheid, Schnepperstrasse",7.65739,51.21437,"de:5962:160"
"24200055","Lüdenscheid, Bräuckenstraße",7.64661,51.21416,"de:5962:55"
"24200247","Lüdenscheid, Johanniter-Stift Oeneking",7.61365,51.2115,"de:5962:247"
"24200175","Lüdenscheid, Staberger Straße",7.63756,51.21338,"de:5962:175"
"24200214","Lüdenscheid, Eininghausen",7.58416,51.20579,"de:5962:214"
"24200525","Iserlohn, Meerbrauckweg",7.70834,51.34208,"de:5962:525"
"24201032","Iserlohn, Stenglingsen",7.63907,51.35586,"de:5962:1032"
"24202286","Hemer, Ihmerter Bach",7.7453,51.34431,"de:5962:2286"
"24200211","Lüdenscheid, Brunscheid",7.69206,51.24008,"de:5962:211"
"24200072","Lüdenscheid, Talstraße",7.61599,51.21083,"de:5962:72"
"24200118","Lüdenscheid, Kattenhahn",7.70366,51.23662,"de:5962:118"
"24200153","Lüdenscheid, Familienbad Nattenberg",7.62035,51.21107,"de:5962:153"
"24202296","Hemer, Hans-Prinzhorn-Klinik",7.76011,51.34291,"de:5962:2296"
"24200162","Lüdenscheid, Wefelshohler Straße",7.65221,51.21245,"de:5962:162"
"24200101","Lüdenscheid, Jüngerstr.",7.66658,51.21231,"de:5962:101"
"24200159","Lüdenscheid, Esen GmbH - Kalver Landweg",7.66011,51.2124,"de:5962:159"
"24202495","Altena (Westf), Strücken",7.65634,51.26037,"de:5962:2495"
"24202415","Altena (Westf), Altroggenrahmede",7.66154,51.25524,"de:5962:2415"
"24200163","Lüdenscheid, Schule Wefelshohl",7.65229,51.21208,"de:5962:163"
"24200066","Lüdenscheid, Pöppelsheim",7.60279,51.20761,"de:5962:66"
"24200131","Lüdenscheid, Kreuzkirche",7.647,51.22463,"de:5962:131"
"24200164","Lüdenscheid, Krähennocken",7.64929,51.21164,"de:5962:164"
"24200100","Lüdenscheid, Bräucken",7.64403,51.21141,"de:5962:100"
"24200536","Iserlohn, Stock in der Bräke",7.67728,51.33473,"de:5962:536"
"24200071","Lüdenscheid, An der Schnappe",7.61302,51.20828,"de:5962:71"
"24200360","Lüdenscheid, Fa. Schulte",7.66881,51.21074,"de:5962:360"
"24200119","Lüdenscheid, Augustenthal",7.69772,51.23497,"de:5962:119"
"24202264","Hemer, Rohländer",7.77953,51.34073,"de:5962:2264"
"24200524","Iserlohn, Hermannsländchen",7.70667,51.34536,"de:5962:524"
"24200212","Lüdenscheid, Abzweig Pöppelsheim",7.60171,51.20644,"de:5962:212"
"24200158","Lüdenscheid, Püschel",7.66265,51.21082,"de:5962:158"
"24202287","Hemer, Johannistal",7.74585,51.34849,"de:5962:2287"
"24200266","Lüdenscheid, Gockeshohl",7.68267,51.23844,"de:5962:266"
"24200258","Lüdenscheid, Abzweig Brüninghausen",7.69638,51.23351,"de:5962:258"
"24200421","Lüdenscheid, Industriegebiet Timberg",7.68221,51.238,"de:5962:421"
"24200250","Lüdenscheid, Am Worthhang",7.65037,51.22607,"de:5962:250"
"24200121","Lüdenscheid, Timbergstraße",7.68811,51.23558,"de:5962:121"
"24200230","Lüdenscheid, Schmittehahn",7.69389,51.23305,"de:5962:230"
