stop_id,stop_name,stop_lon,stop_lat,stop_code
"3008553","Darmstadt-Kranichstein Jagdschloß",8.693881,49.898941,""
"3008554","Darmstadt-Kranichstein Kesselhutweg",8.68616,49.895903,""
"3004793","Erzhausen Abzweig Erzhausen",8.669736,49.948229,""
"3008555","Darmstadt Am Karlshof",8.665799,49.882104,""
"3004716","Darmstadt-Wixhausen Messeler Park Straße",8.659012,49.931635,""
"3004718","Darmstadt-Arheilgen Löwenplatz",8.657664,49.910987,""
"3004717","Darmstadt-Arheilgen Messeler Straße",8.655165,49.913387,""
"3004719","Darmstadt Merck",8.654221,49.895579,""
"3004720","Darmstadt Nordbahnhof",8.653241,49.891291,""
"3004721","Darmstadt Rhönring",8.651578,49.884451,""
"3004736","Darmstadt Luisenplatz",8.651254,49.872882,""
"3004722","Darmstadt Mathildenplatz",8.650032,49.874661,""
"3004732","Darmstadt-Wixhausen Bahnhof",8.647596,49.93097,""
"3004733","Darmstadt-Arheilgen Bahnhof",8.645564,49.913621,""
"3004735","Darmstadt Berliner Allee",8.635775,49.870706,""
"3004734","Darmstadt Hauptbahnhof",8.631146,49.871938,""
"3024768","Darmstadt-Kranichstein Einsiedel",8.744769,49.90616,""
"3024749","Darmstadt-Kranichstein Grube Prinz von Hessen",8.734989,49.90287,""
"3015972","Darmstadt Bessunger Forsthaus Jugendhof",8.725577,49.864836,""
"3024496","Darmstadt Oberwaldhaus",8.69683,49.890653,""
"3016027","Darmstadt TU-Lichtwiese Bahnhof",8.687652,49.860881,""
"3024173","Darmstadt Fasanerie",8.685279,49.884145,""
"3024166","Darmstadt-Kranichstein Esselborn/Ökum.GZ",8.682564,49.900937,""
"3024615","Darmstadt Hofgut Oberfeld",8.682079,49.873115,""
"3024260","Darmstadt-Kranichstein Gruberstraße",8.681054,49.898402,""
"3024343","Darmstadt-Kranichstein Institutszentrum",8.680775,49.903094,""
"3024730","Darmstadt TU-Lichtwiese/Mensa",8.680451,49.861052,""
"3024650","Darmstadt-Kranichstein Siemensstraße",8.68029,49.896334,""
"3024518","Darmstadt Rosenhöhe",8.678294,49.873502,""
"3024090","Darmstadt Botanischer Garten/Vivarium",8.678294,49.867884,""
"3011328","Darmstadt-Kranichstein Bahnhof",8.677988,49.904802,""
"3024701","Darmstadt-Kranichstein Wachtelweg",8.677827,49.907895,""
"3024558","Darmstadt Regerweg",8.677584,49.881637,""
"3024662","Darmstadt-Kranichstein Steinstraße",8.676712,49.906016,""
"3024172","Darmstadt-Kranichstein Fasanenweg",8.674842,49.908928,""
"3024082","Darmstadt-Kranichstein Borsdorffstraße",8.674195,49.896388,""
"3011226","Darmstadt Ostbahnhof",8.673817,49.874832,""
"3024039","Darmstadt-Kranichstein Arheilger Mühlchen",8.673494,49.908281,""
"3024704","Mühltal-Nieder-Ramstadt Christophorusschule",8.67282,49.814254,""
"3024673","Darmstadt Alfred-Messel-Weg",8.672748,49.885907,""
"3024363","Darmstadt Kastanienallee",8.67255,49.890536,""
"3024302","Darmstadt Heidenreichstraße",8.671732,49.869007,""
"3024400","Darmstadt-Eberstadt Kühler Grund",8.67113,49.814649,""
"3024655","Darmstadt Spessartring",8.670698,49.879399,""
"3016149","Darmstadt Böllenfalltor",8.669745,49.852602,""
"3024676","Darmstadt Peter-Behrens-Straße",8.66953,49.885278,""
"3024639","Darmstadt Schwarzer Weg",8.669125,49.885745,""
"3024029","Darmstadt-Arheilgen Am Trinkbrunnenpfad",8.669026,49.910861,""
"3024661","Darmstadt Merck-Stadion",8.668613,49.857447,""
"3024062","Darmstadt Beckstraße",8.668406,49.869367,""
"3024359","Darmstadt-Eberstadt Kaisermühle",8.667885,49.818946,""
"3015970","Darmstadt Hochschulstadion",8.667714,49.861106,""
"3024758","Darmstadt Elisabethenstift/Woog",8.667192,49.873439,""
"3024876","Darmstadt-Arheilgen Auf der Hardt",8.667156,49.903022,""
"3024428","Darmstadt Mathildenhöhe",8.667058,49.878644,""
"3024584","Darmstadt-Arheilgen Kornweg",8.666743,49.900236,""
"3024307","Darmstadt Herdweg",8.665341,49.865394,""
"3024744","Darmstadt-Arheilgen Wildstraße",8.665017,49.912191,""
"3024681","Darmstadt Taunusplatz",8.664532,49.880352,""
"3024666","Darmstadt Alice-Hospital",8.663372,49.877205,""
"3024877","Darmstadt-Arheilgen Stadtteilschule",8.663345,49.903121,""
"3024609","Darmstadt Roßdörfer Platz",8.662734,49.868953,""
"3024546","Darmstadt Pützerstraße",8.662563,49.875291,""
"3017542","Darmstadt Mercksplatz",8.662545,49.871884,""
"3024440","Darmstadt Marienhospital",8.662482,49.851146,""
"3024081","Darmstadt-Arheilgen Bornstraße",8.662428,49.9122,""
"3024909","Darmstadt Eissporthalle",8.662392,49.889323,""
"3016017","Darmstadt Jugendstilbad",8.662078,49.872882,""
"3024391","Darmstadt Kopernikusplatz",8.661844,49.878194,""
"3024483","Darmstadt Nordbad",8.661745,49.886716,""
"3024763","Darmstadt-Wixhausen Merianstraße/GSI",8.661233,49.93168,""
"3024737","Darmstadt-Arheilgen Kreuzkirche",8.660918,49.905719,""
"3024011","Darmstadt Alexanderstraße/TU",8.66054,49.875758,""
"3024878","Darmstadt-Arheilgen Thomas-Mann-Platz",8.660459,49.9034,""
"3024303","Darmstadt Heinheimer Straße",8.660289,49.882338,""
"3024516","Darmstadt Pankratiusstraße",8.659605,49.882311,""
"3015887","Darmstadt Hochstraße",8.659444,49.869286,""
"3024383","Darmstadt Klappacher Straße",8.657376,49.853168,""
"3024137","Darmstadt-Eberstadt Schwimmbad",8.657178,49.819764,""
"3024634","Darmstadt Schulstraße",8.656612,49.870302,""
"3024886","Darmstadt Messplatz",8.656495,49.886806,""
"3024218","Darmstadt-Arheilgen Fuchsstraße",8.656405,49.906223,""
"3024700","Darmstadt Kongresszentrum darmstadtium",8.656118,49.87387,""
"3024301","Darmstadt Heinrichstraße",8.655902,49.866526,""
"3024642","Darmstadt-Wixhausen Schönbergstraße",8.655875,49.93132,""
"3024329","Darmstadt-Arheilgen Im Fiedlersee",8.655479,49.901647,""
"3016016","Darmstadt Schloß",8.655237,49.872873,""
"3024727","Darmstadt Hügelstraße/Volksbank",8.655147,49.869681,""
"3024215","Darmstadt Friedrich-Ebert-Platz",8.655075,49.881862,""
"3024446","Darmstadt Maulbeerallee",8.654913,49.898303,""
"3015839","Darmstadt Edith-Stein-Schule",8.654913,49.857977,""
"3024390","Darmstadt-Arheilgen Kolpingweg",8.654581,49.917648,""
"3024714","Darmstadt-Arheilgen Dreieichweg",8.654509,49.920578,""
"3024236","Darmstadt Goethestraße",8.654122,49.863245,""
"3015838","Darmstadt Lichtenbergschule",8.653574,49.850534,""
"3024313","Darmstadt-Wixhausen Hindemithstraße",8.653097,49.928875,""
"3024206","Darmstadt Freiberger Platz",8.653025,49.860809,""
"3024430","Darmstadt Ludwigshöhstraße",8.652477,49.853402,""
"3024503","Darmstadt Orangerie",8.651974,49.858562,""
"3024724","Darmstadt Weinbergstraße",8.65129,49.856171,""
"3024214","Darmstadt-Arheilgen Friedhof",8.651102,49.913863,""
"3024585","Darmstadt-Arheilgen Wechslerstraße",8.651066,49.906501,""
"3024515","Darmstadt Pallaswiesenstraße",8.650463,49.881089,""
"3024747","Darmstadt Willy-Brandt-Platz",8.650248,49.876261,""
"3024581","Darmstadt-Arheilgen Fritz-Meister-Anlage",8.649987,49.909908,""
"3024304","Darmstadt-Eberstadt Heinrich-Delp-Straße",8.649241,49.818407,""
"3024906","Darmstadt-Eberstadt Odenwaldstraße",8.648953,49.815746,""
"3024910","Darmstadt-Eberstadt Schloßstraße",8.648693,49.813184,""
"9900373","P+R Darmstadt Wixhausen 2",8.647937,49.932444,""
"9900363","P+R Darmstadt Wixhausen 1",8.647821,49.931635,""
"3024919","Darmstadt Klinikum",8.64774,49.875803,""
"3024358","Darmstadt Kahlertstraße",8.647506,49.879893,""
"3024543","Darmstadt Prinz-Emil-Garten",8.647191,49.861663,""
"3024913","Darmstadt-Eberstadt Marktstraße",8.647164,49.817975,""
"3024076","Darmstadt Bessunger Straße",8.646976,49.858292,""
"3015919","Darmstadt Eschollbrücker Straße",8.646976,49.865061,""
"3024055","Darmstadt-Wixhausen Bahnhofstraße",8.646958,49.927994,""
"3024712","Darmstadt-Arheilgen Asternweg",8.646715,49.910465,""
"3024403","Darmstadt Landskronstraße",8.646616,49.853195,""
"3024979","Darmstadt Carl-Schenck-Ring",8.646346,49.888415,""
"3015922","Darmstadt-Eberstadt Kirche",8.646176,49.814092,""
"3024441","Darmstadt Marienhöhe",8.646077,49.843496,""
"3024216","Darmstadt-Eberstadt Friedrich-Ebert-Straße",8.645636,49.838543,""
"9900364","P+R Darmstadt Arheilgen",8.645519,49.9138,""
"3024109","Darmstadt-Eberstadt Carl-Ulrich-Straße",8.645187,49.832942,""
"3024694","Darmstadt-Arheilgen Bahnhof West",8.644953,49.914843,""
"3024699","Darmstadt-Eberstadt Von-Ketteler-Straße",8.644917,49.828897,""
"3024365","Darmstadt-Eberstadt Katharinenstraße",8.644611,49.824609,""
"3015921","Darmstadt-Eberstadt Wartehalle",8.644252,49.820762,""
"3024566","Darmstadt Rhein-/Neckarstraße",8.644216,49.871659,""
"3024454","Darmstadt-Eberstadt Modaubrücke",8.644045,49.817068,""
"3016019","Darmstadt Kasinostraße",8.643398,49.875066,""
"3024336","Darmstadt Im Tiefen See",8.643254,49.882284,""
"3024270","Darmstadt-Wixhausen Göthsbachstraße",8.643065,49.929594,""
"3024095","Darmstadt-Wixhausen Brückengasse",8.642121,49.932255,""
"3024619","Darmstadt Schiebelhuthweg",8.64098,49.854058,""
"3024019","Darmstadt-Eberstadt Alte Post",8.640683,49.816933,""
"3024977","Darmstadt Daimlerweg",8.640575,49.889907,""
"3024678","Darmstadt-Eberstadt Thüringer Straße",8.640135,49.820591,""
"3016014","Darmstadt Kirschenallee",8.638598,49.874733,""
"3024748","Darmstadt Windmühle",8.638265,49.883354,""
"3024316","Darmstadt Holzhofallee",8.638166,49.863892,""
"3011320","Darmstadt Südbahnhof",8.637699,49.854966,""
"3024190","Darmstadt Fliederberg",8.637564,49.860512,""
"3024978","Darmstadt Wöhlerweg",8.636521,49.889853,""
"3024438","Darmstadt Mainzer Straße",8.635721,49.879579,""
"3024276","Darmstadt Haardtring",8.63555,49.857986,""
"3024717","Darmstadt-Eberstadt Walther-Rathenau-Straße",8.635344,49.816762,""
"3024799","Darmstadt Hochschule",8.635038,49.866625,""
"3016028","Darmstadt Evonik",8.634903,49.875857,""
"3024026","Darmstadt Am Kaiserschlag",8.633914,49.851577,""
"3024116","Darmstadt Riedstraße",8.633815,49.858238,""
"3024976","Darmstadt Otto-Röhm-Straße",8.632791,49.887938,""
"3024534","Darmstadt Philipp-Röth-Weg",8.63262,49.863128,""
"3024526","Darmstadt Hochschule West",8.631559,49.865924,""
"3024975","Darmstadt Pfnorstraße",8.631514,49.88437,""
"3024170","Darmstadt Heinrich-Hertz-Straße",8.62915,49.868836,""
"3024755","Darmstadt-Wixhausen Sportplatz",8.628943,49.930979,""
"3024097","Darmstadt Buchenlandweg",8.628413,49.847496,""
"3024544","Darmstadt Pulverhäuserweg",8.627972,49.850561,""
"3024456","Darmstadt TZ Rhein Main",8.627784,49.869789,""
"9900276","P+R Darmstadt Hauptbahnhof",8.627757,49.871614,""
"3024684","Darmstadt T-Online-Allee",8.627047,49.862805,""
"3024862","Darmstadt Forstweg",8.626957,49.854049,""
"3024683","Darmstadt Mina-Rees-Straße",8.626507,49.867021,""
"3011321","Darmstadt-Eberstadt Bahnhof",8.625366,49.814865,""
"3024590","Darmstadt Rodensteinweg/Altes Schalthaus",8.624026,49.875497,""
"3024384","Darmstadt Klausenburger Straße",8.624026,49.84675,""
"3024312","Darmstadt Hilpertstraße",8.623559,49.861816,""
"3024357","Darmstadt Kleyerstraße",8.623352,49.858616,""
"3024974","Darmstadt Bunsenstraße",8.623334,49.886105,""
"3024098","Darmstadt von Taxis",8.623154,49.860243,""
"3024686","Darmstadt Fünfkirchner Straße",8.62195,49.850957,""
"3024219","Darmstadt Hannah-Arendt-Weg",8.620997,49.849519,""
"3024675","Darmstadt Anne-Frank-Straße",8.620916,49.847945,""
"3024277","Darmstadt Haasstraße",8.620646,49.885646,""
"3024582","Darmstadt Maria-Goeppert-Straße",8.620179,49.868747,""
"3024455","Darmstadt Moldenhauerweg",8.61946,49.875776,""
"3024333","Darmstadt Im Harras",8.618642,49.878617,""
"3024470","Darmstadt Kölner Straße",8.617078,49.881439,""
"3024706","Darmstadt Waldfriedhof",8.614255,49.867821,""
"3024507","Darmstadt Otto-Hesse-Straße",8.603486,49.866355,""
"3024194","Darmstadt-Eberstadt Frankenbergers Mühle",8.67513,49.808501,""
"3024371","Darmstadt-Eberstadt Kinderheim",8.671067,49.811162,""
"3024903","Darmstadt-Eberstadt Grazstraße",8.655012,49.809804,""
"3024905","Darmstadt-Eberstadt Kleukensweg",8.652495,49.811935,""
"3024902","Darmstadt-Eberstadt Franz-Best-Weg",8.651578,49.8086,""
"3024453","Darmstadt-Eberstadt Mittelschneise",8.646526,49.802334,""
"3024134","Darmstadt-Eberstadt Friedhof",8.646212,49.811305,""
"3024907","Darmstadt-Eberstadt Seeheimer Straße",8.645771,49.812079,""
"3024200","Darmstadt-Eberstadt Frankenstein",8.645546,49.80771,""
"3024692","Darmstadt-Eberstadt Ulvenbergstraße",8.643865,49.811287,""
"3024990","Darmstadt-Eberstadt Einkaufszentrum Süd",8.642598,49.805849,""
"3024920","Darmstadt-Eberstadt Klinikum Süd",8.642085,49.80753,""
"3024911","Darmstadt-Eberstadt Ludwig-Schwamb-Schule",8.641124,49.809795,""
"3016040","Darmstadt-Eberstadt Grenzallee",8.639991,49.803152,""
"3024912","Darmstadt-Eberstadt Nußbaumallee",8.637375,49.808663,""
"3024900","Darmstadt-Eberstadt Brunnenweg",8.636944,49.804195,""
"3024901","Darmstadt-Eberstadt Eschelkopfweg",8.636422,49.806334,""
"3001302","Frankfurt (Main) Platenstraße",8.665413,50.136787,""
"3000008","Frankfurt (Main) Hauptbahnhof/Münchener Straße",8.666222,50.106916,""
"3001304","Frankfurt (Main) Hügelstraße",8.666266,50.147987,""
"3000924","Frankfurt (Main) Vogelweidstraße",8.666608,50.097603,""
"3001441","Frankfurt (Main) Konrad-Duden-Weg",8.666608,50.190255,""
"3001424","Frankfurt (Main) An der Bornhohl",8.667138,50.196907,""
"3001212","Frankfurt (Main) Friedrich-Kahl-Straße",8.593661,50.131501,""
"3001137","Frankfurt (Main) Zeilsheim Kolonie",8.498779,50.093153,""
"3000214","Frankfurt (Main) Mitscherlichplatz",8.664918,50.123528,""
"3001399","Frankfurt (Main) Nordpark/Alter Flugplatz",8.66739,50.177328,""
"3001369","Frankfurt (Main) Otto-Hahn-Schule",8.667516,50.20159,""
"3001138","Frankfurt (Main) Annabergstraße",8.501998,50.092254,""
"3001387","Frankfurt (Main) Wilhelm-Flögel-Ring",8.664873,50.200197,""
"3001360","Frankfurt (Main) Haus Nidda",8.667867,50.183279,""
"3001362","Frankfurt (Main) Glogauer Straße",8.664837,50.192349,""
"3000025","Frankfurt (Main) Baseler Platz",8.66481,50.102996,""
"3001021","Frankfurt (Main) Farbenstraße/Friedhof",8.510762,50.076694,""
"3000923","Frankfurt (Main) Stresemannallee/Gartenstraße",8.667965,50.100039,""
"3001310","Frankfurt (Main) Bonameser Hainstraße",8.66463,50.183396,""
"3001016","Frankfurt (Main) Allesinastraße",8.513585,50.078186,""
"3001013","Frankfurt (Main) Industriepark Höchst Tor West",8.51425,50.086115,""
"3001385","Frankfurt (Main) Ärztehaus Am Bügel",8.664577,50.188951,""
"3001014","Frankfurt (Main) Pfingstbornstraße",8.515356,50.084038,""
"3001015","Frankfurt (Main) Westenbergerstraße",8.517153,50.080281,""
"3001258","Frankfurt (Main) Plieningerstraße",8.668307,50.133677,""
"3001303","Frankfurt (Main) Fritz-Tarnow-Straße",8.668703,50.142917,""
"3000011","Frankfurt (Main) Taunusanlage",8.668765,50.11337,""
"3001253","Frankfurt (Main) Fallerslebenstraße",8.664505,50.138953,""
"3000411","Frankfurt (Main) Miquel-/Hansaallee",8.669368,50.131564,""
"3001352","Frankfurt (Main) Bonames Mitte",8.664433,50.185284,""
"3001390","Frankfurt (Main) Alt-Bonames",8.664037,50.180636,""
"3001422","Frankfurt (Main) Rotdornweg",8.669835,50.165993,""
"3000407","Frankfurt (Main) Bremer Platz",8.669844,50.123923,""
"3001316","Frankfurt (Main) Am Gabelacker",8.663983,50.164249,""
"3000113","Frankfurt (Main) Pforzheimer Straße",8.663057,50.104408,""
"3000112","Frankfurt (Main) Jägerallee",8.590541,50.100165,""
"3000206","Frankfurt (Main) Westend",8.662662,50.118251,""
"3001414","Frankfurt (Main) Urseler Weg",8.669907,50.201824,""
"3000010","Frankfurt (Main) Hauptbahnhof",8.662662,50.106817,""
"3000007","Frankfurt (Main) Weser-/Münchener Straße",8.670285,50.107958,""
"3001301","Frankfurt (Main) Dornbusch",8.670393,50.138648,""
"3001379","Frankfurt (Main) Berner Straße/Ben-Gurion-Ring",8.662248,50.192996,""
"3001384","Frankfurt (Main) Homburger Hohl",8.661718,50.18674,""
"3000201","Frankfurt (Main) Alte Oper",8.670932,50.115375,""
"3001101","Frankfurt (Main) Wilhelm-Fay-Straße",8.587413,50.123429,""
"3001371","Frankfurt (Main) Ben-Gurion-Ring Nord",8.661646,50.191675,""
"3001417","Frankfurt (Main) Michael-Grzimek-Schule",8.671543,50.200368,""
"3001311","Frankfurt (Main) Lindenbaum",8.66161,50.152545,""
"3001305","Frankfurt (Main) Reinhardstraße",8.671921,50.149192,""
"3000410","Frankfurt (Main) Grüneburgpark",8.661565,50.131474,""
"3001251","Frankfurt (Main) Gaugrafenstraße",8.596546,50.12422,""
"3000404","Frankfurt (Main) Miquel-/Adickesallee",8.672136,50.131663,""
"3000925","Frankfurt (Main) Universitätsklinikum",8.661295,50.096731,""
"3001129","Frankfurt (Main) Jahrhunderthalle",8.520084,50.097342,""
"3000009","Frankfurt (Main) Platz der Republik",8.661215,50.109181,""
"3000929","Frankfurt (Main) Städel",8.672406,50.102889,""
"3000933","Frankfurt (Main) Stresemannallee Bahnhof",8.672514,50.094699,""
"3001368","Frankfurt (Main) Lachweg",8.66117,50.162217,""
"3000408","Frankfurt (Main) Lessing-Gymnasium",8.673053,50.124948,""
"3001252","Frankfurt (Main) Stadtbahnzentralwerkstatt",8.596699,50.141057,""
"3000111","Frankfurt (Main) Linnegraben",8.596762,50.10021,""
"3000136","Frankfurt (Main) Neufeld",8.598083,50.11088,""
"3000127","Frankfurt (Main) Lachegraben",8.57801,50.092308,""
"3001421","Frankfurt (Main) Fliederweg",8.673242,50.166586,""
"3001374","Frankfurt (Main) Harheimer Weg",8.673449,50.183162,""
"3000150","Frankfurt (Main) Elektronstraße",8.598749,50.09656,""
"3001220","Frankfurt (Main) Guerickestraße",8.599153,50.135187,""
"3001218","Frankfurt (Main) In der Au",8.599782,50.122467,""
"3000403","Frankfurt (Main) Holzhausenstraße",8.673835,50.126719,""
"3001398","Frankfurt (Main) Oberschelder Weg",8.641223,50.16228,""
"3000004","Frankfurt (Main) Willy-Brandt-Platz",8.674932,50.109217,""
"3001363","Frankfurt (Main) Glockengasse",8.674932,50.200772,""
"3000922","Frankfurt (Main) Otto-Hahn-Platz",8.675417,50.101846,""
"3001219","Frankfurt (Main) Wolf-Heidenheim-Straße",8.601319,50.127762,""
"3000402","Frankfurt (Main) Grüneburgweg",8.675651,50.121451,""
"3000144","Frankfurt (Main) Heinrich-Hardt-Straße",8.602578,50.103221,""
"3000013","Frankfurt (Main) Roßmarkt",8.675714,50.112076,""
"3001450","Frankfurt (Main) Frankfurter Berg Bahnhof",8.676505,50.170236,""
"3000118","Frankfurt (Main) Bingelsweg",8.603189,50.100902,""
"3000109","Frankfurt (Main) Waldschulstraße",8.603405,50.100273,""
"3001221","Frankfurt (Main) Theodor-Fischer-Weg",8.603567,50.143511,""
"3000126","Frankfurt (Main) Chemisches Werk",8.594083,50.090358,""
"3000146","Frankfurt (Main) Platanenstraße",8.606335,50.097702,""
"3000913","Frankfurt (Main) Untermainbrücke",8.676847,50.105019,""
"3000110","Frankfurt (Main) Griesheim Bahnhof",8.606434,50.09398,""
"3000125","Frankfurt (Main) Staustufe Griesheim",8.599746,50.091212,""
"3001217","Frankfurt (Main) Rödelheim Bahnhof",8.606956,50.125065,""
"3000147","Frankfurt (Main) Griesheim Bf/Eichenstraße",8.607207,50.095239,""
"3001229","Frankfurt (Main) Heerstraße",8.607486,50.144356,""
"3000124","Frankfurt (Main) Jungmannstraße",8.605463,50.090816,""
"3001216","Frankfurt (Main) Lorscher Straße",8.609167,50.125281,""
"3000123","Frankfurt (Main) Alte Falterstraße",8.607073,50.090825,""
"3001238","Frankfurt (Main) Radilostraße",8.610722,50.125083,""
"3000151","Frankfurt (Main) Am Mühlgewann",8.610731,50.096587,""
"3001336","Frankfurt (Main) Hofgut",8.611405,50.146495,""
"3000142","Frankfurt (Main) Auf dem Schafberg",8.612106,50.09096,""
"3001215","Frankfurt (Main) Alt-Rödelheim",8.611603,50.124759,""
"3000149","Frankfurt (Main) Schöffenstraße",8.614632,50.091239,""
"3001227","Frankfurt (Main) Friedhof Westhausen",8.612214,50.139403,""
"3000137","Frankfurt (Main) Neumarkt",8.58486,50.107464,""
"3001259","Frankfurt (Main) Paquetstraße",8.660729,50.140895,""
"3000143","Frankfurt (Main) Erzbergerstraße",8.614102,50.094088,""
"3001335","Frankfurt (Main) Schönberger Weg",8.614695,50.147772,""
"3001246","Frankfurt (Main) Ben-Gurion-Ring Süd",8.660154,50.184969,""
"3001342","Frankfurt (Main) Thomas-Mann-Straße",8.61537,50.163314,""
"3001242","Frankfurt (Main) Reifenberger Straße/Sozialzentrum",8.615423,50.128391,""
"3001214","Frankfurt (Main) Parkweg",8.615459,50.12182,""
"3001420","Frankfurt (Main) Hagebuttenweg",8.677224,50.167134,""
"3000121","Frankfurt (Main) Briefzentrum",8.634975,50.092749,""
"3001226","Frankfurt (Main) Stephan-Heise-Straße",8.615729,50.1356,""
"3001313","Frankfurt (Main) Im Wörth",8.660037,50.157992,""
"3000415","Frankfurt (Main) Bertramstraße",8.677494,50.132211,""
"3001404","Frankfurt (Main) Kaiser-Sigmund-Straße",8.677854,50.140706,""
"3000108","Frankfurt (Main) Mönchhofstraße",8.617086,50.100417,""
"3001343","Frankfurt (Main) Weißkirchener Weg",8.617896,50.166928,""
"3000132","Frankfurt (Main) Schmidtstraße",8.61812,50.103751,""
"3000131","Frankfurt (Main) Römerhof",8.618471,50.107689,""
"3001392","Frankfurt (Main) Siedlung Frankfurter Berg",8.67833,50.167737,""
"3001409","Frankfurt (Main) Karl-von-Drais-Straße",8.678824,50.149677,""
"3001306","Frankfurt (Main) Theodor-Storm-Straße",8.659902,50.146747,""
"3000401","Frankfurt (Main) Eschenheimer Tor",8.67904,50.117874,""
"3001315","Frankfurt (Main) Anne-Frank-Siedlung",8.659821,50.160545,""
"3001353","Frankfurt (Main) Alt-Praunheim/Krankenh. Nordwest",8.619478,50.149408,""
"3001341","Frankfurt (Main) G.-Hauptmann-Ring/Praunheimer Weg",8.619603,50.160581,""
"3001225","Frankfurt (Main) Hausener Weg",8.619666,50.131564,""
"3001345","Frankfurt (Main) Praunheimer Weg Mitte",8.620502,50.16166,""
"3000133","Frankfurt (Main) Zum Rebstockbad",8.620529,50.111707,""
"3001213","Frankfurt (Main) Sternbrücke",8.620583,50.121298,""
"3001373","Frankfurt (Main) Deutsche Bundesbank",8.659713,50.136274,""
"3001334","Frankfurt (Main) Krankenhaus Nordwest",8.620673,50.151035,""
"3001361","Frankfurt (Main) Berner Straße",8.659632,50.193698,""
"3000001","Frankfurt (Main) Hauptwache",8.679292,50.113963,""
"3001340","Frankfurt (Main) Praunheimer Weg/Schulzentrum",8.621635,50.158577,""
"3001346","Frankfurt (Main) Eduard-Bernstein-Weg",8.62177,50.163826,""
"3000130","Frankfurt (Main) Messeparkhaus",8.621914,50.107985,""
"3000914","Frankfurt (Main) Schweizer-/Gartenstraße",8.679553,50.103338,""
"3001386","Frankfurt (Main) Alt-Niederursel",8.622192,50.16575,""
"3001254","Frankfurt (Main) Franz-Werfel-Straße",8.659192,50.139124,""
"3000159","Frankfurt (Main) Schloßborner Straße",8.622408,50.104534,""
"3001339","Frankfurt (Main) Oberfeldstraße",8.622507,50.154496,""
"3001410","Frankfurt (Main) Niederbornstraße",8.679759,50.153183,""
"3000412","Frankfurt (Main) Bornwiesenweg",8.680442,50.121685,""
"3001419","Frankfurt (Main) Kaiserkronenweg",8.680793,50.165588,""
"3001375","Frankfurt (Main) Seniorenwohnanlage Bügel",8.658437,50.188169,""
"3000921","Frankfurt (Main) Schweizer Platz",8.680883,50.101864,""
"3001337","Frankfurt (Main) Praunheimer Brücke",8.622525,50.148041,""
"3000208","Frankfurt (Main) Kettenhofweg",8.658122,50.116085,""
"3000107","Frankfurt (Main) Wickerer Straße",8.622615,50.100974,""
"3001351","Frankfurt (Main) Kalbach",8.658077,50.183063,""
"3001333","Frankfurt (Main) Graebestraße/Pflegeheim",8.622723,50.151215,""
"3001102","Frankfurt (Main) Westerbachsiedlung",8.58068,50.123735,""
"3001314","Frankfurt (Main) Zehnmorgenstraße",8.657673,50.159233,""
"3001248","Frankfurt (Main) Genfer Straße",8.657367,50.191279,""
"3000204","Frankfurt (Main) Palmengartenstraße",8.657286,50.119653,""
"3000017","Frankfurt (Main) Hafenstraße",8.657277,50.10314,""
"3000216","Frankfurt (Main) Bettinaplatz",8.657151,50.114557,""
"3001312","Frankfurt (Main) Weißer Stein",8.657035,50.156392,""
"3001423","Frankfurt (Main) Julius-Brecht-Straße",8.680973,50.167737,""
"3000917","Frankfurt (Main) Oppenheimer Landstraße",8.681027,50.095176,""
"3001223","Frankfurt (Main) Fischstein",8.623019,50.129586,""
"3001211","Frankfurt (Main) Postsiedlung",8.623703,50.118781,""
"3000018","Frankfurt (Main) Güterplatz",8.656459,50.107788,""
"3000138","Frankfurt (Main) Heusingerstraße",8.580105,50.106062,""
"3001338","Frankfurt (Main) Pflanzländer",8.624305,50.143628,""
"3001130","Frankfurt (Main) Rabenkopfweg",8.510295,50.097028,""
"3001239","Frankfurt (Main) Geiselwiesen",8.624404,50.140607,""
"3000152","Frankfurt (Main) Friedrich-Ebert-Siedlung",8.624494,50.094762,""
"3001382","Frankfurt (Main) Im Uhrig",8.656091,50.166056,""
"3001224","Frankfurt (Main) Hausen",8.624503,50.137021,""
"3001344","Frankfurt (Main) Heinrich-Kromer-Schule",8.624934,50.165435,""
"3000915","Frankfurt (Main) Schwanthalerstraße",8.681377,50.101001,""
"3001380","Frankfurt (Main) Dreihäusergasse",8.655659,50.161076,""
"3000114","Frankfurt (Main) Birminghamstraße",8.579961,50.100102,""
"3001237","Frankfurt (Main) Ellerfeld",8.625159,50.135367,""
"3001255","Frankfurt (Main) Stefan-Zweig-Straße",8.655524,50.139798,""
"3000413","Frankfurt (Main) Adlerflychtplatz",8.681431,50.124148,""
"3001249","Frankfurt (Main) Gewerbegebiet Nieder-Eschbach",8.655434,50.194713,""
"3001370","Frankfurt (Main) Eschersheim Bahnhof",8.655138,50.158145,""
"3000158","Frankfurt (Main) Eppenhainer Straße",8.625357,50.104848,""
"3001260","Frankfurt (Main) Pfeiferstraße",8.655129,50.143619,""
"3001408","Frankfurt (Main) Engelthaler Straße",8.681476,50.14948,""
"3001381","Frankfurt (Main) Am Grünen Graben",8.655012,50.163952,""
"3001307","Frankfurt (Main) Kurhessenstraße",8.654823,50.144787,""
"3000015","Frankfurt (Main) Heilbronner Straße",8.654697,50.102062,""
"3001139","Frankfurt (Main) Lenzenbergstraße",8.504739,50.09718,""
"3000414","Frankfurt (Main) Hynspergstraße",8.681881,50.127825,""
"3001131","Frankfurt (Main) Stadthalle Zeilsheim",8.501512,50.097073,""
"3000210","Frankfurt (Main) Festhalle/Messe",8.654275,50.112543,""
"3001143","Frankfurt (Main) Haigerer Straße",8.578109,50.123591,""
"3000016","Frankfurt (Main) Gutleut-/Heilbronner Straße",8.654257,50.099769,""
"3001201","Frankfurt (Main) Bockenheimer Warte",8.653924,50.11995,""
"3000215","Frankfurt (Main) Ditmarstraße",8.653727,50.12591,""
"3000002","Frankfurt (Main) Römer/Paulskirche",8.682025,50.110898,""
"3000901","Frankfurt (Main) Eiserner Steg",8.682204,50.107024,""
"3001332","Frankfurt (Main) Am Alten Schloß",8.626651,50.151619,""
"3001372","Frankfurt (Main) Europaturm",8.653529,50.136203,""
"3000211","Frankfurt (Main) Senckenbergmuseum",8.653061,50.117757,""
"3001365","Frankfurt (Main) Niedwiesenstraße",8.652837,50.158774,""
"3001429","Frankfurt (Main) Heinrich-Lanz-Allee",8.652612,50.189706,""
"3001418","Frankfurt (Main) August-Schanz-Straße",8.6834,50.163323,""
"3001308","Frankfurt (Main) Schönbornstraße",8.652279,50.141587,""
"3001359","Frankfurt (Main) Bonifatiusstraße",8.651758,50.184151,""
"3000920","Frankfurt (Main) Stresemannallee/Mörfelder Landstr",8.671507,50.089441,""
"3000019","Frankfurt (Main) Speyerer Straße",8.650859,50.105567,""
"3001403","Frankfurt (Main) Eckenheimer Landstraße/Marbachweg",8.683562,50.141965,""
"3001230","Frankfurt (Main) Falkstraße",8.650814,50.121182,""
"3000927","Frankfurt (Main) Südbahnhof/Schweizer Straße",8.683786,50.09798,""
"3001132","Frankfurt (Main) Pfaffenwiese/Kolberger Weg",8.497701,50.096965,""
"3000928","Frankfurt (Main) Schweizer Str./Mörfelder Landstr.",8.68402,50.096632,""
"3001383","Frankfurt (Main) Sportzentrum Kalbach",8.649762,50.18656,""
"3001317","Frankfurt (Main) Heddernheim",8.649106,50.161957,""
"3000919","Frankfurt (Main) Beuthener Straße",8.674492,50.091436,""
"3001428","Frankfurt (Main) Frischezentrum",8.647866,50.19492,""
"3000117","Frankfurt (Main) Johanna-Kirchner-AHZ",8.647075,50.097567,""
"3000139","Frankfurt (Main) Nidda-Kampfbahn",8.575035,50.10457,""
"3001231","Frankfurt (Main) Juliusstraße",8.647021,50.125245,""
"3001325","Frankfurt (Main) Heddernheim Kirche",8.647003,50.159844,""
"3000129","Frankfurt (Main) Leonardo-da-Vinci-Allee",8.627883,50.113469,""
"3000420","Frankfurt (Main) Deutsche Nationalbibliothek",8.684065,50.131645,""
"3000003","Frankfurt (Main) Dom/Römer",8.684092,50.110862,""
"3001412","Frankfurt (Main) Büdinger Straße",8.684272,50.151448,""
"3001401","Frankfurt (Main) Hauptfriedhof",8.68447,50.13676,""
"3001207","Frankfurt (Main) Varrentrappstraße",8.646859,50.115545,""
"3001309","Frankfurt (Main) Ginnheim",8.646697,50.14058,""
"3001413","Frankfurt (Main) Marbachweg/Sozialzentrum",8.684631,50.142297,""
"3001402","Frankfurt (Main) Neuer Jüdischer Friedhof",8.684703,50.139232,""
"3000140","Frankfurt (Main) Nied Bahnhof",8.572284,50.102071,""
"3000918","Frankfurt (Main) Breslauer Straße",8.678186,50.093477,""
"3001358","Frankfurt (Main) Alte Riedbergstraße",8.646625,50.185454,""
"3001232","Frankfurt (Main) Frauenfriedenskirche",8.646454,50.129119,""
"3001203","Frankfurt (Main) Leipziger Straße",8.645699,50.122584,""
"3001233","Frankfurt (Main) Markus-Krankenhaus",8.645627,50.13667,""
"3000115","Frankfurt (Main) Luthmerstraße",8.572203,50.099041,""
"3001240","Frankfurt (Main) Universitätssportanlagen",8.645151,50.130791,""
"3001348","Frankfurt (Main) Sandelmühle",8.645124,50.16611,""
"3000101","Frankfurt (Main) Galluswarte",8.644522,50.104201,""
"3001236","Frankfurt (Main) Große Nelkenstraße",8.628404,50.132939,""
"3000106","Frankfurt (Main) Rebstöcker Straße",8.628719,50.101576,""
"3001326","Frankfurt (Main) Habelstraße",8.644108,50.156455,""
"3001103","Frankfurt (Main) Carl-Sonnenschein-Straße",8.572131,50.124013,""
"3000419","Frankfurt (Main) Glauburgstraße",8.685755,50.126548,""
"3000416","Frankfurt (Main) Musterschule",8.686187,50.121757,""
"3001445","Frankfurt (Main) Sigmund-Freud-Straße",8.686205,50.154927,""
"3001347","Frankfurt (Main) Roßkopfstraße",8.629006,50.162721,""
"3001324","Frankfurt (Main) Cohausenstraße",8.644045,50.159718,""
"3001411","Frankfurt (Main) Friedhof Eckenheim",8.686214,50.150289,""
"3000911","Frankfurt (Main) Brücken-/Textorstraße",8.686321,50.101378,""
"3000912","Frankfurt (Main) Südbahnhof",8.686447,50.099329,""
"3000128","Frankfurt (Main) Dürkheimer Straße",8.571035,50.096326,""
"3001104","Frankfurt (Main) Westerwaldstraße",8.569219,50.122961,""
"3000916","Frankfurt (Main) Südbahnhof/Mörfelder Landstraße",8.686762,50.098349,""
"3001243","Frankfurt (Main) Nauheimer Straße",8.643955,50.11684,""
"3001222","Frankfurt (Main) Industriehof",8.629384,50.129002,""
"3000422","Frankfurt (Main) Alte Gasse",8.687229,50.118161,""
"3001202","Frankfurt (Main) Adalbert-/Schloßstraße",8.643569,50.119051,""
"3001319","Frankfurt (Main) Wiesenau",8.629617,50.166973,""
"3000154","Frankfurt (Main) Haus Gallus",8.643479,50.104866,""
"3000417","Frankfurt (Main) Scheffeleck",8.687391,50.11968,""
"3001446","Frankfurt (Main) Preungesheim",8.68767,50.158676,""
"3000157","Frankfurt (Main) Schneidhainer Straße",8.629644,50.105316,""
"3001210","Frankfurt (Main) Katharinenkreisel",8.629932,50.11595,""
"3000510","Frankfurt (Main) Konstablerwache",8.687859,50.114691,""
"3000522","Frankfurt (Main) Börneplatz",8.687993,50.112552,""
"3001318","Frankfurt (Main) Zeilweg",8.643227,50.164312,""
"3001349","Frankfurt (Main) Riedwiese/Mertonviertel",8.642993,50.171377,""
"3001208","Frankfurt (Main) Emser Straße",8.642957,50.114134,""
"3001357","Frankfurt (Main) Schule Kalbach",8.642499,50.18852,""
"3001378","Frankfurt (Main) Niddapark",8.642202,50.143762,""
"3000527","Frankfurt (Main) Schöne Aussicht",8.688002,50.109999,""
"3000905","Frankfurt (Main) Elisabethenstraße",8.688119,50.105882,""
"3000153","Frankfurt (Main) Kleyerstraße",8.629941,50.097117,""
"3000119","Frankfurt (Main) Halmstraße",8.642112,50.096012,""
"3000910","Frankfurt (Main) Südfriedhof West",8.69123,50.091706,""
"3000421","Frankfurt (Main) Richard-Wagner-Straße",8.688218,50.130737,""
"3001354","Frankfurt (Main) Hopfenbrunnen",8.6304,50.188322,""
"3001331","Frankfurt (Main) Mithrasstraße",8.630462,50.152563,""
"3001134","Frankfurt (Main) Hofheimer Straße",8.489916,50.096803,""
"3001328","Frankfurt (Main) Bernadottestraße",8.63173,50.157318,""
"3001256","Frankfurt (Main) Am Neuenberg",8.688533,50.168276,""
"3000116","Frankfurt (Main) Nied Kirche",8.567178,50.098286,""
"3001106","Frankfurt (Main) Sossenheimer Kirchberg",8.56654,50.119635,""
"3001245","Frankfurt (Main) An der Dammheide",8.631856,50.117181,""
"3001247","Frankfurt (Main) Schwalbenweg",8.632233,50.188484,""
"3001444","Frankfurt (Main) Ronneburgstraße",8.688614,50.150765,""
"3001435","Frankfurt (Main) Spitzenstraße",8.688829,50.184996,""
"3000504","Frankfurt (Main) Hessendenkmal",8.689378,50.118907,""
"3001447","Frankfurt (Main) August-Schanz-Straße/Dachsberg",8.68962,50.160051,""
"3000906","Frankfurt (Main) Lokalbahnhof/Textorstraße",8.689818,50.102646,""
"3001105","Frankfurt (Main) Sossenheim Volkshaus",8.566064,50.122728,""
"3000926","Frankfurt (Main) Affentorplatz",8.68998,50.104354,""
"3001405","Frankfurt (Main) Theobald-Ziegler-Straße",8.690133,50.147754,""
"3000909","Frankfurt (Main) Brauerei",8.690924,50.094052,""
"3001406","Frankfurt (Main) Gießener Straße",8.690987,50.143592,""
"3001127","Frankfurt (Main) Unterliederbach West",8.527455,50.111293,""
"3001415","Frankfurt (Main) Kreuzstraße",8.69105,50.152491,""
"3001136","Frankfurt (Main) Kolberger Weg",8.4954,50.095221,""
"3000105","Frankfurt (Main) Ordnungsamt",8.633663,50.098834,""
"3001416","Frankfurt (Main) Weilbrunnstraße",8.691364,50.154397,""
"3000908","Frankfurt (Main) Wendelsplatz",8.691481,50.100632,""
"3001012","Frankfurt (Main) Industriepark Höchst Tor Nord",8.528327,50.097953,""
"3001330","Frankfurt (Main) Hadrianstraße",8.633878,50.153246,""
"3001329","Frankfurt (Main) Ernst-Kahn-Straße",8.634058,50.154783,""
"3000505","Frankfurt (Main) Friedberger Platz",8.691715,50.12333,""
"3000907","Frankfurt (Main) Lokalbahnhof",8.692128,50.101963,""
"3000506","Frankfurt (Main) Rohrbach/Friedberger Landstraße",8.692137,50.127483,""
"3000902","Frankfurt (Main) Frankensteiner Platz",8.692461,50.106925,""
"3001322","Frankfurt (Main) Nordwestzentrum",8.634283,50.158765,""
"3000141","Frankfurt (Main) Nied Brücke",8.564311,50.100255,""
"3000156","Frankfurt (Main) Paul-Hindemith-Schule",8.634499,50.105765,""
"3001393","Frankfurt (Main) Geozentrum",8.634786,50.173706,""
"3001355","Frankfurt (Main) Am Weißkirchener Berg",8.634813,50.18798,""
"3001320","Frankfurt (Main) Heddernheimer Landstraße",8.634903,50.163701,""
"3001206","Frankfurt (Main) Schönhof",8.635281,50.124157,""
"3001108","Frankfurt (Main) Am Kapellenberg",8.561992,50.117065,""
"3001001","Frankfurt (Main) Tillystraße",8.560203,50.101405,""
"3001128","Frankfurt (Main) Silobad/Ballsporthalle",8.529514,50.101333,""
"3001209","Frankfurt (Main) Philipp-Reis-Straße",8.635416,50.114727,""
"3001022","Frankfurt (Main) Ludwig-Scriba-Straße",8.556949,50.102628,""
"3000102","Frankfurt (Main) Schwalbacher Straße",8.636278,50.102313,""
"3001107","Frankfurt (Main) Dunantring",8.556149,50.117766,""
"3001004","Frankfurt (Main) Bolongaropalast",8.553056,50.101486,""
"3001109","Frankfurt (Main) Eltviller Straße",8.552966,50.11168,""
"3001135","Frankfurt (Main) Kirche Zeilsheim",8.492874,50.095005,""
"3001111","Frankfurt (Main) Auerstraße",8.552895,50.105837,""
"3000104","Frankfurt (Main) Galluspark",8.637285,50.100291,""
"3001126","Frankfurt (Main) Unterliederbach Markt",8.531995,50.110718,""
"3001394","Frankfurt (Main) Emil-von-Behring-Straße",8.637501,50.1702,""
"3001002","Frankfurt (Main) Zuckschwerdtstraße",8.552517,50.103158,""
"3001020","Frankfurt (Main) Zuckschwerdt-/Bauhofstraße",8.551879,50.103482,""
"3001377","Frankfurt (Main) Tacitusstraße",8.637645,50.158073,""
"3001234","Frankfurt (Main) Kirchplatz",8.637672,50.125083,""
"3001366","Frankfurt (Main) Römerstadt",8.638238,50.153444,""
"3000120","Frankfurt (Main) Erntestraße",8.638544,50.094376,""
"3001110","Frankfurt (Main) Friedhof Kurmainzer Straße",8.55142,50.10972,""
"3001356","Frankfurt (Main) Rathaus Kalbach",8.638948,50.189266,""
"3001005","Frankfurt (Main) Mainberg",8.549524,50.100012,""
"3001204","Frankfurt (Main) Westbahnhof",8.639757,50.119015,""
"3000103","Frankfurt (Main) Kriegkstraße",8.639892,50.101315,""
"3000155","Frankfurt (Main) DB-Zentrale",8.639937,50.106026,""
"3001112","Frankfurt (Main) Konrad-Glatt-Straße",8.548975,50.106682,""
"3001205","Frankfurt (Main) Kurfürstenplatz",8.640234,50.121047,""
"3001323","Frankfurt (Main) Antoninusstraße",8.640449,50.157471,""
"3001113","Frankfurt (Main) Windthorststraße",8.548706,50.110161,""
"3001114","Frankfurt (Main) Friedhof Höchst",8.548355,50.114763,""
"3001395","Frankfurt (Main) Sebastian-Kneipp-Straße",8.6408,50.169822,""
"3001003","Frankfurt (Main) Emmerich-Josef-Straße",8.548265,50.101558,""
"3001235","Frankfurt (Main) Sophienstraße",8.641106,50.127744,""
"3001327","Frankfurt (Main) Heidenfeld",8.641205,50.155341,""
"3001006","Frankfurt (Main) Hostatostraße",8.546476,50.101837,""
"3001017","Frankfurt (Main) Höchster Markt",8.545469,50.100255,""
"3001024","Frankfurt (Main) Leverkuser Straße",8.545335,50.098187,""
"3001123","Frankfurt (Main) Gerlachstraße",8.544768,50.105145,""
"3001122","Frankfurt (Main) Klinikum Höchst",8.543366,50.108129,""
"3001008","Frankfurt (Main) Höchst Bahnhof",8.542863,50.10252,""
"3001115","Frankfurt (Main) Walter-Kolb-Schule",8.542827,50.113478,""
"3001018","Frankfurt (Main) Höchst Bahnhof Nordseite",8.541748,50.104596,""
"3001007","Frankfurt (Main) Ludwigshafener Straße",8.541694,50.099904,""
"3001116","Frankfurt (Main) Cheruskerweg",8.541083,50.116327,""
"3001117","Frankfurt (Main) Alemannenweg",8.540292,50.113685,""
"3001121","Frankfurt (Main) Euckenstraße",8.539294,50.109972,""
"3001010","Frankfurt (Main) Industriepark Höchst Tor Ost",8.538044,50.097351,""
"3001119","Frankfurt (Main) Alleehaus",8.537918,50.112336,""
"3001120","Frankfurt (Main) Königsteiner Straße",8.537757,50.111338,""
"3001124","Frankfurt (Main) Peter-Bied-Straße",8.537649,50.104857,""
"3001133","Frankfurt (Main) Burgunderweg",8.537487,50.113352,""
"3001118","Frankfurt (Main) Engelsruhe",8.536723,50.114772,""
"3001142","Frankfurt (Main) Ludwig-Erhard-Schule",8.535015,50.110404,""
"3001125","Frankfurt (Main) Wasgaustraße",8.534979,50.108246,""
"3001492","Frankfurt (Main) Goetheturm",8.709711,50.089495,""
"3001491","Frankfurt (Main) Anton-Burger-Weg",8.706745,50.089504,""
"3001490","Frankfurt (Main) Hasselhorstweg",8.700012,50.088641,""
"3001702","Frankfurt (Main) Hainer Weg",8.698601,50.084371,""
"3001489","Frankfurt (Main) Bergkirche",8.696803,50.088398,""
"3001936","Frankfurt (Main) Darmstädter Landstraße Mitte",8.691014,50.09692,""
"3001937","Frankfurt (Main) Neu-Isenburg Stadtgrenze",8.694897,50.060199,""
"3001701","Frankfurt (Main) Sachsenhäuser Warte",8.691499,50.086735,""
"3001706","Frankfurt (Main) Lerchesberg",8.681072,50.083103,""
"3001705","Frankfurt (Main) Lerchesbergring",8.678968,50.083301,""
"3001707","Frankfurt (Main) Oberschweinstiege",8.67824,50.070554,""
"3001704","Frankfurt (Main) Gablonzer Straße",8.672217,50.084748,""
"3001703","Frankfurt (Main) Karlsbader Straße",8.671462,50.086924,""
"3001454","Frankfurt (Main) Oppenheimer Platz",8.682573,50.104381,""
"3001954","Frankfurt (Main) Adolph-Prior-Straße",8.578595,50.128777,""
"3001817","Frankfurt (Main) Humperdinckstraße",8.661817,50.087939,""
"3001575","Frankfurt (Main) Friedhof Enkheim",8.750217,50.150711,""
"3001805","Frankfurt (Main) Oberforsthaus",8.654751,50.079283,""
"3001584","Frankfurt (Main) Heimatmuseum Bergen-Enkheim",8.753048,50.155179,""
"3001806","Frankfurt (Main) Stadion Straßenbahn",8.65316,50.075148,""
"3001563","Frankfurt (Main) Langenselbolder Straße",8.753309,50.132679,""
"3001543","Frankfurt (Main) Hugo-Junkers-Straße",8.75357,50.127645,""
"3001807","Frankfurt (Main) Stadionbad",8.652998,50.073089,""
"3001801","Frankfurt (Main) H.-Hoffmann-Str./Blutspendedienst",8.65298,50.09265,""
"3001574","Frankfurt (Main) Florianweg",8.753741,50.148644,""
"3001591","Frankfurt (Main) Schule Am Hang",8.753821,50.152257,""
"3001808","Frankfurt (Main) Stadion/Osttribüne",8.651722,50.069125,""
"3001804","Frankfurt (Main) Rennbahn",8.651317,50.083265,""
"3001534","Frankfurt (Main) Am Hessen-Center",8.753866,50.14112,""
"3001802","Frankfurt (Main) Niederräder Landstraße",8.65129,50.08829,""
"3001537","Frankfurt (Main) Enkheim",8.753902,50.142567,""
"3001557","Frankfurt (Main) Hugo-Junkers-Straße/Schleife",8.754001,50.126395,""
"3001803","Frankfurt (Main) Triftstraße",8.650392,50.086906,""
"3001559","Frankfurt (Main) Robert-Bosch-Straße",8.75455,50.11995,""
"3001573","Frankfurt (Main) Trieb-/Barbarossastraße",8.754684,50.145381,""
"3001809","Frankfurt (Main) Trift-/Frauenhofstraße",8.649151,50.086276,""
"3001810","Frankfurt (Main) Frauenhofstraße",8.649025,50.08713,""
"3001583","Frankfurt (Main) Michlersbrunnen",8.754873,50.155502,""
"3001580","Frankfurt (Main) Nordring/Haingasse",8.75499,50.1589,""
"3001599","Frankfurt (Main) Adam-Opel-Straße",8.755475,50.123815,""
"3001595","Frankfurt (Main) Am Bächelchen",8.756302,50.154594,""
"3001592","Frankfurt (Main) Leuchte",8.75677,50.143052,""
"3001811","Frankfurt (Main) Schwarzwaldstraße",8.646607,50.086789,""
"3001466","Frankfurt (Main) Steinauer Straße",8.757714,50.133029,""
"3001822","Frankfurt (Main) Gerauer Straße",8.644755,50.083804,""
"3001597","Frankfurt (Main) Haingasse",8.757822,50.156114,""
"3001598","Frankfurt (Main) Siemens-Werk",8.758262,50.118116,""
"3001480","Frankfurt (Main) Marktplatz Bergen",8.758855,50.158748,""
"3001596","Frankfurt (Main) Erlenseer Straße",8.759269,50.157938,""
"3001812","Frankfurt (Main) Odenwaldstraße",8.641996,50.086474,""
"3001585","Frankfurt (Main) Heinrich-Bingemer-Weg",8.759404,50.15481,""
"3001544","Frankfurt (Main) Cassellastraße",8.759718,50.129739,""
"3001824","Frankfurt (Main) Melibocusstraße",8.639964,50.081818,""
"3001829","Frankfurt (Main) Jugenheimer Straße",8.638499,50.083634,""
"3001830","Frankfurt (Main) Niederrad Bahnhof",8.637096,50.080784,""
"3001813","Frankfurt (Main) Haardtwaldplatz",8.636548,50.086088,""
"3001814","Frankfurt (Main) Hahnstraße",8.632036,50.084631,""
"3001833","Frankfurt (Main) Lyoner Straße",8.629546,50.083022,""
"3001815","Frankfurt (Main) Heizkraftwerk Niederrad",8.627757,50.08447,""
"3001831","Frankfurt (Main) Bürostadt Niederrad",8.62746,50.078024,""
"3001832","Frankfurt (Main) Rhonestraße",8.624413,50.081854,""
"3001816","Frankfurt (Main) Goldsteinstraße",8.620341,50.084146,""
"3001827","Frankfurt (Main) Kiesschneise",8.61803,50.076487,""
"3001924","Frankfurt (Main) Morgenzeile",8.617545,50.084739,""
"3001911","Frankfurt (Main) Sonnenweg",8.615882,50.087023,""
"3001519","Frankfurt (Main) Heinrich-Becker-Straße",8.676928,50.201815,""
"3001901","Frankfurt (Main) Waldau",8.610327,50.077,""
"3001906","Frankfurt (Main) Waldau/Goldsteinstraße",8.610174,50.082357,""
"3001910","Frankfurt (Main) Tränkweg",8.609203,50.086339,""
"3001945","Frankfurt (Main) Holzhausen-Park",8.67691,50.127141,""
"3001909","Frankfurt (Main) Tannenkopfweg",8.604708,50.086142,""
"3001907","Frankfurt (Main) Schwarzbachmühle",8.604169,50.082285,""
"3001902","Frankfurt (Main) Waldfriedhof Goldstein",8.603216,50.076838,""
"3001908","Frankfurt (Main) Ruhestein",8.598892,50.086735,""
"3001903","Frankfurt (Main) Harthweg",8.594407,50.081135,""
"3001912","Frankfurt (Main) Henriette-Fürth-Straße",8.592061,50.086384,""
"3001948","Frankfurt (Main) Elly-Beinhorn-Straße",8.591629,50.03324,""
"3001918","Frankfurt (Main) Martinskirchstraße",8.589517,50.08589,""
"3001904","Frankfurt (Main) Ferdinand-Dirichs-Weg",8.58717,50.082789,""
"3001465","Frankfurt (Main) Fuldaer Straße",8.760995,50.133164,""
"3001914","Frankfurt (Main) Alt-Schwanheim",8.582496,50.087211,""
"3001905","Frankfurt (Main) Rheinlandstraße",8.581094,50.082474,""
"3001915","Frankfurt (Main) Mauritiusstraße",8.580132,50.087562,""
"3001919","Frankfurt (Main) Eifelstraße",8.579341,50.085584,""
"3001921","Frankfurt (Main) Schwanheimer Wald",8.57739,50.073889,""
"3001916","Frankfurt (Main) Geisenheimer Straße",8.575844,50.089144,""
"3001922","Frankfurt (Main) An der Kreuzheck",8.575341,50.082285,""
"3001920","Frankfurt (Main) Alter Friedhof Schwanheim",8.573516,50.089962,""
"3001923","Frankfurt (Main) Rauenthaler Weg",8.570891,50.084497,""
"3001917","Frankfurt (Main) Kelsterbacher Weg",8.569947,50.086753,""
"3001496","Frankfurt (Main) Lärchenstraße",8.586775,50.098394,""
"3001475","Frankfurt (Main) Leo-Gans-Straße",8.761076,50.125928,""
"3001462","Frankfurt (Main) Karl-Wessendorft-Straße",8.761148,50.156617,""
"3001487","Frankfurt (Main) Taunustor",8.67202,50.112219,""
"3001474","Frankfurt (Main) Lufthansa Aviation Center",8.555627,50.047928,""
"3001473","Frankfurt (Main) Mainluststraße",8.671399,50.106448,""
"3001488","Frankfurt (Main) Kronberger Straße",8.67059,50.120813,""
"3001955","Frankfurt (Main) Heinrich-Hopf-Straße",8.587458,50.126243,""
"3001486","Frankfurt (Main) Andreaskirche",8.669988,50.150855,""
"3001500","Frankfurt (Main) Max-Horkheimer-Straße",8.669862,50.129263,""
"3001497","Frankfurt (Main) Ernst-Wiss-Straße",8.590586,50.098367,""
"3001485","Frankfurt (Main) Ziegenhainer Straße",8.669224,50.152006,""
"3001951","Frankfurt (Main) Uni Campus Westend",8.668262,50.124085,""
"3001484","Frankfurt (Main) Rauschenberger Straße",8.668154,50.153803,""
"3001495","Frankfurt (Main) In der Schildwacht",8.592168,50.09647,""
"3001594","Frankfurt (Main) Barbarossastraße/Riedschule",8.7613,50.146414,""
"3001958","Frankfurt (Main) Eppsteiner Straße",8.667696,50.120426,""
"3001483","Frankfurt (Main) Burgholzer Straße",8.667282,50.155709,""
"3001957","Frankfurt (Main) Niedenau",8.667273,50.116804,""
"3001482","Frankfurt (Main) Eleonore-Sterling-Straße",8.66588,50.156887,""
"3001959","Frankfurt (Main) Altkönigstraße",8.665484,50.120849,""
"3001567","Frankfurt (Main) Max-Eyth-Straße",8.761849,50.124355,""
"3001459","Frankfurt (Main) Astrid-Lindgren-Schule",8.664109,50.13747,""
"3001481","Frankfurt (Main) Hinter den Ulmen",8.663228,50.155107,""
"3001593","Frankfurt (Main) Leuchte/Rangenbergstraße",8.762244,50.143421,""
"3001589","Frankfurt (Main) Riedbad",8.762568,50.151727,""
"3001590","Frankfurt (Main) Riedschule",8.763251,50.147259,""
"3001953","Frankfurt (Main) Meerholzer Straße",8.763665,50.134423,""
"3001479","Frankfurt (Main) Sportanlage Rebstock",8.604825,50.109639,""
"3001561","Frankfurt (Main) Birsteiner Straße",8.763925,50.13578,""
"3001499","Frankfurt (Main) Feldbahnmuseum",8.610803,50.10661,""
"3001472","Frankfurt (Main) Rottweiler Platz",8.659965,50.10119,""
"3001961","Frankfurt (Main) Siesmayerstraße",8.659956,50.121667,""
"3001566","Frankfurt (Main) Jakobsbrunnenstraße",8.765157,50.126395,""
"3001568","Frankfurt (Main) Bodenseestraße",8.765696,50.124328,""
"3001569","Frankfurt (Main) Mittelseestraße",8.766856,50.122215,""
"3001546","Frankfurt (Main) Alt-Fechenheim",8.767494,50.128319,""
"3001461","Frankfurt (Main) Bergen Ost",8.767836,50.157273,""
"3001560","Frankfurt (Main) Baumertstraße",8.768312,50.125326,""
"3001468","Frankfurt (Main) Starkenburger Straße",8.768609,50.115375,""
"3001467","Frankfurt (Main) Pfortenstraße",8.769328,50.122161,""
"3001547","Frankfurt (Main) Arthur-von-Weinberg-Steg",8.769858,50.12511,""
"3001581","Frankfurt (Main) Bürgeler Straße",8.770667,50.117631,""
"3001505","Frankfurt (Main) Einbiglerweg",8.772016,50.120004,""
"3001477","Frankfurt (Main) Friedhof Fechenheim",8.772546,50.119959,""
"3001548","Frankfurt (Main) Schießhüttenstraße",8.773526,50.121442,""
"3001470","Frankfurt (Main) Mühlheimer Straße",8.773625,50.118656,""
"3001956","Frankfurt (Main) Schubertstraße",8.659534,50.118674,""
"3001493","Frankfurt (Main) Ben-Gurion-Ring West",8.658787,50.190363,""
"3001938","Frankfurt (Main) Hohenstaufenstraße",8.65788,50.110691,""
"3001471","Frankfurt (Main) Rotfeder-Ring",8.656441,50.098691,""
"3001463","Frankfurt (Main) Main-Neckar-Brücke",8.65467,50.097001,""
"3001478","Frankfurt (Main) Johann-Beyer-Weg",8.625393,50.182308,""
"3001952","Frankfurt (Main) Ludwig-Erhard-Anlage",8.650697,50.113828,""
"3001460","Frankfurt (Main) Max-Planck-Institut/FIZ",8.632674,50.175117,""
"3001963","Frankfurt (Main) Lurgiallee",8.636278,50.170775,""
"3001453","Frankfurt (Main) Friedhof Zeilsheim",8.486824,50.096335,""
"3002197","Frankfurt (Main) Neu-Zeilsheim",8.493116,50.097126,""
"3002097","Frankfurt (Main) Farbwerke",8.526871,50.097846,""
"3002298","Frankfurt (Main) Unterliederbach Bahnhof",8.527707,50.108183,""
"3002195","Frankfurt (Main) Hans-Böckler-Straße",8.534458,50.114278,""
"3002199","Frankfurt (Main) Sossenheim Bahnhof",8.553317,50.114395,""
"3001991","Frankfurt (Main) Schweinfurter Weg",8.696254,50.09309,""
"3002198","Frankfurt (Main) Friedhof Sossenheim",8.565533,50.125496,""
"3001998","Frankfurt (Main) Nied Bahnhof/Lotzstraße",8.568455,50.102133,""
"3001997","Frankfurt (Main) Nied Bahnhof/Friedhof",8.571233,50.103338,""
"3001967","Frankfurt (Main) Heinrich-Plett-Straße",8.685045,50.168402,""
"3002799","Frankfurt (Main) Louisa Bahnhof",8.670204,50.083688,""
"3001996","Frankfurt (Main) Waldspielpark Louisa",8.667031,50.087481,""
"3001970","Frankfurt (Main) Holbein-Schule",8.680074,50.099293,""
"3002899","Frankfurt (Main) Stadion",8.63297,50.068082,""
"3001971","Frankfurt (Main) Achenbachstraße",8.676928,50.097477,""
"3002937","Frankfurt (Main) Gateway Gardens Nord",8.596546,50.058005,""
"3002938","Frankfurt (Main) Kreisel Unterschweinstiege",8.588618,50.057088,""
"3002933","Frankfurt (Main) Flughafen Terminal 2",8.588465,50.052567,""
"3002934","Frankfurt (Main) Hugo-Eckener-Ring",8.585795,50.053133,""
"3002990","Frankfurt (Main) Unterschweinstiege",8.584303,50.058823,""
"3002931","Frankfurt (Main) Flughafen Tor 3",8.579062,50.053223,""
"3002930","Frankfurt (Main) Flughafen Regionalbahnhof",8.57143,50.05121,""
"3001972","Frankfurt (Main) Burnitzstraße",8.672532,50.096578,""
"3002932","Frankfurt (Main) Flughafen Terminal 1",8.570576,50.05085,""
"3002935","Frankfurt (Main) Flughafen Lufthansabasis",8.561389,50.049286,""
"3002595","Frankfurt (Main) Carl-Benz-Straße Süd",8.761166,50.116399,""
"3001981","Frankfurt (Main) Industriepark Höchst Tor H831",8.552292,50.090519,""
"3001982","Frankfurt (Main) IP Höchst Tor K801",8.551133,50.084712,""
"3001975","Frankfurt (Main) Dornbusch/Am Grünhof",8.671255,50.136176,""
"3002936","Frankfurt (Main) Flughafen Tor 23",8.550845,50.046769,""
"3001980","Frankfurt (Main) Industriepark Höchst Tor Süd",8.543294,50.08233,""
"3002398","Frankfurt (Main) Nieder-Eschbach",8.670411,50.199253,""
"3002099","Frankfurt (Main) Sindlingen Bahnhof",8.511553,50.08713,""
"3002096","Frankfurt (Main) Friedhof Sindlingen",8.510205,50.079858,""
"3001976","Frankfurt (Main) Hohe Straße",8.76139,50.158963,""
"3002594","Frankfurt (Main) Dieburger Straße",8.76335,50.114889,""
"3002599","Frankfurt (Main) Mainkur Bahnhof",8.766856,50.132868,""
"3001979","Frankfurt (Main) Rebstockbad",8.618992,50.113721,""
"3002590","Frankfurt (Main) Roter Graben",8.77598,50.138045,""
"3001978","Frankfurt (Main) Zanderstraße",8.65894,50.099832,""
"3002399","Frankfurt (Main) Niederursel",8.622777,50.169193,""
"3001977","Frankfurt (Main) Camberger Straße",8.65067,50.098673,""
"3001985","Frankfurt (Main) Riedberg",8.635541,50.178919,""
"3001974","Frankfurt (Main) Kuhwaldstraße",8.641133,50.116858,""
"3001964","Frankfurt (Main) Am Bonifatiusbrunnen",8.641798,50.175836,""
"3000145","Frankfurt (Main) Lindenhag",8.600924,50.106457,""
"3007010","Frankfurt (Main) Hauptbahnhof tief",8.662509,50.107167,""
"3007011","Frankfurt (Main) Hauptbahnhof Südseite",8.664055,50.10572,""
"3011073","Frankfurt (Main) Zeilsheim Bahnhof",8.506807,50.09051,""
"3060799","Frankfurt am Main Rangenbergstraße/Riedschule",8.759628,50.150513,""
"3060795","Frankfurt (Main) Lokalbahnhof/Darmst. Ldstr.",8.690861,50.102214,""
"3060796","Frankfurt (Main) Lokalbahnhof/Hedderichstraße",8.690708,50.101711,""
"3060775","Frankfurt (Main) Börneplatz/Stoltzestraße",8.689252,50.112624,""
"9900281","P+R Ffm Preungesheim",8.688982,50.158972,""
"3060720","Frankfurt (Main) Großer Hasenpfad Mitte",8.686241,50.094681,""
"3065053","Frankfurt (Main) Schulstraße",8.685917,50.105657,""
"3060793","Frankfurt (Main) Unterweg",8.684416,50.119195,""
"3060814","Frankfurt (Main) Im Niederfeld",8.68402,50.183818,""
"3065055","Frankfurt (Main) Cronstettenstraße",8.683903,50.129344,""
"3060792","Frankfurt (Main) Peterskirche",8.683706,50.11791,""
"3065044","Frankfurt (Main) Schwabstraße",8.682636,50.144554,""
"3060771","Frankfurt (Main) Neue Kräme",8.681135,50.111608,""
"3065052","Frankfurt (Main) Freßgass",8.672981,50.11515,""
"3060724","Frankfurt (Main) Stresemann-/Kennedyallee",8.671606,50.098331,""
"3065051","Frankfurt (Main) Bremer Straße",8.671202,50.126737,""
"9900099","P+R Ffm Nieder-Eschbach",8.670563,50.199289,""
"3060770","Frankfurt (Main) Elbestraße",8.669332,50.10634,""
"3060766","Frankfurt (Main) Weserstraße",8.668837,50.109918,""
"3060725","Frankfurt (Main) Eschenbachstraße",8.667777,50.095158,""
"3060758","Frankfurt (Main) Wöhlerstraße",8.665871,50.117406,""
"701099 ","Frankfurt (Main) Hauptbahnhof tief",8.664361,50.107275,""
"3060768","Frankfurt (Main) Francois-Mitterrand-Platz",8.66428,50.11088,""
"3060767","Frankfurt (Main) Hauptbahnhof/Karlstraße",8.663651,50.108723,""
"3060816","Frankfurt (Main) Behördenzentrum Gutleut",8.661017,50.104695,""
"9900098","P+R Ffm Kalbach",8.657142,50.183216,""
"3060823","Frankfurt (Main) Platz der Einheit",8.653376,50.11079,""
"3060764","Frankfurt (Main) Den Haager Straße",8.650778,50.108821,""
"3060776","Frankfurt (Main) Xaver-Fendt-Straße",8.650589,50.191235,""
"9900283","P+R Ffm Heddernheim",8.65041,50.161291,""
"3065054","Frankfurt (Main) Am Hang",8.647677,50.186812,""
"3060802","Frankfurt (Main) Ginnheimer Waldgasse",8.647605,50.141452,""
"3060812","Frankfurt (Main) Karl-Ritscher-Anlage",8.646679,50.19314,""
"3060763","Frankfurt (Main) Dubliner Straße",8.645412,50.10857,""
"3011501","Frankfurt (Main) Messe",8.643434,50.11132,""
"3060811","Frankfurt (Main) Stephensonstraße",8.642184,50.108471,""
"3065056","Frankfurt (Main) Kaltmühlstraße",8.642085,50.160671,""
"3060813","Frankfurt (Main) Josef-Bautz-Straße",8.641735,50.195576,""
"9900072","P+R Ffm Westbahnhof",8.638589,50.120067,""
"3060778","Frankfurt (Main) Käthe-Kruse-Straße",8.637267,50.178407,""
"3060810","Frankfurt (Main) Europagarten/Messe West",8.636737,50.10821,""
"9900002","P+R Ffm Breitenbach-Brücke",8.633366,50.126386,""
"3060809","Frankfurt (Main) Römischer Ring",8.63315,50.108821,""
"3060722","Frankfurt (Main) Kasernenstraße",8.6328,50.123132,""
"3060818","Frankfurt (Main) Ludwig-Fulda-Weg",8.631047,50.177373,""
"3060712","Frankfurt (Main) Annette-Kolb-Weg",8.628548,50.178569,""
"3060808","Frankfurt (Main) Maastrichter Ring",8.62844,50.108462,""
"3060765","Frankfurt (Main) Uni Campus Riedberg",8.628341,50.175494,""
"3060723","Frankfurt (Main) Birkenweg",8.627811,50.12155,""
"3060769","Frankfurt (Main) Paul-Apel-Straße",8.624359,50.1838,""
"3060807","Frankfurt (Main) Europaviertel West",8.623864,50.107644,""
"3060819","Frankfurt (Main) Lucy-Hillebrand-Straße",8.623658,50.174416,""
"3060822","Frankfurt (Main) Hans-Leistikow-Straße",8.619559,50.180205,""
"3060821","Frankfurt (Main) Ernst-Balser-Straße",8.617509,50.177661,""
"3060820","Frankfurt (Main) Hans-Poelzig-Straße",8.617248,50.176223,""
"3060825","Ffm Gymnasium Westhausen",8.610812,50.139484,""
"9900079","P+R Ffm Praunheim Heerstraße",8.606174,50.144931,""
"3060801","Frankfurt (Main) Kirschbaumweg",8.605212,50.126251,""
"3060828","Frankfurt (Main) Graf-Vollrath-Weg",8.595261,50.129119,""
"3060827","Frankfurt (Main) Eschborner Landstraße West",8.591494,50.130189,""
"3060710","Frankfurt (Main) Leonhard-Heißwolf-Straße",8.585013,50.128688,""
"9900073","P+R Eschborn Süd",8.577102,50.132877,""
"3060777","Frankfurt (Main) Wilhelm-Fay-Straße Nord",8.576177,50.132265,""
"9900018","P+R Ffm Höchst 2",8.543438,50.102133,""
"3060794","Frankfurt (Main) Brüningstraße",8.541892,50.09709,""
"9900017","P+R Ffm Höchst 1",8.541227,50.101891,""
"3060715","Frankfurt (Main) Silostraße Mitte",8.524929,50.099464,""
"3060762","Frankfurt (Main) Märchensiedlung",8.504074,50.09425,""
"3060761","Frankfurt (Main) Bechtenwaldstraße",8.503876,50.099652,""
"3060760","Frankfurt (Main) Pferdskopfweg",8.502834,50.100704,""
"3060759","Frankfurt (Main) Siedlung Taunusblick",8.497827,50.100974,""
"3060787","Frankfurt (Main) Waldfriedhof Oberrad",8.732112,50.093738,""
"3060804","Frankfurt (Main) Schnappbornweg",8.705828,50.093549,""
"3060800","Frankfurt (Main) Südfriedhof Ost",8.696425,50.09087,""
"9900328","P+R Neu-Isenburg Stadtgrenze",8.694007,50.060217,""
"3060719","Frankfurt (Main) Tucholskystraße",8.685881,50.09203,""
"3060721","Frankfurt (Main) Großer Hasenpfad Süd",8.684667,50.091167,""
"3060718","Frankfurt (Main) Niersteiner Straße",8.683544,50.092515,""
"9900000","P+R Ffm Stadion",8.63449,50.067804,""
"3060803","Frankfurt (Main) Gateway Gardens Ost",8.602003,50.056594,""
"3060798","Frankfurt (Main) Gateway Gardens Mitte",8.595917,50.054985,""
"3060806","Frankfurt (Main) Flughafen Tor 33",8.594371,50.037537,""
"3060805","Frankfurt (Main) Flughafen Tor 2",8.593607,50.052261,""
"3060797","Frankfurt (Main) Thea-Rasche-Straße",8.591135,50.055228,""
"3060754","Frankfurt (Main) Flughafen Gebäude 681",8.590631,50.029519,""
"3060817","Frankfurt (Main) Flughafen Tor 32",8.588168,50.026534,""
"3062988","Frankfurt (Main) Flughafen Geb. 571",8.586847,50.026112,""
"3060755","Frankfurt (Main) Flughafen Geb. 664",8.584896,50.027118,""
"3062989","Frankfurt (Main) Flughafen Geb. 587",8.582631,50.024476,""
"3062990","Frankfurt (Main) Flughafen Geb. 556",8.576662,50.02301,""
"3062991","Frankfurt (Main) Flughafen Geb. 555",8.571835,50.023091,""
"3011511","Frankfurt (Main) Flughafen Fernbahnhof",8.570226,50.053052,""
"3062993","Frankfurt (Main) Flughafen Geb. 543",8.56654,50.026166,""
"3062994","Frankfurt (Main) Flughafen Geb. 536",8.562153,50.026588,""
"3062995","Frankfurt (Main) Flughafen Geb. 534",8.560221,50.026166,""
"3062996","Frankfurt (Main) Flughafen Geb. 532",8.55587,50.026067,""
"3062997","Frankfurt (Main) Flughafen Geb. 527",8.552229,50.025581,""
"3062998","Frankfurt (Main) Flughafen Geb. 520",8.550099,50.025393,""
"3016011","Frankfurt (Main) Flughafen Parkhaus P53",8.545541,50.045456,""
"9900019","P+R Ffm Sindlingen",8.510762,50.086618,""
"3006082","Wiesbaden-Nordenstadt Stolberger Straße",8.344165,50.060621,""
"3006005","Wiesbaden-Erbenheim Am Hochfeld",8.291057,50.057916,""
"3006006","Wiesbaden-Erbenheim Im Hahn",8.282957,50.060702,""
"3006903","Wiesbaden-Mainz-Kastel Bahnhof",8.282571,50.006866,""
"3006008","Wiesbaden Abraham-Lincoln-Straße",8.268395,50.066707,""
"3006009","Wiesbaden Berliner Straße",8.256925,50.072505,""
"3006906","Wiesbaden-Biebrich Bahnhof Wiesbaden Ost",8.256448,50.041726,""
"3006010","Wiesbaden Langenbeckplatz/St.-Josefs-Hospital",8.253743,50.074743,""
"3006907","Wiesbaden Hauptbahnhof",8.244636,50.069485,""
"3006022","Wiesbaden Rheinstr./Rh-M. CongressCenter",8.242506,50.076955,""
"3011129","Wiesbaden-Auringen-Medenbach Bahnhof",8.331023,50.113244,""
"3011131","Wiesbaden-Biebrich Bahnhof",8.237751,50.048081,""
"3011154","Wiesbaden-Schierstein Bahnhof",8.195394,50.04765,""
"3025227","Wiesbaden-Medenbach An den drei Weiden",8.344848,50.102772,""
"3025651","Wiesbaden-Medenbach Wildsachsener Straße",8.343266,50.103347,""
"3025432","Wiesbaden-Medenbach Neufeldstraße",8.339374,50.104758,""
"3025494","Wiesbaden-Medenbach Rossertstraße",8.338511,50.112138,""
"3025433","Wiesbaden-Medenbach Am Sportfeld",8.338511,50.11017,""
"3025390","Wiesbaden-Medenbach Kirschenbergstraße",8.33834,50.107293,""
"3025431","Wiesbaden-Medenbach Am Wald",8.337504,50.115249,""
"3025440","Wiesbaden-Medenbach Münzenbergstraße",8.336659,50.108075,""
"3025531","Wiesbaden-Auringen Tannenring",8.335041,50.125775,""
"3025545","Wiesbaden-Auringen Überm Wald",8.334331,50.122287,""
"3025322","Wiesbaden-Auringen Ginsterweg",8.332209,50.120391,""
"3025649","Wiesbaden-Auringen Auringer Mühle",8.327032,50.115339,""
"3025211","Wiesbaden-Auringen Alt Auringen",8.325854,50.123429,""
"3025650","Wiesbaden-Auringen August-Ruf-Straße",8.325629,50.122602,""
"3025224","Wiesbaden-Auringen Am Weinberg",8.321386,50.125308,""
"3026441","Wiesbaden-Kloppenheim Hockenberger Mühle",8.3162,50.105073,""
"3025443","Wiesbaden-Naurod Schule",8.309026,50.135438,""
"3025579","Wiesbaden-Naurod Wilhelm-Kempf-Haus",8.308433,50.144814,""
"3025393","Wiesbaden-Kloppenheim Stiegelstraße",8.306545,50.094457,""
"3025506","Wiesbaden-Naurod Schillerstraße",8.304675,50.138414,""
"3025418","Wiesbaden-Naurod Laurentiusstraße",8.304235,50.133479,""
"3025289","Wiesbaden-Kloppenheim Ernst-Göbel-Schule",8.303597,50.096533,""
"3025442","Wiesbaden-Naurod Fondetter Straße",8.301466,50.135205,""
"3026439","Wiesbaden-Naurod Feldbergblick",8.298581,50.12671,""
"3025245","Wiesbaden-Naurod Bernsteinstraße",8.297817,50.133074,""
"3025350","Wiesbaden-Heßloch",8.296279,50.110925,""
"3025389","Wiesbaden-Naurod Erbsenacker",8.294086,50.130207,""
"3025215","Wiesbaden-Rambach Am Burgacker",8.281528,50.110089,""
"3025380","Wiesbaden-Bierstadt Kappenbergweg",8.278373,50.095436,""
"3025475","Wiesbaden-Rambach Kitzelberg",8.276207,50.119582,""
"3025544","Wiesbaden-Rambach Trompeterstraße",8.273483,50.117056,""
"3025464","Wiesbaden-Rambach Ostpreußenstraße",8.272314,50.112992,""
"3025454","Wiesbaden-Rambach Niedernhausener Straße",8.27031,50.115455,""
"3025309","Wiesbaden-Sonnenberg Friedhof",8.269177,50.097675,""
"3025523","Wiesbaden-Sonnenberg Steinbruch",8.268629,50.106367,""
"3025585","Wiesbaden-Sonnenberg Württembergstraße",8.268602,50.095194,""
"3025329","Wiesbaden-Rambach Goldsteintal",8.268449,50.109019,""
"3025589","Wiesbaden-Sonnenberg Zweigstraße",8.267172,50.099239,""
"3025438","Wiesbaden-Sonnenberg Mühlwiese",8.266732,50.104507,""
"3025509","Wiesbaden-Sonnenberg Schlagstraße",8.26622,50.104794,""
"3025421","Wiesbaden-Sonnenberg Liebenaustraße",8.265096,50.096983,""
"3025517","Wiesbaden-Sonnenberg Hofgartenplatz",8.264422,50.101019,""
"3025530","Wiesbaden-Sonnenberg Talheim",8.262201,50.0987,""
"3025244","Wiesbaden-Sonnenberg Bergstraße",8.260206,50.097082,""
"3025534","Wiesbaden-Sonnenberg Tennelbachstraße",8.257455,50.094322,""
"3025674","Wiesbaden Abeggstraße",8.250039,50.094502,""
"3025280","Wiesbaden Eigenheim",8.249149,50.097711,""
"3025542","Wiesbaden Tränkweg",8.247324,50.098295,""
"3025363","Wiesbaden Humperdinckstraße",8.246362,50.094547,""
"3025472","Wiesbaden-Sonnenberg Prinz-Nikolas-Straße",8.24621,50.100632,""
"3025335","Wiesbaden Händelstraße",8.242937,50.098232,""
"3025239","Wiesbaden-Sonnenberg Bahnholz",8.242794,50.105846,""
"3025306","Wiesbaden Freseniusstraße",8.239953,50.09612,""
"3025499","Wiesbaden Sanitas",8.230793,50.094843,""
"3025447","Wiesbaden Nerotal",8.226262,50.095185,""
"3025457","Wiesbaden Nordfriedhof",8.2205,50.09701,""
"3018170","Wiesbaden Unter den Eichen",8.219089,50.096129,""
"3025252","Wiesbaden Bornhofenweg",8.218352,50.093818,""
"3025205","Wiesbaden Adamstal",8.202333,50.104444,""
"3018267","Wiesbaden-Klarenthal Alt-Klarenthal",8.196976,50.094367,""
"3025540","Wiesbaden-Klarenthal Tierpark Fasanerie",8.191429,50.101837,""
"3025527","Wiesbaden-Klarenthal Stollenweg",8.186476,50.098915,""
"3018262","Wiesbaden-Klarenthal Eishaus",8.18573,50.096848,""
"3018261","Wiesbaden-Dotzheim Chausseehaus",8.169397,50.097153,""
"3018166","Wiesbaden Eiserne Hand",8.168057,50.12315,""
"3018260","Wiesbaden-Dotzheim Joseph-Baum-Haus",8.156479,50.094843,""
"3018259","Wiesbaden Knusperhäuschen",8.14207,50.09407,""
"3025216","Wiesbaden-Breckenheim Alte Dorfstraße",8.373065,50.077575,""
"3025253","Wiesbaden-Breckenheim Erlenstraße",8.371627,50.080829,""
"3025623","Wiesbaden-Breckenheim Friedhof",8.37018,50.075813,""
"3025222","Wiesbaden-Breckenheim Am Rathaus",8.369586,50.077782,""
"3025279","Wiesbaden-Delkenheim Eifelstraße",8.368013,50.047218,""
"3025653","Wiesbaden-Breckenheim Rothenbergstraße",8.367411,50.081719,""
"3025489","Wiesbaden-Breckenheim Rieslingstraße",8.367366,50.080353,""
"3025480","Wiesbaden-Delkenheim Rathausplatz",8.361604,50.047416,""
"3025270","Wiesbaden-Delkenheim Freiburger Straße",8.361523,50.039883,""
"3025458","Wiesbaden-Delkenheim Nürnberger Straße",8.361316,50.041996,""
"3025533","Wiesbaden-Breckenheim Taunushof",8.360058,50.080433,""
"3025437","Wiesbaden-Delkenheim Mühlberg",8.359968,50.045573,""
"3025493","Wiesbaden-Delkenheim Rosenheimer Straße",8.357523,50.038004,""
"3025271","Wiesbaden-Delkenheim Gewerbegebiet",8.355851,50.04205,""
"3025654","Wiesbaden-Delkenheim Berta-Cramer-Ring",8.355491,50.045349,""
"3025430","Wiesbaden-Delkenheim Max-Planck-Ring",8.354323,50.043955,""
"3025296","Wiesbaden-Breckenheim Finkenhof",8.352795,50.081521,""
"3025667","Wiesbaden-Nordenstadt Lindenweg",8.352669,50.063776,""
"3025670","Wiesbaden-Delkenheim EPHY MESS",8.352219,50.046274,""
"3025558","Wiesbaden-Nordenstadt Wallauer Weg",8.347761,50.063471,""
"3025312","Wiesbaden-Nordenstadt Friedhofstraße",8.342223,50.066078,""
"3025456","Wiesbaden-Nordenstadt Horchheimer Straße",8.34092,50.06108,""
"3025376","Wiesbaden-Nordenstadt Junkernstraße",8.339284,50.066186,""
"3025287","Wiesbaden-Nordenstadt Erfurter Straße",8.338421,50.06792,""
"3022583","Wiesbaden-Nordenstadt Otto-von-Guericke-Ring",8.337747,50.057124,""
"3025278","Wiesbaden-Nordenstadt Eichendorffweg",8.337315,50.063156,""
"3025334","Wiesbaden-Nordenstadt Habichtweg",8.336147,50.060891,""
"3022582","Wiesbaden-Nordenstadt Siemensstraße",8.334735,50.058904,""
"3025571","Wiesbaden-Nordenstadt Westring",8.33434,50.068316,""
"3025614","Wiesbaden-Nordenstadt Daimlerring",8.33363,50.057259,""
"3025680","Wiesbaden-Igstadt Weingartenstraße",8.329558,50.078483,""
"3025621","Wiesbaden-Nordenstadt Borsigstraße",8.329207,50.057619,""
"3025365","Wiesbaden-Igstadt Sankt-Gallus-Straße",8.329054,50.081818,""
"3025353","Wiesbaden-Igstadt Hinterbergstraße",8.325908,50.08109,""
"3011324","Wiesbaden-Igstadt Bahnhof",8.325638,50.082573,""
"3025225","Wiesbaden-Igstadt Am Wiesenhang",8.324667,50.080676,""
"3025217","Wiesbaden-Nordenstadt Am Erbenheimer Feld",8.322627,50.06294,""
"3025629","Wiesbaden-Delkenheim Domäne Mechtildshausen",8.322465,50.038697,""
"3025302","Wiesbaden-Erbenheim Flugplatz",8.320002,50.040953,""
"3025236","Wiesbaden-Erbenheim Aussiedlerhöfe",8.318024,50.063776,""
"3018022","Wiesbaden-Mainz-Kostheim Steinern-Kreuz-Weg",8.31122,50.008718,""
"3025463","Wiesbaden-Igstadt Oranienhof",8.310968,50.082016,""
"3029047","Wiesbaden-Mainz-Kostheim Mainbrücke",8.308199,50.000573,""
"3025460","Wiesbaden-Erbenheim Oberfeld",8.30739,50.056001,""
"3025644","Wiesbaden-Erbenheim Rennbahnstraße",8.307049,50.051947,""
"3025402","Wiesbaden-Mainz-Kostheim Winterstraße",8.305826,50.00158,""
"3025559","Wiesbaden-Erbenheim Wandersmannstraße",8.305413,50.055039,""
"3025241","Wiesbaden-Erbenheim Barbarossastraße",8.304585,50.053241,""
"3026446","Wiesbaden-Mainz-Kostheim Sampelweg",8.304298,50.008034,""
"3025283","Wiesbaden-Erbenheim Emil-Krag-Straße",8.304298,50.059381,""
"3025310","Wiesbaden-Erbenheim Friedhof",8.302644,50.048315,""
"3025382","Wiesbaden-Erbenheim Karl-Drebert-Straße",8.302491,50.061565,""
"3025315","Wiesbaden-Kloppenheim Gartenfeld",8.30197,50.092686,""
"3025259","Wiesbaden-Erbenheim Buschungstraße",8.30197,50.060064,""
"3026443","Wiesbaden-Mainz-Kastel Römerstraße",8.301646,50.01777,""
"3018092","Wiesbaden-Mainz-Kostheim Luisenstraße",8.301511,50.000951,""
"3025551","Wiesbaden-Mainz-Kostheim Viktoriastraße",8.30125,50.003027,""
"3025337","Wiesbaden-Mainz-Kostheim Hallgarter Straße",8.301188,50.006057,""
"3025984","Wiesbaden-Mainz-Kostheim Sankt-Veiter-Platz",8.299596,50.008924,""
"3025285","Wiesbaden-Erbenheim Egerstraße",8.299039,50.054967,""
"3026444","Wiesbaden-Mainz-Kastel Ratsherrenweg",8.298653,50.014372,""
"3025548","Wiesbaden-Mainz-Kostheim Uthmannstraße",8.298365,50.011414,""
"3025657","Wiesbaden-Bierstadt Hof Erlenblick",8.29823,50.081737,""
"3025303","Wiesbaden-Mainz-Kastel Fort Biehler",8.29805,50.038786,""
"3026445","Wiesbaden-Mainz-Kastel Krautgärten",8.297286,50.018273,""
"3025354","Wiesbaden-Erbenheim Hermann-Ehlers-Schule",8.295992,50.060954,""
"3025562","Wiesbaden-Erbenheim Weglache",8.295974,50.058257,""
"3026449","Wiesbaden-Mainz-Kostheim Hallenbad",8.295965,50.009329,""
"3029049","Wiesbaden-Mainz-Kostheim Rampe",8.295911,50.002686,""
"3011325","Wiesbaden-Erbenheim Bahnhof",8.295282,50.054455,""
"3025524","Wiesbaden-Mainz-Kastel Steinern Straße/WLeuSch",8.294841,50.012799,""
"3018021","Wiesbaden-Mainz-Kostheim Linzer Straße",8.294679,50.007657,""
"3025403","Wiesbaden-Erbenheim Kreuzberger Ring",8.294652,50.056585,""
"3025366","Wiesbaden-Bierstadt Igstadter Straße",8.294311,50.08224,""
"3025284","Wiesbaden-Mainz-Kastel Castellumstraße",8.294239,50.016026,""
"3025455","Wiesbaden-Erbenheim Nietzerfeld",8.293789,50.066419,""
"3025240","Wiesbaden-Mainz-Kastel Bahnübergang",8.292917,50.028683,""
"3025293","Wiesbaden-Bierstadt Fasanenhof",8.291668,50.070914,""
"3025398","Wiesbaden-Erbenheim Köpenicker Straße",8.291497,50.061664,""
"3025323","Wiesbaden-Mainz-Kastel Glacisweg",8.291272,50.010965,""
"3025950","Wiesbaden-Mainz-Kostheim Klagenfurter Straße",8.290841,50.00478,""
"3025669","Wiesbaden-Mainz-Kastel Ernst-Galonske-Straße",8.290697,50.026345,""
"3025518","Wiesbaden-Erbenheim Spandauer Straße",8.290401,50.059516,""
"3025495","Wiesbaden-Bierstadt Rostocker Straße",8.290194,50.087832,""
"3025357","Wiesbaden-Bierstadt Hof Niederfeld",8.289654,50.076253,""
"3025399","Wiesbaden-Bierstadt Köpfchenweg",8.289645,50.082096,""
"3029050","Wiesbaden-Mainz-Kostheim Hochheimer Straße",8.288818,50.006686,""
"3025367","Wiesbaden-Erbenheim Im Herzen",8.288585,50.05885,""
"3025223","Wiesbaden-Bierstadt Am Speiergarten",8.288009,50.08464,""
"3025465","Wiesbaden-Mainz-Kastel Otto-Suhr-Ring",8.287866,50.019666,""
"3025327","Wiesbaden-Bierstadt Goldackerweg",8.287713,50.079058,""
"3025467","Wiesbaden-Mainz-Kastel Paulusplatz",8.287668,50.00807,""
"3025541","Wiesbaden-Bierstadt Töpferstraße",8.286994,50.087121,""
"3025248","Wiesbaden-Bierstadt Venatorstraße",8.286427,50.082915,""
"3025565","Wiesbaden-Bierstadt Weimarer Straße",8.28631,50.090447,""
"3025275","Wiesbaden-Bierstadt Dresdener Ring",8.285133,50.088092,""
"3025420","Wiesbaden-Bierstadt Leipziger Straße",8.283883,50.086483,""
"3025583","Wiesbaden-Bierstadt Wolfsfeld",8.283757,50.090546,""
"3025492","Wiesbaden-Mainz-Kastel Roonstraße",8.283605,50.010246,""
"9900029","P+R Mainz-Kastel 3",8.283587,50.006704,""
"9900027","P+R Mainz-Kastel 1",8.28356,50.006012,""
"3025668","Wiesbaden-Mainz-Kastel Georg-Beatzel-Straße",8.283398,50.028296,""
"3025311","Wiesbaden-Mainz-Kastel Friedhof",8.28338,50.014893,""
"9900028","P+R Mainz-Kastel 2",8.28311,50.006308,""
"3025424","Wiesbaden-Mainz-Kastel Ludwigsplatz",8.282005,50.012097,""
"3025474","Wiesbaden-Bierstadt Raiffeisenstraße",8.281798,50.085827,""
"3025471","Wiesbaden-Bierstadt Poststraße",8.281627,50.083373,""
"3025606","Wiesbaden-Mainz-Kastel Gustav-Stresemann-Schule",8.281393,50.012745,""
"3025529","Wiesbaden Südfriedhof",8.267811,50.060738,""
"3025560","Wiesbaden-Bierstadt Wartestraße",8.266462,50.084479,""
"3025436","Wiesbaden-Mainz-Kastel Mudra Kaserne",8.265995,50.026426,""
"3025201","Wiesbaden A.-Schlüter-Straße",8.26577,50.064136,""
"3025412","Wiesbaden-Sonnenberg Kurkliniken",8.265725,50.092704,""
"3025510","Wiesbaden-Sonnenberg Schleiermacherstraße",8.263891,50.090627,""
"3025890","Wiesbaden Friedenstraße",8.263622,50.068145,""
"3025639","Wiesbaden-Mainz-Amöneburg Unterer Zwerchweg",8.262876,50.03858,""
"3025638","Wiesbaden-Mainz-Amöneburg Entsorgungszentrum ELW",8.262633,50.042733,""
"3025226","Wiesbaden-Mainz-Amöneburg Dyckerhoffstraße",8.262489,50.031245,""
"3025537","Wiesbaden Thermalbad",8.261734,50.088722,""
"3025406","Wiesbaden Kriemhildenstraße",8.260682,50.058931,""
"3025351","Wiesbaden Hildastraße",8.259873,50.084694,""
"3025257","Wiesbaden Brunhildenstraße",8.259711,50.063453,""
"3025295","Wiesbaden Fichtestraße/Handwerkskammer",8.259612,50.083013,""
"3025618","Wiesbaden Hasengartenstraße",8.25919,50.06019,""
"9900359","P+R Wiesbaden, Moltkering",8.258444,50.078456,""
"9900358","P+R Wiesbaden, Berliner Straße Stadion",8.258237,50.071085,""
"3025338","Wiesbaden Hans-Bredow-Straße",8.257851,50.076478,""
"3025646","Wiesbaden-Biebrich Ferdinand-Knettenbrech-Weg",8.257752,50.043299,""
"3025228","Wiesbaden An der Dietenmühle",8.257203,50.090717,""
"3025332","Wiesbaden Gustav-Mahler-Straße",8.257104,50.087733,""
"3018268","Wiesbaden Berufsschulzentrum",8.256349,50.068082,""
"3025214","Wiesbaden Alwinenstraße",8.255585,50.082168,""
"3025452","Wiesbaden-Mainz-Amöneburg Niederfeldstraße",8.255217,50.029393,""
"3025291","Wiesbaden Freizeitbad/Velvets Theater",8.255037,50.058086,""
"3025673","Wiesbaden Joh.-Sebastian-Bach-Str.",8.254489,50.090636,""
"3025563","Wiesbaden Weidenbornstraße/JUVZ",8.252538,50.062725,""
"3025263","Wiesbaden-Mainz-Amöneburg Chemie-Werke-Albert",8.251504,50.031298,""
"3025387","Wiesbaden-Biebrich Kasteler Straße",8.251306,50.043632,""
"3025520","Wiesbaden Statistisches Bundesamt",8.251019,50.072029,""
"3025419","Wiesbaden Leberberg",8.250785,50.085279,""
"3025567","Wiesbaden Welfenstraße",8.250183,50.06632,""
"3025672","Wiesbaden R.-Schumann-Schule",8.249446,50.090717,""
"3025251","Wiesbaden Blumenstraße",8.249365,50.080604,""
"3025655","Wiesbaden Schlachthof",8.248538,50.066536,""
"3025362","Wiesbaden Humboldtstraße",8.248502,50.078609,""
"3025308","Wiesbaden-Biebrich Friedhof",8.248025,50.04729,""
"3025258","Wiesbaden-Biebrich Bunsenstraße",8.247855,50.042247,""
"3025603","Wiesbaden-Biebrich Rudolf-Vogt-Straße",8.247567,50.055866,""
"3025602","Wiesbaden-Biebrich Varusstraße",8.246614,50.058104,""
"3025659","Wiesbaden Bierstadter Straße",8.246587,50.079723,""
"3025316","Wiesbaden Gartenfeldstraße P+R",8.24647,50.069359,""
"3018327","Wiesbaden-Biebrich Kalle",8.246048,50.033555,""
"3025601","Wiesbaden-Biebrich Am Kupferberg",8.245859,50.059893,""
"3025662","Wiesbaden Kleine Wilhelmstraße",8.245814,50.079984,""
"9900031","P+R Wiesbaden Hauptbahnhof 1",8.245733,50.069871,""
"9900032","P+R Wiesbaden Hauptbahnhof 2",8.245697,50.070743,""
"3025671","Wiesbaden-Biebrich Am Rheinbahnhof",8.245436,50.037159,""
"3025409","Wiesbaden Kureck",8.24523,50.085962,""
"9900033","P+R Wiesbaden Hauptbahnhof 3",8.245068,50.070536,""
"3025313","Wiesbaden Friedrichstraße",8.244888,50.081018,""
"3025411","Wiesbaden Kurhaus/Theater",8.244618,50.083742,""
"690747 ","Wiesbaden Hauptbahnhof",8.244565,50.070959,""
"3025539","Wiesbaden Thomaestraße",8.244547,50.091077,""
"3025581","Wiesbaden Wilhelmstraße",8.244538,50.079364,""
"3025449","Wiesbaden Neuberg",8.244412,50.089872,""
"3025416","Wiesbaden-Biebrich Landesdenkmal",8.243594,50.055021,""
"3025622","Wiesbaden Dernsches Gelände",8.243441,50.080586,""
"3025397","Wiesbaden Kochbrunnen",8.243342,50.086564,""
"690750 ","Wiesbaden Hauptbahnhof",8.243306,50.071291,""
"3025343","Wiesbaden-Biebrich Heppenheimer Straße",8.243045,50.040584,""
"3025407","Wiesbaden Geschwister-Stock-Platz",8.242839,50.074177,""
"3025330","Wiesbaden-Biebrich Gottfried-Kinkel-Straße",8.242821,50.058572,""
"9900193","P+R Wiesbaden Hauptbahnhof 4",8.242803,50.069844,""
"3025664","Wiesbaden Kochbrunnen/Geisberg",8.24256,50.087454,""
"690748 ","Wiesbaden Hauptbahnhof",8.242425,50.069718,""
"3025536","Wiesbaden-Biebrich Theodor-Heuss-Ring",8.242326,50.061098,""
"690749 ","Wiesbaden Hauptbahnhof",8.24229,50.071058,""
"3025410","Wiesbaden-Biebrich Glarusstraße",8.242003,50.034615,""
"3025532","Wiesbaden-Biebrich Tannhäuserstraße",8.241859,50.050706,""
"3025561","Wiesbaden Webergasse",8.241355,50.084946,""
"3025459","Wiesbaden Nußbaumstraße",8.241328,50.064559,""
"3025374","Wiesbaden Jawlenskystraße",8.241203,50.087957,""
"3025490","Wiesbaden-Biebrich Robert-Krekel-Anlage",8.241104,50.043757,""
"3025349","Wiesbaden-Biebrich Herzogsplatz",8.241077,50.047083,""
"9900344","P+R Wiesbaden Hauptbahnhof 5",8.240906,50.070186,""
"3025481","Wiesbaden-Biebrich Rathenauplatz",8.240492,50.03964,""
"3025658","Wiesbaden Luisenplatz/Rheinstraße",8.240358,50.077665,""
"3025297","Wiesbaden Fischerstraße",8.240151,50.069305,""
"3025427","Wiesbaden-Biebrich Mainstraße",8.239944,50.038472,""
"3025591","Wiesbaden Luisenplatz",8.239719,50.079067,""
"3025477","Wiesbaden-Biebrich Rathaus",8.239656,50.041573,""
"3025268","Wiesbaden Dambachtal",8.239567,50.092416,""
"3025604","Wiesbaden-Biebrich Gallierweg",8.239513,50.057556,""
"3025451","Wiesbaden Kirchgasse",8.239171,50.080335,""
"3025333","Wiesbaden Gymnasium Mosbacher Berg",8.238973,50.061799,""
"3025491","Wiesbaden Röderstraße",8.23891,50.089396,""
"3025232","Wiesbaden-Biebrich Armenruhstraße",8.238883,50.039964,""
"3025665","Wiesbaden Adelheidstraße/Kino",8.23838,50.077305,""
"3025580","Wiesbaden-Biebrich Wilhelm-Kopp-Straße",8.238281,50.036476,""
"3018175","Wiesbaden Landeshaus",8.238173,50.07246,""
"3025206","Wiesbaden Adelheidstraße",8.23776,50.075948,""
"3018185","Wiesbaden Landesbibliothek",8.237589,50.077746,""
"3025250","Wiesbaden-Biebrich Bleichwiesenstraße",8.237508,50.052037,""
"3025208","Wiesbaden-Biebrich Adolf-Todt-Straße",8.23749,50.037222,""
"3025247","Wiesbaden-Biebrich Rheinufer/Rheingaustraße",8.237175,50.036189,""
"3025620","Wiesbaden Pagenstecherstraße",8.236924,50.090582,""
"3025405","Wiesbaden Kriegerdenkmal",8.236672,50.090789,""
"3016471","Wiesbaden Schwalbacher Str./LuisenForum",8.236519,50.078941,""
"3018186","Wiesbaden Platz der Deutschen Einheit",8.236258,50.080793,""
"3025500","Wiesbaden Scheffelstraße",8.236088,50.071975,""
"3025434","Wiesbaden Michelsberg",8.235728,50.083436,""
"3025502","Wiesbaden Schenkendorfstraße",8.235557,50.070366,""
"3025892","Wiesbaden Grillparzerstraße",8.235476,50.067561,""
"3025207","Wiesbaden Adlerstraße",8.235243,50.086744,""
"3025521","Wiesbaden-Biebrich Steinberger Straße",8.235234,50.059902,""
"3025446","Wiesbaden Nerobergstraße",8.234434,50.093369,""
"3025359","Wiesbaden Holsteinstraße",8.234083,50.06481,""
"3025578","Wiesbaden Wilhelm-Hauff-Straße",8.232618,50.069044,""
"3025645","Wiesbaden-Biebrich Tannenstraße",8.232609,50.061367,""
"3025202","Wiesbaden-Biebrich Albert-Schweitzer-Allee",8.232384,50.047497,""
"3025573","Wiesbaden Wielandstraße",8.231998,50.067417,""
"3025229","Wiesbaden-Biebrich Andreas-Hofer-Straße",8.231683,50.052378,""
"3025505","Wiesbaden Schiersteiner Straße",8.231566,50.074402,""
"3025511","Wiesbaden-Biebrich Schloß",8.231314,50.037582,""
"3025466","Wiesbaden-Biebrich Paul-Ehrlich-Straße",8.230865,50.045834,""
"3025249","Wiesbaden Bismarckring",8.230775,50.078348,""
"3025660","Wiesbaden Ringkirche/Rheinstraße",8.230281,50.076874,""
"3025496","Wiesbaden Rothstraße",8.230254,50.088272,""
"3025321","Wiesbaden-Biebrich Äppelallee",8.230029,50.047524,""
"3018173","Wiesbaden Ringkirche",8.230011,50.077269,""
"3025487","Wiesbaden Riederbergstraße",8.229966,50.084182,""
"3018172","Wiesbaden Bleichstraße",8.22958,50.080541,""
"3025288","Wiesbaden-Biebrich Erich-Ollenhauer-Straße",8.229427,50.05423,""
"3025514","Wiesbaden Sedanplatz",8.229094,50.082816,""
"3025272","Wiesbaden-Biebrich Diesterwegschule",8.229049,50.063408,""
"3016470","Wiesbaden Klopstockstraße",8.228528,50.069655,""
"3025441","Wiesbaden-Biebrich Nansenstraße",8.228438,50.04285,""
"3025274","Wiesbaden Dreiweidenstraße",8.228366,50.078114,""
"3025497","Wiesbaden Ruhbergstraße",8.227809,50.091032,""
"3018323","Wiesbaden Paulinen-Klinik",8.227764,50.071004,""
"3025276","Wiesbaden-Biebrich E.-Brändström-Straße",8.226757,50.039883,""
"3025373","Wiesbaden-Biebrich Jägerstraße",8.226379,50.064927,""
"3025642","Wiesbaden-Biebrich Paul-Friedländer-Straße",8.226074,50.048684,""
"3025663","Wiesbaden Eltviller Straße/Klarenthaler Straße",8.225957,50.078078,""
"3025891","Wiesbaden Willy-Brandt-Allee/VHS",8.225903,50.069503,""
"3025482","Wiesbaden-Biebrich Regattastraße",8.225606,50.039317,""
"3025369","Wiesbaden-Biebrich Im Rosenfeld",8.2254,50.04623,""
"3025325","Wiesbaden Gneisenaustraße",8.224932,50.08046,""
"3025282","Wiesbaden Eltviller Straße",8.224905,50.0778,""
"3025515","Wiesbaden-Biebrich Sickingenstraße",8.224842,50.054005,""
"3018168","Wiesbaden Dürerplatz",8.224707,50.085782,""
"3025588","Wiesbaden Zietenring",8.224384,50.082986,""
"3025292","Wiesbaden-Biebrich Faaker Straße",8.224366,50.055911,""
"3025384","Wiesbaden Karlsbader Platz",8.223386,50.075004,""
"3018324","Wiesbaden Waldstraße",8.22335,50.067687,""
"3025428","Wiesbaden-Biebrich Malmedyer Straße",8.223314,50.048881,""
"3025584","Wiesbaden Wolkenbruch",8.223233,50.093666,""
"3025607","Wiesbaden Europaviertel",8.222883,50.071633,""
"3018171","Wiesbaden Kesselbachstraße",8.222451,50.087535,""
"3018328","Wiesbaden-Biebrich Rheinhütte",8.22237,50.040045,""
"3025570","Wiesbaden Westerwaldstraße",8.222154,50.086043,""
"3018266","Wiesbaden Elsässer Platz",8.221525,50.080317,""
"3025640","Wiesbaden Homburger Straße",8.220878,50.073314,""
"3025906","Wiesbaden Loreleiring",8.220662,50.077377,""
"3025404","Wiesbaden Kreuzkirche",8.220599,50.08971,""
"3025582","Wiesbaden-Biebrich Wörther-See-Straße",8.220437,50.055893,""
"3025243","Wiesbaden-Biebrich Friedrich-Bergius-Straße",8.220384,50.046122,""
"3025391","Wiesbaden-Biebrich Klagenfurter Ring",8.219736,50.060657,""
"3025204","Wiesbaden-Biebrich Carl-Bosch-Straße",8.219089,50.042841,""
"3025360","Wiesbaden Aarstraße",8.218631,50.088955,""
"3018265","Wiesbaden Hochschule Rhein Main",8.218604,50.081135,""
"3025381","Wiesbaden-Biebrich Karawankenstraße",8.218586,50.057898,""
"3025200","Wiesbaden Albrecht-Dürer-Schule",8.218172,50.086951,""
"9900360","P+R Wiesbaden, Kahlemühle 1",8.217444,50.062931,""
"3025336","Wiesbaden-Biebrich Hagenauer Straße",8.217354,50.048702,""
"3025666","Wiesbaden Künstlerviertel",8.217138,50.071624,""
"3025264","Wiesbaden-Biebrich Chem. Fabrik Kreussler",8.216725,50.041303,""
"3018325","Wiesbaden-Biebrich Kahle Mühle P+R",8.216698,50.062437,""
"9900361","P+R Wiesbaden, Kahlemühle 2",8.216518,50.06223,""
"3025392","Wiesbaden Kleinfeldchen",8.216078,50.076892,""
"3025569","Wiesbaden-Biebrich Äppelallee-Center",8.214226,50.046095,""
"3025358","Wiesbaden Holbeinstraße",8.214226,50.088452,""
"3018329","Wiesbaden-Biebrich Schiersteiner Brücke",8.213624,50.041969,""
"3025368","Wiesbaden-Biebrich Im Kreuzer",8.212329,50.05912,""
"3025209","Wiesbaden-Biebrich Calvinstraße",8.212284,50.061808,""
"3025294","Wiesbaden Fasaneriestraße",8.211745,50.090645,""
"3025568","Wiesbaden-Klarenthal Wellritzmühle",8.210756,50.085306,""
"3025379","Wiesbaden-Schierstein Kalle-Bad",8.209516,50.056226,""
"3025910","Wiesbaden-Dotzheim Juister Straße",8.209417,50.062149,""
"3025213","Wiesbaden-Schierstein Alte Schmelze",8.209084,50.048153,""
"3025262","Wiesbaden Carl-von-Linde-Straße",8.208671,50.076253,""
"3025230","Wiesbaden-Klarenthal Anne-Frank-Straße",8.208158,50.084398,""
"3025301","Wiesbaden-Schierstein Floßhafen/DowCorning",8.207826,50.043236,""
"3025528","Wiesbaden-Dotzheim Straßenmühle",8.207268,50.067597,""
"3025911","Wiesbaden-Dotzheim Nordstrander Straße",8.205596,50.064271,""
"3025299","Wiesbaden-Klarenthal Flachstraße",8.205408,50.080523,""
"3018264","Wiesbaden-Klarenthal Heinz-Ranly-Straße",8.205327,50.087391,""
"3025498","Wiesbaden-Schierstein Saarbrücker Allee",8.205291,50.047821,""
"3025290","Wiesbaden-Klarenthal Ernst-von-Harnack-Straße",8.205075,50.085764,""
"3025641","Wiesbaden-Schierstein Rheingaustraße",8.20476,50.043937,""
"3025400","Wiesbaden-Klarenthal Konrad-Arndt-Straße",8.20476,50.089611,""
"3025238","Wiesbaden-Dotzheim Bahnhof",8.20423,50.07584,""
"3025261","Wiesbaden-Klarenthal Carl-von-Ossietzky-Straße",8.203798,50.081962,""
"3025526","Wiesbaden-Schierstein Stielstraße",8.20334,50.050329,""
"3018263","Wiesbaden-Klarenthal Moriz-Marxheimer-Straße",8.202477,50.092587,""
"3025504","Wiesbaden-Schierstein Hafen",8.201443,50.042895,""
"3025220","Wiesbaden-Dotzheim Am Hang",8.201066,50.079831,""
"3025535","Wiesbaden-Klarenthal Theodor-Haubach-Straße",8.20103,50.084991,""
"3018384","Wiesbaden-Schierstein Zeilstraße",8.200769,50.046337,""
"3025394","Wiesbaden-Klarenthal Klosterweg",8.200634,50.086996,""
"3025331","Wiesbaden-Klarenthal Graf-von-Galen-Straße",8.199322,50.092066,""
"3025549","Wiesbaden-Dotzheim Veilchenweg",8.199088,50.064001,""
"3025277","Wiesbaden-Schierstein Eichendorff-Schule",8.199025,50.059471,""
"3025320","Wiesbaden-Klarenthal Geschwister-Scholl-Straße",8.198953,50.090052,""
"3025370","Wiesbaden-Dotzheim Im Wiesengrund",8.198729,50.070779,""
"3025675","Wiesbaden-Dotzheim Willi-Werner-Straße",8.198513,50.069583,""
"3025577","Wiesbaden-Dotzheim Wilh.-Leuschner-Straße",8.197731,50.075094,""
"3025324","Wiesbaden-Schierstein Glyco",8.197632,50.049466,""
"3025318","Wiesbaden-Klarenthal Gehrner Weg",8.197353,50.090151,""
"3025344","Wiesbaden-Schierstein Freudenberg Hermann-Löns-Str",8.197164,50.054805,""
"3025445","Wiesbaden-Dotzheim Nelkenweg",8.196877,50.063507,""
"3025345","Wiesbaden-Klarenthal Hermann-Brill-Straße",8.195681,50.09114,""
"3018330","Wiesbaden-Schierstein Reichsapfelstraße",8.195546,50.044917,""
"3025342","Wiesbaden-Dotzheim Helmholtzstraße",8.195358,50.082744,""
"3018331","Wiesbaden-Schierstein Rathaus",8.195016,50.045654,""
"3025273","Wiesbaden-Dotzheim Dotzheim-Mitte",8.194638,50.072433,""
"3025388","Wiesbaden-Dotzheim Kath. Kirche Kohlheck",8.194135,50.082052,""
"3025552","Wiesbaden-Schierstein Vogesenstraße",8.19267,50.048755,""
"3025340","Wiesbaden-Schierstein Freudenberg H.-Zille-Straße",8.192571,50.051353,""
"3025414","Wiesbaden-Dotzheim Lorenz-Werthmann-Haus",8.192337,50.082726,""
"3025677","Wiesbaden-Schierstein Klabundstraße",8.191753,50.054994,""
"3025470","Wiesbaden-Dotzheim Polizeiakademie",8.191456,50.086178,""
"3025676","Wiesbaden-Dotzheim Bert-Brecht-Straße",8.191429,50.058095,""
"3025417","Wiesbaden-Dotzheim Langendellschlag",8.191393,50.078501,""
"3025267","Wiesbaden-Dotzheim Dr.H.Schmidt-Kliniken",8.191232,50.066311,""
"9900362","P+R Wiesbaden, Kleinaustraße",8.191052,50.042544,""
"3025525","Wiesbaden-Dotzheim Stephan-Born-Straße",8.190521,50.068613,""
"3025444","Wiesbaden-Schierstein Neckarstraße",8.190072,50.045474,""
"3025401","Wiesbaden-Dotzheim Kornblumenweg",8.189263,50.06197,""
"3025564","Wiesbaden-Dotzheim Weilburger Tal",8.188957,50.073799,""
"3025628","Wiesbaden-Dotzheim Ludwig-Erhard-Straße",8.188867,50.06739,""
"3025408","Wiesbaden-Dotzheim Kuckucksweg",8.188445,50.088308,""
"3025462","Wiesbaden-Schierstein Oderstraße",8.186737,50.045699,""
"3025383","Wiesbaden-Dotzheim Karl-Legien-Straße",8.186368,50.06953,""
"3025516","Wiesbaden-Dotzheim Simeonhaus",8.18582,50.089719,""
"3025233","Wiesbaden-Dotzheim August-Bebel-Straße",8.185685,50.072002,""
"3018332","Wiesbaden-Schierstein Friedhof",8.185173,50.044638,""
"3025627","Wiesbaden-Dotzheim Hans-Böckler-Straße",8.184049,50.071444,""
"3025260","Wiesbaden-Dotzheim Sonnenblumenweg",8.183842,50.064864,""
"3025426","Wiesbaden-Dotzheim Märchenland",8.182719,50.067408,""
"3025501","Wiesbaden-Dotzheim Schelmengraben",8.182656,50.072757,""
"3025556","Wiesbaden-Dotzheim Waldfriedhof",8.182566,50.074761,""
"3025485","Wiesbaden-Dotzheim Rheinblick",8.177523,50.070159,""
"3025652","Wiesbaden-Frauenstein Kirschblütenstraße",8.170754,50.068217,""
"3025326","Wiesbaden-Frauenstein Goethestein",8.164848,50.066509,""
"3025210","Wiesbaden-Frauenstein Alfred-Delp-Straße",8.15852,50.066437,""
"3025246","Wiesbaden-Frauenstein Bgm-Schneider-Straße",8.157459,50.060073,""
"3025304","Wiesbaden-Frauenstein Burg",8.154798,50.065781,""
"3025346","Wiesbaden-Frauenstein Herrnbergstraße",8.15407,50.062626,""
"3025683","Wiesbaden-Frauenstein Bestattungswald",8.140451,50.074734,""
"2452831","Pfungstadt Bahnhof",8.60709,49.806002,""
"2452830","Pfungstadt Bahnhof",8.605733,49.805597,""
"2452801","Pfungstadt Bahnhof",8.605616,49.805939,""
"2452881","Pfungstadt Bahnhof",8.605535,49.805939,""
"3008476","Groß-Zimmern Röntgenstraße",8.818148,49.881233,""
"3008475","Groß-Zimmern Frankfurter Straße",8.820782,49.879444,""
"3008474","Groß-Zimmern Memelstraße",8.826526,49.876603,""
"3008463","Reinheim-Spachbrücken Ort",8.826616,49.842309,""
"3008465","Groß-Zimmern B.-v.-Suttner-Str",8.830131,49.878563,""
"3008464","Groß-Zimmern Reinheimer Straße",8.830392,49.869133,""
"3008460","Groß-Zimmern Friedensschule",8.83041,49.874113,""
"3008466","Dieburg Groß-Zimmerner Straße",8.831785,49.891031,""
"3008462","Reinheim Wingertstraße",8.833843,49.83101,""
"3008450","Eppertshausen Nord",8.840181,49.950512,""
"3008456","Dieburg Bahnhof",8.840792,49.90331,""
"3008451","Eppertshausen Mitte",8.843372,49.946665,""
"3008469","Dieburg Kirche",8.845844,49.899678,""
"3008452","Eppertshausen Süd",8.849314,49.943735,""
"3008468","Dieburg Hochschule Nord",8.854204,49.902339,""
"3008455","Münster Hallenbad",8.854474,49.917234,""
"3008459","Münster J.-F.-Kennedy-Schule",8.857179,49.916362,""
"3008454","Münster Zentrum",8.857197,49.921064,""
"3008453","Münster Frankfurter Straße",8.858501,49.927707,""
"3008477","Münster Schule Auf der Aue",8.862447,49.929199,""
"3008470","Münster SV Sportplatz",8.862591,49.918043,""
"3008458","Münster Friedrich-Ebert-Straße",8.865099,49.922916,""
"3008478","Münster-Altheim Feuerwehrhaus",8.891329,49.918727,""
"3008123","Groß-Umstadt-Klein-Umstadt Bahnhof",8.939664,49.895103,""
"3006621","Babenhausen Stadthalle",8.954299,49.960679,""
"3008563","Babenhausen Bahnhof",8.957553,49.957991,""
"3006622","Babenhausen Joachim-Schumann-Schule",8.957589,49.965021,""
"3008551","Messel Rathaus",8.744167,49.936795,""
"3008550","Messel Am Mörsbach",8.743852,49.940606,""
"3008564","Messel Sudetenstraße",8.743268,49.932462,""
"3004792","Erzhausen Bahnhof",8.650841,49.951151,""
"3024292","Babenhausen-Harreshausen",8.982264,49.970037,""
"3024928","Babenhausen Aschaffenburger Straße",8.970776,49.959403,""
"3015873","Babenhausen Kaserne",8.967082,49.959025,""
"3024504","Babenhausen Jürgen-Schumann-Straße",8.964034,49.973345,""
"3024929","Babenhausen Elsässer Straße",8.956645,49.971188,""
"3024958","Babenhausen Bürgermeister-Rühl-Straße",8.955998,49.960904,""
"3022546","Babenhausen Bürgermeister-Willand-Straße",8.955593,49.965192,""
"3024697","Babenhausen Continental",8.953436,49.971322,""
"3024926","Babenhausen Darmstädter Straße",8.952213,49.953955,""
"3015475","Babenhausen Ludwigstraße",8.951422,49.963978,""
"3024690","Babenhausen Frankfurter Straße",8.948465,49.969713,""
"3024882","Babenhausen Friedhof",8.947961,49.96183,""
"3024883","Babenhausen Luisenstraße",8.94397,49.963061,""
"3024986","Schaafheim-Mosbach Evangelische Kirche",9.03139,49.890608,""
"3022575","Schaafheim-Mosbach Lindenfeldschule",9.030887,49.889179,""
"3017113","Schaafheim-Mosbach Raiffeisenbank",9.029754,49.891264,""
"3017115","Schaafheim-Radheim Ost",9.021709,49.889035,""
"3024732","Groß-Umstadt Dorndiel Friedhof",9.017142,49.866724,""
"3017116","Schaafheim-Radheim Alte Schule",9.016405,49.889377,""
"3024721","Schaafheim Aueweg",9.015596,49.923095,""
"3016163","Groß-Umstadt-Dorndiel Mitte",9.014922,49.865672,""
"3024968","Schaafheim Wartturm",9.007946,49.904964,""
"3017535","Schaafheim Rathaus",9.007659,49.921324,""
"3022578","Schaafheim Lindenstraße",9.00578,49.922331,""
"3017125","Schaafheim Gasthaus Schützenhof",9.005232,49.919545,""
"3024728","Schaafheim Ärztehaus",9.004144,49.925262,""
"3017123","Schaafheim Sporthalle",9.003838,49.923635,""
"3017126","Schaafheim Langstädter Straße",9.002571,49.921378,""
"3022545","Schaafheim Heimatring",9.001852,49.927545,""
"3024729","Schaafheim Industriering",9.001834,49.930907,""
"3024594","Schaafheim Waldstraße",8.999622,49.921405,""
"3024733","Groß-Umstadt-Raibach Am alten Steinbruch",8.98408,49.868045,""
"3024847","Schaafheim-Schlierbach Rathaus",8.973617,49.911967,""
"3022576","Schaafheim-Schlierbach Neue Straße",8.971468,49.913054,""
"3016164","Groß-Umstadt-Raibach Pumpstation",8.967738,49.872288,""
"3015998","Groß-Umstadt-Heubach August-Bebel-Platz",8.96434,49.841491,""
"3015997","Groß-Umstadt-Heubach Neumühle",8.958425,49.841347,""
"3016165","Groß-Umstadt-Raibach Alte Schule",8.957975,49.871974,""
"3024861","Babenhausen Im Riemen",8.956996,49.952517,""
"3024828","Groß-Umstadt-Kleestadt Schlierbacher Straße",8.954649,49.902771,""
"3024293","Babenhausen-Langstadt Breuberger Weg",8.95251,49.92341,""
"3024827","Groß-Umstadt-Kleestadt Am Heimgesberg",8.950514,49.901989,""
"3024742","Groß-Umstadt-Klein-Umstadt Freier Platz",8.950389,49.888046,""
"3016020","Groß-Umstadt-Wiebelsbach Bei den Stockwiesen",8.947431,49.828888,""
"3024923","Babenhausen-Langstadt Bahnübergang",8.946784,49.923572,""
"3011236","Babenhausen Langstadt Bahnhof",8.945732,49.922053,""
"3016170","Groß-Umstadt-Wiebelsbach Sportplatz",8.945498,49.826147,""
"3024832","Groß-Umstadt-Klein-Umstadt Weidweg",8.944995,49.891327,""
"3015996","Groß-Umstadt-Heubach In der Schliem",8.943871,49.843703,""
"3024830","Groß-Umstadt-Klein-Umstadt Schule",8.94264,49.894321,""
"3011219","Groß-Umstadt-Wiebelsbach Bahnhof",8.941238,49.833527,""
"3024380","Groß-Umstadt-Klein-Umstadt Firma Blitz/Bahnhof",8.940626,49.89291,""
"3024242","Groß-Umstadt Im Rech",8.937696,49.866355,""
"3024243","Groß-Umstadt Krankenhaus",8.937093,49.868036,""
"3016166","Groß-Umstadt Gruberhof",8.934711,49.872019,""
"3016173","Groß-Umstadt Geiersbergschule",8.93455,49.869034,""
"3024881","Babenhausen-Sickenhofen Feldstraße",8.932554,49.94582,""
"3016013","Groß-Umstadt Stadtfriedhof",8.932239,49.869394,""
"3015994","Groß-Umstadt Am schwarzen Berg",8.930109,49.863901,""
"3015995","Groß-Umstadt Schwimmbad",8.929776,49.857888,""
"3015872","Babenhausen-Sickenhofen Kirche",8.929273,49.949506,""
"3015993","Groß-Umstadt Pfälzer Schloß",8.92672,49.867695,""
"3016168","Groß-Umstadt Bruchweg",8.926657,49.872873,""
"3024865","Groß-Umstadt Max-Planck-Gymnasium",8.926315,49.869367,""
"3011218","Groß-Umstadt Mitte Bahnhof",8.924706,49.865645,""
"3024572","Groß-Umstadt-Richen Saalbau",8.924464,49.888352,""
"3023466","Otzberg-Hering Waldeck",8.923942,49.819567,""
"3024792","Groß-Umstadt-Richen Römerhofstraße",8.923421,49.888855,""
"3024997","Groß-Umstadt Goethestraße",8.923286,49.868818,""
"3024240","Groß-Umstadt Adenauerring",8.923043,49.878581,""
"3024685","Groß-Umstadt Habitzheimer Ruh",8.92281,49.861789,""
"3016174","Groß-Umstadt Ernst-Reuter-Schule",8.920158,49.882176,""
"3024983","Groß-Umstadt Habitzheimer Straße",8.919627,49.864791,""
"3024071","Otzberg-Hering Bernhardsrain",8.919286,49.819549,""
"3024664","Groß-Umstadt Stettiner Straße",8.919241,49.880082,""
"3016008","Otzberg-Lengfeld Zipfen Hauptstraße",8.919088,49.830156,""
"3024573","Groß-Umstadt Danziger Straße",8.918711,49.882545,""
"3024964","Groß-Umstadt Medic-Center",8.917524,49.871057,""
"3024328","Groß-Umstadt-Richen Iglauer Straße",8.917479,49.885943,""
"3023465","Otzberg-Hering Auf der Burg",8.91551,49.819171,""
"3011261","Babenhausen-Hergershausen Bahnhof",8.915429,49.936112,""
"3024512","Babenhausen-Harpertshausen Lärchenweg",8.915259,49.925675,""
"3024924","Babenhausen-Harpertshausen Linde",8.914387,49.926529,""
"3016025","Groß-Umstadt Otto-Hahn-Straße",8.913479,49.872567,""
"3024942","Babenhausen-Hergershausen Schule",8.913461,49.941119,""
"3024967","Babenhausen-Hergershausen Jahnstraße",8.912427,49.939626,""
"3024416","Otzberg-Lengfeld Kath. Kirche",8.904193,49.830587,""
"3011230","Otzberg Lengfeld Bahnhof",8.902728,49.839478,""
"9900377","P+R Otzberg Lengfeld",8.902602,49.83928,""
"3016007","Otzberg-Lengfeld Apotheke",8.901595,49.833572,""
"3016038","Otzberg-Lengfeld Post",8.901568,49.836475,""
"3024795","Otzberg-Lengfeld Zum Wendelsberg",8.901227,49.837293,""
"3024884","Otzberg-Lengfeld Am Schafbuckel",8.900759,49.835747,""
"3015991","Groß-Umstadt Abzweig Semd",8.900435,49.880091,""
"3024417","Otzberg-Lengfeld Schule",8.895132,49.835343,""
"3024467","Otzberg-Nieder-Klingen Friedhof",8.892327,49.820825,""
"3011260","Münster-Altheim Bahnhof",8.890871,49.92332,""
"3024850","Groß-Umstadt-Semd Schule",8.89008,49.875839,""
"9900279","P+R Altheim (Hessen)",8.889945,49.923068,""
"3024885","Otzberg-Nieder-Klingen Wilhelmstraße",8.889055,49.817562,""
"3024466","Otzberg-Nieder-Klingen Schützenstraße",8.888012,49.819423,""
"3024849","Groß-Umstadt-Semd Kirche",8.886089,49.874131,""
"3024984","Otzberg-Lengfeld Heydenmühle",8.885136,49.828106,""
"3024290","Otzberg-Habitzheim Friedhof",8.88439,49.850103,""
"3024961","Otzberg-Habitzheim Falltorgasse",8.883707,49.850669,""
"3024741","Otzberg-Lengfeld Wiesengrund",8.881549,49.836727,""
"3024279","Otzberg-Habitzheim Kirche",8.879814,49.849941,""
"3024112","Otzberg-Habitzheim Coy",8.878834,49.847865,""
"3024790","Münster Kulturhalle",8.871292,49.925037,""
"3024869","Dieburg Nordring",8.861962,49.914232,""
"3024859","Dieburg Dieselstraße",8.86029,49.910376,""
"3024722","Eppertshausen Ost",8.856262,49.947879,""
"3024857","Dieburg Dammweg",8.855417,49.906618,""
"3024960","Dieburg Hochschule Süd",8.854671,49.899867,""
"9900268","P+R Münster (b. Dieburg)",8.853683,49.923203,""
"3011488","Münster (b.Dieburg) Bahnhof",8.853557,49.923203,""
"3015989","Dieburg Friedhof",8.849557,49.89762,""
"3024773","Reinheim-Ueberau Lengfelder Straße",8.849125,49.828016,""
"3024898","Dieburg Gewerbestraße",8.848505,49.908937,""
"3024856","Dieburg Industriestraße",8.848253,49.905216,""
"3015885","Groß-Zimmern-Klein-Zimmern Markstraße",8.847138,49.868594,""
"3024772","Reinheim-Ueberau Kirche",8.846608,49.824672,""
"3016156","Reinheim-Ueberau Karl-Marx-Straße",8.843848,49.823081,""
"9900345","P+R Dieburg 3",8.843237,49.903103,""
"3016021","Dieburg Schießmauer",8.842851,49.896964,""
"3017578","Dieburg Klein-Zimmerner-Straße",8.84259,49.889404,""
"3011487","Eppertshausen Bahnhof",8.842581,49.945083,""
"9900086","P+R Dieburg 1",8.84223,49.903328,""
"9900267","P+R Eppertshausen",8.842104,49.946036,""
"9900278","P+R Dieburg 2",8.839147,49.90456,""
"9900380","P+R Reinheim (Odenwald) 3",8.838671,49.830776,""
"9900379","P+R Reinheim (Odenwald) 2",8.837196,49.830246,""
"3015988","Dieburg Post",8.83663,49.896245,""
"3015883","Groß-Zimmern Gersprenzbrücke",8.836378,49.87192,""
"3024821","Dieburg Landratsamt",8.836351,49.900398,""
"9900378","P+R Reinheim (Odenwald) 1",8.836261,49.82994,""
"3024564","Reinheim Dr.-Kurt-Schumacher-Schule",8.8353,49.831936,""
"3011229","Reinheim (Odw.) Bahnhof",8.834949,49.829221,""
"3024962","Reinheim Pöllnitz-/Kirchstraße",8.83343,49.825715,""
"3024562","Reinheim (Odw.) Sparkasse",8.833088,49.828178,""
"3015302","Reinheim Willy-Brandt-Straße",8.833007,49.83599,""
"3015890","Groß-Zimmern Friedhof",8.832873,49.870293,""
"3017579","Dieburg Aubergenviller Allee",8.832423,49.893907,""
"3024949","Reinheim Pöllnitzstraße",8.831596,49.826228,""
"3017515","Dieburg L 3114",8.831506,49.888864,""
"3016076","Reinheim Siedlung",8.831174,49.820331,""
"3015981","Groß-Zimmern Ponthierry-Platz",8.827767,49.872288,""
"3015980","Groß-Zimmern Johannes-Ohl-Straße",8.820288,49.872801,""
"3024954","Groß-Zimmern Albert-Schweizer-Schule",8.818759,49.876909,""
"3016022","Groß-Zimmern Reithalle",8.81226,49.871281,""
"3024511","Groß-Zimmern Waldeck",8.810966,49.884046,""
"3016155","Reinheim-Georgenhausen Am Sportplatz",8.806804,49.845599,""
"3016023","Roßdorf-Gundernhausen Aussiedlerhöfe",8.801473,49.872729,""
"3024226","Reinheim-Georgenhausen Edeka",8.800116,49.843505,""
"3016153","Reinheim-Zeilhard Georgenhäuser Straße",8.793356,49.843909,""
"3015879","Roßdorf-Gundernhausen Stetteritz",8.791918,49.866104,""
"3024764","Reinheim-Zeilhard Roßbergring",8.790893,49.848116,""
"3024638","Roßdorf-Gundernhausen Blauer Stein Hof",8.78976,49.859362,""
"3015979","Roßdorf-Gundernhausen Hauptstraße",8.788511,49.872037,""
"3024671","Roßdorf-Gundernhausen Mozartstraße",8.787828,49.868747,""
"3024696","Roßdorf-Gundernhausen Rathausstraße",8.787243,49.87156,""
"3016004","Ober-Ramstadt-Wembach Hahn",8.784124,49.813418,""
"3015978","Roßdorf-Gundernhausen Nordhäuser Straße",8.781373,49.868935,""
"3015889","Roßdorf OHI",8.768959,49.858211,""
"3015977","Roßdorf Dieburger Straße",8.762289,49.859748,""
"3016116","Roßdorf Sportplatz",8.760285,49.857195,""
"3024993","Ober-Ramstadt Mannesmannstraße",8.757804,49.820268,""
"3015976","Roßdorf Rathaus",8.756959,49.85733,""
"3024864","Roßdorf Rathaus/Angerplatz",8.755727,49.85689,""
"3024007","Ober-Ramstadt Adlergasse",8.75472,49.831001,""
"3015878","Roßdorf Justin-Wagner-Schule",8.754037,49.86116,""
"3024608","Roßdorf W.-Leuschner Straße",8.753794,49.854517,""
"3015975","Roßdorf Darmstädter Straße",8.753291,49.860279,""
"3024659","Ober-Ramstadt Steinackerstraße",8.75232,49.83545,""
"3024771","Ober-Ramstadt Friedrichstraße",8.752266,49.829751,""
"3024932","Ober-Ramstadt Lichtenbergschule",8.752212,49.828133,""
"3024602","Ober-Ramstadt Friedhof",8.752131,49.82603,""
"3024505","Ober-Ramstadt Friedhofstraße",8.750981,49.826983,""
