"stop_id","stop_name","stop_lon","stop_lat","stop_code"
"23208106","Nörde, Post",9.09782,51.53124,"de:5762:8106"
"23207516","Ringelstein, Multh.Hammer",8.59898,51.48738,"de:5774:7516"
"23208198","Bleiwäsche, Siedlung",8.71217,51.46725,"de:5774:8198"
"23208197","Bleiwäsche, Kirche",8.70634,51.47141,"de:5774:8197"
"23208196","Bleiwäsche, Forsthaus",8.7084,51.47716,"de:5774:8196"
"23207533","Ringelstein, Abzw. Harth",8.59289,51.49741,"de:5774:7533"
"23208195","Bleiwäsche, Aabachtalsperre",8.71744,51.49601,"de:5774:8195"
"23208152","Welda (Warburg), Zur Kohlwiese",9.11058,51.45193,"de:5762:8152"
"23208150","Welda (Warburg), Wittmarstraße",9.11522,51.45338,"de:5762:8150"
"23208096","Herlinghausen (HX), Feuerwehr",9.20521,51.47003,"de:5762:8096"
"23208097","Herlinghausen (HX), Herlinghausen Mitte",9.20245,51.46999,"de:5762:8097"
"23208079","Calenberg, Dorfstraße",9.16371,51.46507,"de:5762:8079"
"23240119","Calenberg, Abzw. Burg",9.16579,51.46604,"de:5762:40119"
"23208080","Calenberg, Burg",9.16511,51.46733,"de:5762:8080"
"23208081","Calenberg, Feuerlöschteich",9.16155,51.46809,"de:5762:8081"
"23208082","Dalheim (Warburg), Dalheim Mitte",9.18735,51.48059,"de:5762:8082"
"23208154","Wormeln, Ortsmitte",9.13301,51.47238,"de:5762:8154"
"23240603","Wormeln, Zum Lütal",9.13643,51.47418,"de:5762:40603"
"23208151","Welda (Warburg), Gladenhaus",9.11915,51.47191,"de:5762:8151"
"23208099","Warburg (Westf), Kuhlemühle",9.18681,51.48652,"de:5762:8099"
"23209833","Warburg (Westf), Am Runden Berg",9.15632,51.48217,"de:5762:9833"
"23208133","Warburg (Westf), Calenberger Straße",9.15298,51.48235,"de:5762:8133"
"23240252","Warburg (Westf), Abzweig Schanze",9.15792,51.48315,"de:5762:40252"
"23209100","Warburg (Westf), Paul-Klee-Straße",9.15988,51.48375,"de:5762:9100"
"23209099","Warburg (Westf), Spielplatz",9.15818,51.48358,"de:5762:9099"
"23208149","Warburg (Westf), Wormelner Straße",9.15024,51.48286,"de:5762:8149"
"23209197","Warburg (Westf), Glockenbreite",9.14292,51.48167,"de:5762:9197"
"23209196","Warburg (Westf), Abzw. Von-Vinke-Straße",9.13747,51.48166,"de:5762:9196"
"23209198","Warburg (Westf), Johannistorstraße",9.14386,51.48406,"de:5762:9198"
"23208127","Warburg (Westf), Altstadt",9.14739,51.48471,"de:5762:8127"
"23209184","Warburg (Westf), Berliner Straße",9.13825,51.4834,"de:5762:9184"
"23208128","Warburg (Westf), Eisenhoitschule",9.14886,51.48609,"de:5762:8128"
"23208148","Warburg (Westf), Wäscherei Kamm",9.16521,51.48942,"de:5762:8148"
"23209180","Warburg (Westf), Von-Plencken-Straße",9.1345,51.48467,"de:5762:9180"
"23240617","Warburg (Westf), Reitbahn",9.16064,51.48944,"de:5762:40617"
"23208471","Warburg (Westf), Kasseler Straße",9.15512,51.48872,"de:5762:8471"
"23208129","Warburg (Westf), Amtsgericht",9.14975,51.48789,"de:5762:8129"
"23208137","Warburg (Westf), Hüffertgymnasium",9.13845,51.48617,"de:5762:8137"
"23209193","Warburg (Westf), Sparkasse/LBS",9.15158,51.48872,"de:5762:9193"
"23208144","Warburg (Westf), Post",9.15429,51.48928,"de:5762:8144"
"23208132","Warburg (Westf), Berufsschule",9.1334,51.48591,"de:5762:8132"
"23209098","Warburg (Westf), Neustadtkirche",9.14807,51.48848,"de:5762:9098"
"23208145","Warburg (Westf), Schulzentrum",9.13838,51.48759,"de:5762:8145"
"23208139","Warburg (Westf), Kath. Grundschule",9.14343,51.48843,"de:5762:8139"
"23209178","Warburg (Westf), Desenberggasse",9.14716,51.48952,"de:5762:9178"
"23208141","Warburg (Westf), Krankenhaus",9.13931,51.48844,"de:5762:8141"
"23208223","Warburg (Westf), Stiepenweg",9.13376,51.48753,"de:5762:8223"
"23208143","Warburg (Westf), Paderborner Tor",9.143,51.48925,"de:5762:8143"
"23209179","Warburg (Westf), Ahornweg",9.1328,51.4877,"de:5762:9179"
"23208130","Warburg (Westf), Bahnhof",9.16386,51.49275,"de:5762:8130"
"23208147","Warburg (Westf), Stadt/Kreisverwaltung",9.15622,51.4919,"de:5762:8147"
"23208489","Warburg (Westf), Birkenweg",9.13136,51.48789,"de:5762:8489"
"23208131","Warburg (Westf), Bahnhofstraße",9.16144,51.49279,"de:5762:8131"
"23208230","Warburg (Westf), Falkschule",9.14143,51.48997,"de:5762:8230"
"23208146","Warburg (Westf), Schützenplatz",9.13884,51.49001,"de:5762:8146"
"23208136","Warburg (Westf), Friedhof",9.12905,51.48836,"de:5762:8136"
"23209175","Warburg (Westf), Landfurt/DRK",9.1564,51.49317,"de:5762:9175"
"23208135","Warburg (Westf), Desenbergstraße",9.16536,51.4946,"de:5762:8135"
"23208126","Warburg (Westf), Altenheim",9.15145,51.49289,"de:5762:8126"
"23208091","Germete (Warburg), Dorfplatz",9.10215,51.48429,"de:5762:8091"
"23208093","Germete (Warburg), Kurpark",9.09656,51.48394,"de:5762:8093"
"23208092","Germete (Warburg), Germete Mitte",9.10179,51.48501,"de:5762:8092"
"23240172","Warburg (Westf), Papenheimer Straße",9.13909,51.49184,"de:5762:40172"
"23209194","Warburg (Westf), Mozartstraße",9.13033,51.49046,"de:5762:9194"
"23209186","Warburg (Westf), Am Wiesenberg",9.14572,51.4931,"de:5762:9186"
"23208134","Warburg (Westf), Florianweg",9.13258,51.49134,"de:5762:8134"
"23240170","Warburg (Westf), Am Heidweg",9.13611,51.49197,"de:5762:40170"
"23208225","Warburg (Westf), Neuhann",9.18069,51.49941,"de:5762:8225"
"23209189","Warburg (Westf), Stettiner Straße",9.14324,51.49424,"de:5762:9189"
"23240113","Warburg (Westf), Prälat-Bartels-Straße",9.14479,51.49464,"de:5762:40113"
"23209190","Warburg (Westf), Jugenddorf",9.14516,51.49597,"de:5762:9190"
"23240678","Warburg (Westf), Funkturm",9.15999,51.49893,"de:5762:40678"
"23209191","Warburg (Westf), Hohe Wanne",9.14416,51.49686,"de:5762:9191"
"23209969","Warburg (Westf), Kleebrede",9.15458,51.49889,"de:5762:9969"
"23208138","Warburg (Westf), Industriestraße",9.12874,51.4948,"de:5762:8138"
"23208090","Germete (Warburg), Am Heinberg",9.10771,51.49121,"de:5762:8090"
"23240629","Warburg (Westf), Cineplex",9.1497,51.49888,"de:5762:40629"
"23209351","Würgassen, Axelsee",9.393,51.64643,"de:5762:9351"
"23208249","Fürstenberg (Kr PB), Gut Wohlbedacht",8.79635,51.48646,"de:5774:8249"
"23209939","Westenholz (Kr PB), Haustenbach",8.41123,51.72639,"de:5774:9939"
"23209949","Westenholz (Kr PB), Mittelweg",8.42729,51.72512,"de:5774:9949"
"23209945","Westenholz (Kr PB), Kreuzung",8.41807,51.7346,"de:5774:9945"
"23209938","Westenholz (Kr PB), Hansmeier",8.43397,51.72739,"de:5774:9938"
"23209374","Westenholz (Kr PB), Randweg",8.41394,51.74091,"de:5774:9374"
"23209948","Westenholz (Kr PB), Mastholter Eck",8.41374,51.74165,"de:5774:9948"
"23209934","Westenholz (Kr PB), Gefl.Brunnert",8.42895,51.74351,"de:5774:9934"
"23209946","Westenholz (Kr PB), Lübbert",8.41475,51.75134,"de:5774:9946"
"23209950","Westenholz (Kr PB), Moorlake",8.42733,51.75469,"de:5774:9950"
"23209884","Upsprunge, Stapelhof",8.58987,51.64372,"de:5774:9884"
"23208032","Upsprunge, Bürgerhaus",8.5988,51.6533,"de:5774:8032"
"23208293","Upsprunge, Am Sprudel",8.59455,51.65522,"de:5774:8293"
"23208041","Upsprunge, Wulfstal",8.58633,51.62659,"de:5774:8041"
"23208033","Upsprunge, Post",8.60164,51.65689,"de:5774:8033"
"23208379","Salzkotten, Schulzentrum",8.60178,51.65991,"de:5774:8379"
"23209093","Würgassen, Lauenförder Straße",9.3989,51.64245,"de:5762:9093"
"23240717","Salzkotten, Geseker Straße 82",8.57393,51.6593,"de:05774:40717"
"23208023","Salzkotten, Westring",8.59543,51.66329,"de:5774:8023"
"23208019","Salzkotten, Simonstraße",8.59918,51.66507,"de:5774:8019"
"23208497","Salzkotten, Grundschule",8.60489,51.66469,"de:5774:8497"
"23209342","Salzkotten, Eichfeld",8.58783,51.66551,"de:5774:9342"
"23240686","Herstelle, Siedlung",9.41457,51.63681,"de:5762:40686"
"23209054","Salzkotten, Oelweg",8.61199,51.66631,"de:5774:9054"
"23208495","Bosenholz, Bosenholz",8.63773,51.64786,"de:5774:8495"
"23208022","Salzkotten, Upsprunger Straße",8.60018,51.66965,"de:5774:8022"
"23208016","Salzkotten, Bahnhof",8.60042,51.67262,"de:5774:8016"
"23208020","Salzkotten, Post",8.60565,51.67242,"de:5774:8020"
"23208024","Salzkotten, Wewelsburger Straße",8.61393,51.67125,"de:5774:8024"
"23240685","Herstelle, Anleger",9.41853,51.64314,"de:5762:40685"
"23208826","Beverungen, Gut Schirmeke",9.37675,51.68284,"de:5762:8826"
"23207704","Höxter, Kaserne",9.37549,51.78081,"de:5762:7704"
"23208021","Salzkotten, Paderborner Straße",8.61267,51.67419,"de:5774:8021"
"23207709","Höxter, Stadthaus",9.37661,51.77398,"de:5762:7709"
"23207528","Wewelsburg, Abzweig",8.64269,51.62053,"de:5774:7528"
"23208017","Salzkotten, Thüler Straße",8.60623,51.67661,"de:5774:8017"
"23240578","Salzkotten, Am Ärztehaus",8.6171,51.67521,"de:5774:40578"
"23208000","Salzkotten, Abzw. Bosenholz",8.63957,51.66524,"de:5774:8000"
"23208040","Salzkotten, Weltsöden",8.64543,51.66193,"de:5774:8040"
"23208002","Salzkotten, Krankenhaus",8.61719,51.67716,"de:5774:8002"
"23208737","Salzkotten, Sägewerk",8.65424,51.6536,"de:5774:8737"
"23208007","Verne (Kr Paderborn), Klein Verne Mitte",8.58942,51.68101,"de:5774:8007"
"23209522","Verne (Kr Paderborn), Ringstraße",8.57569,51.68023,"de:5774:9522"
"23207529","Wewelsburg, Bahnhof",8.6458,51.61429,"de:5774:7529"
"23208884","Höxter, Triftweg",9.37745,51.77972,"de:5762:8884"
"23209523","Verne (Kr Paderborn), Gaststätte Zwiebel",8.58153,51.6827,"de:5774:9523"
"23208936","Salzkotten, Scharmeder Straße",8.62709,51.67842,"de:5774:8936"
"23208039","Verne (Kr Paderborn), Von-Brenken-Straße",8.58159,51.68365,"de:5774:8039"
"23208493","Oberntudorf, Kirche",8.6643,51.64229,"de:5774:8493"
"23208028","Salzkotten, Stadtteiche",8.59977,51.68459,"de:5774:8028"
"23208329","Verne (Kr Paderborn), Zum Wiedkamp",8.5752,51.68367,"de:5774:8329"
"23207532","Wewelsburg, Graffeler Berg",8.64964,51.61263,"de:5774:7532"
"23208012","Oberntudorf, Meier",8.66577,51.64238,"de:5774:8012"
"23208038","Verne (Kr Paderborn), Jägerhof",8.56732,51.68328,"de:5774:8038"
"23208827","Oberntudorf, Widukindstraße",8.66733,51.64036,"de:5774:8827"
"23209053","Oberntudorf, Friedhof",8.66687,51.64637,"de:5774:9053"
"23207697","Höxter, Godelheimer Straße",9.37841,51.76868,"de:5762:7697"
"23208740","Oberntudorf, Grundschule",8.66953,51.64123,"de:5774:8740"
"23208011","Niederntudorf, Brockensklee",8.67118,51.63637,"de:5774:8011"
"23207701","Höxter, Brenkhäuser Straße",9.38061,51.7782,"de:5762:7701"
"23208739","Niederntudorf, Gladbach",8.67139,51.63539,"de:5774:8739"
"23208536","Verne (Kr Paderborn), Mühlendamm",8.57048,51.68788,"de:5774:8536"
"23209883","Salzkotten, Abzw. Widey",8.62409,51.68699,"de:5774:9883"
"23208528","Höxter, Marktstraße",9.38131,51.77398,"de:5762:8528"
"23208939","Verne (Kr Paderborn), Fichtenstraße",8.57507,51.68993,"de:5774:8939"
"23207530","Wewelsburg, Schule/Kreismuseum",8.65498,51.60763,"de:5774:7530"
"23208006","Enkhausen/Kr Paderb., Enkhausen Mitte",8.55109,51.68395,"de:5774:8006"
"23208492","Niederntudorf, Hauptschule",8.67676,51.63236,"de:5774:8492"
"23208009","Niederntudorf, Abzw.Bahnhof",8.67885,51.63169,"de:5774:8009"
"23207531","Wewelsburg, Niederhagen",8.66208,51.6074,"de:5774:7531"
"23207700","Höxter, Bahnhof / Rathaus",9.38213,51.77318,"de:5762:7700"
"23208852","Höxter, Nicolaistraße",9.3819,51.77724,"de:5762:8852"
"23208004","Enkhausen/Kr Paderb., Holsener Weg",8.54027,51.6867,"de:5774:8004"
"23208010","Niederntudorf, Müllmersberg",8.68349,51.62746,"de:5774:8010"
"23207693","Höxter, Am Wiehenbrink",9.38291,51.78261,"de:5762:7693"
"23208311","Brenken, Sendstraße",8.59011,51.58333,"de:5774:8311"
"23209281","Höxter, Kilianikirche",9.38358,51.77468,"de:5762:9281"
"23208934","Salzkotten, Böhner",8.63887,51.69256,"de:5774:8934"
"23240290","Höxter, Nicolaitorschule",9.38361,51.77896,"de:5762:40290"
"23209347","Thüle, Liemekestraße",8.57902,51.70075,"de:5774:9347"
"23208921","Holsen (Salzkotten), Diekelake",8.53619,51.6904,"de:5774:8921"
"23208003","Enkhausen/Kr Paderb., Dahl",8.52822,51.68698,"de:5774:8003"
"23208933","Salzkotten, Haus Widey",8.63949,51.69843,"de:5774:8933"
"23208031","Thüle, Stoffelns",8.58887,51.70522,"de:5774:8031"
"23240697","Höxter, Hx. Weserbrücke (Brückfeld)",9.38518,51.77256,"de:05762:40697"
"23208920","Holsen (Salzkotten), Enkhauser Weg",8.53209,51.6953,"de:5774:8920"
"23208261","Höxter, Am Südhang",9.38483,51.78439,"de:5762:8261"
"23208851","Höxter, Bachstraße",9.38704,51.77542,"de:5762:8851"
"23240666","Höxter, Kreishaus",9.38729,51.77821,"de:5762:40666"
"23208544","Thüle, Birkenstraße",8.58199,51.70866,"de:5774:8544"
"23208919","Holsen (Salzkotten), Winkhauser Straße",8.54074,51.70085,"de:5774:8919"
"23208647","Höxter, Corveyer Allee",9.38775,51.77702,"de:5762:8647"
"23208274","Steinhausen (Büren), Hermannstraße",8.51421,51.5931,"de:5774:8274"
"23208250","Thüle, Im Nordfeld",8.59555,51.70957,"de:5774:8250"
"23208030","Thüle, Thüle Mitte",8.58793,51.70966,"de:5774:8030"
"23208035","Verlar, Kreuzung",8.51086,51.68676,"de:5774:8035"
"23208262","Höxter, Albaxer Straße/Obi",9.38855,51.78674,"de:5762:8262"
"23208334","Böddeken, Gut Böddeken",8.67839,51.59536,"de:5774:8334"
"23208531","Holsen (Salzkotten), Siedlung",8.52628,51.69642,"de:5774:8531"
"23208925","Winkhausen (Kr PB), Am Rott",8.5462,51.70456,"de:5774:8925"
"23208275","Steinhausen (Büren), Goldammerweg",8.513,51.59131,"de:5774:8275"
"23208927","Thüle, Bleichstraße",8.58238,51.71115,"de:5774:8927"
"23208917","Holsen (Salzkotten), Holser Heide",8.5221,51.69636,"de:5774:8917"
"23208529","Holsen (Salzkotten), Löseke",8.5102,51.68959,"de:5774:8529"
"23208034","Verlar, Heidekrug",8.50504,51.68664,"de:5774:8034"
"23207520","Steinhausen (Büren), Bahnhofsweg",8.5161,51.58713,"de:5774:7520"
"23207988","Wewer (Paderborn), Delbrücker Weg",8.68639,51.68538,"de:5774:7988"
"23208923","Winkhausen (Kr PB), Fretter",8.54271,51.70655,"de:5774:8923"
"23208918","Holsen (Salzkotten), Gutland",8.5177,51.69711,"de:5774:8918"
"23209885","Alfen (Kr Paderborn), Gewerbepark",8.71231,51.64468,"de:5774:9885"
"23207995","Wewer (Paderborn), Triftweg",8.68524,51.68808,"de:5774:7995"
"23208029","Thüle, Brotfabrik",8.5803,51.71454,"de:5774:8029"
"23240076","Thüle, Glockenpohl",8.58426,51.71496,"de:5774:40076"
"23208911","Verlar, Grundschule",8.50153,51.68866,"de:5774:8911"
"23207525","Steinhausen (Büren), Unterhalt",8.52919,51.57788,"de:5774:7525"
"23240013","Boke, Auf den Röthen",8.56111,51.71267,"de:5774:40013"
"23208037","Verlar, Schule",8.50118,51.68877,"de:5774:8037"
"23209814","Steinhausen (Büren), Querstraße",8.50969,51.58691,"de:5774:9814"
"23208026","Scharmede, Wasserstraße",8.62386,51.71346,"de:5774:8026"
"23240592","Wewer (Paderborn), Lesteweg",8.6831,51.69165,"de:5774:40592"
"23207524","Steinhausen (Büren), Schulstraße",8.51646,51.58238,"de:5774:7524"
"23208336","Scharmede, Kirche",8.62834,51.71327,"de:5774:8336"
"23207523","Steinhausen (Büren), Triftweg",8.53362,51.57496,"de:5774:7523"
"23240640","Alfen (Kr Paderborn), Nikolaus-Otto-Straße",8.71551,51.64758,"de:5762:40640"
"23208533","Boke, Heitwinkel",8.55313,51.71238,"de:5774:8533"
"23207989","Wewer (Paderborn), Fixberg",8.69584,51.68269,"de:5774:7989"
"23209285","Verlar, Verlar Mitte",8.49668,51.68712,"de:5774:9285"
"23209813","Steinhausen (Büren), Eringerfelder Straße",8.51025,51.58519,"de:5774:9813"
"23207996","Wewer (Paderborn), Vössingweg",8.69288,51.6856,"de:5774:7996"
"23207521","Steinhausen (Büren), Kirche",8.52004,51.57952,"de:5774:7521"
"23240352","Wewer (Paderborn), Zwetschenweg",8.68361,51.69356,"de:5774:40352"
"23208929","Scharmede, Stangenweg",8.62046,51.71576,"de:5774:8929"
"23240168","Paderborn, Weikenweg",8.69431,51.68568,"de:5774:40168"
"23208027","Scharmede, Scharmede Mitte",8.63217,51.71385,"de:5774:8027"
"23207991","Wewer (Paderborn), Im Bruchhof",8.68796,51.6908,"de:5774:7991"
"23207998","Wewer (Paderborn), Winkelsgarten",8.69681,51.68425,"de:5774:7998"
"23208924","Winkhausen (Kr PB), Zum Vosswinkel",8.53469,51.70887,"de:5774:8924"
"23208922","Schwelle, Schwelle",8.52451,51.70514,"de:5774:8922"
"23208535","Boke, Barbruch",8.56949,51.71691,"de:5774:8535"
"23208930","Scharmede, Rotheweg",8.62432,51.71652,"de:5774:8930"
"23208430","Kirchborchen, Haarener Straße",8.71757,51.65563,"de:5774:8430"
"23208025","Scharmede, Bahnhof Scharmede",8.64549,51.7126,"de:5774:8025"
"23240171","Kirchborchen, Alfener Kirchweg",8.71827,51.65571,"de:5774:40171"
"23240651","Höxter, GWH",9.39335,51.77749,"de:5762:40651"
"23209308","Scharmede, An der Schützenhalle",8.63037,51.71645,"de:5774:9308"
"23240026","Boke, Stratmann",8.55917,51.71689,"de:5774:40026"
"23207992","Wewer (Paderborn), Im Tigg",8.69739,51.68724,"de:5774:7992"
"23240020","Boke, Jostmeier",8.55388,51.71615,"de:5774:40020"
"23241007","Boke, Barbruch 1",8.5692,51.7188,"de:5774:41007"
"23208722","Wewer (Paderborn), Rummelsberg",8.68948,51.69363,"de:5774:8722"
"23208721","Wewer (Paderborn), Am Zollhaus",8.68646,51.69623,"de:5774:8721"
"23240583","Steinhausen (Büren), Schornweg",8.51717,51.57633,"de:5774:40583"
"23208931","Scharmede, Zur Laake",8.63056,51.71772,"de:5774:8931"
"23207990","Wewer (Paderborn), Hauptstraße",8.6982,51.68847,"de:5774:7990"
"23207993","Wewer (Paderborn), Kleestraße",8.69814,51.68922,"de:5774:7993"
"23207672","Albaxen, Friedhof",9.39985,51.81959,"de:5762:7672"
"23208548","Kirchborchen, Limberg",8.72242,51.65549,"de:5774:8548"
"23240636","Albaxen, Kirche",9.40182,51.8217,"de:5762:40636"
"23207559","Boke, Abzw. Geseke",8.56441,51.72019,"de:5774:7559"
"23208835","Kirchborchen, Schule/Rathaus",8.72236,51.65744,"de:5774:8835"
"23240025","Boke, Remmert",8.57335,51.72208,"de:5774:40025"
"23207673","Albaxen, Siedlung",9.40836,51.82378,"de:5762:7673"
"23240014","Boke, Barbruch 4",8.57416,51.72236,"de:5774:40014"
"23208619","Höxter, Corvey",9.40694,51.77863,"de:5762:8619"
"23240265","Mantinghausen, Boker Str.",8.51231,51.70825,"de:5774:40265"
"23240285","Boke, Barbruch 11",8.58224,51.72491,"de:5774:40285"
"23207994","Wewer (Paderborn), Stemberg",8.70241,51.69206,"de:5774:7994"
"23240613","Boke, Bertelsmeier",8.58385,51.72525,"de:5774:40613"
"23207726","Stahle (Höxter), Siedlung",9.42547,51.83072,"de:5762:7726"
"23208331","Büren (Kr Paderborn), Abzweig JVA",8.63881,51.56065,"de:5774:8331"
"23207725","Stahle (Höxter), Corveyer Straße",9.42926,51.8328,"de:5762:7725"
"23207883","Elsen (Paderborn), Jägerkrug",8.66547,51.71354,"de:5774:7883"
"23207561","Boke, Gröpper",8.56272,51.72397,"de:5774:7561"
"23209312","Mantinghausen, Alte Römerstraße",8.51241,51.71019,"de:05774:9312"
"23209722","Stahle (Höxter), Holzmindener Straße",9.4377,51.83024,"de:5762:9722"
"23224061","Mantinghausen, Berge",8.51762,51.71327,"de:5774:24061"
"23240236","Lüchtringen, Feuerwehr",9.42716,51.79482,"de:5762:40236"
"23209032","Lüchtringen, Bahnhof",9.42746,51.79138,"de:5762:9032"
"23208271","Büren (Kr Paderborn), Almeschule",8.55461,51.5575,"de:5774:8271"
"23240237","Lüchtringen, Heidebrink",9.43045,51.78742,"de:5762:40237"
"23240652","Lüchtringen, Hellengrund",9.43096,51.79233,"de:5762:40652"
"23240631","Lüchtringen, Murrwinkel",9.43096,51.79233,"de:5762:40631"
"23240635","Lüchtringen, Lange Straße",9.43096,51.79233,"de:5762:40635"
"23208594","Büren (Kr Paderborn), Weinberg",8.53613,51.56002,"de:5774:8594"
"23209839","Büren (Kr Paderborn), Königlicher Wald",8.54228,51.5582,"de:5774:9839"
"23240633","Lüchtringen, An der Hardt",9.43096,51.79233,"de:5762:40633"
"23240634","Lüchtringen, Sparkasse",9.43096,51.79233,"de:5762:40634"
"23208953","Büren (Kr Paderborn), Bühl",8.54936,51.55619,"de:5774:8953"
"23208001","Boke, Ridder",8.50535,51.71099,"de:5774:8001"
"23208914","Mantinghausen, Brückenstraße",8.48697,51.70073,"de:5774:8914"
"23240356","Steinhausen (Büren), Altes Forshaus",8.50461,51.5706,"de:5774:40356"
"23240632","Lüchtringen, Postweg Nord",9.43096,51.79233,"de:5762:40632"
"23208595","Büren (Kr Paderborn), Westring",8.53265,51.55944,"de:5774:8595"
"23208593","Büren (Kr Paderborn), Heidfeld",8.53632,51.55824,"de:5774:8593"
"23240349","Mönkeloh, Autohof (Eisbahn)",8.72142,51.68352,"de:5774:40349"
"23207564","Boke, Schwanenkrug",8.55932,51.7289,"de:5774:7564"
"23240638","Höxter, An den Birnbäumen",9.37118,51.78165,"de:5762:40638"
"23224062","Boke, Bussemas",8.53776,51.72491,"de:5774:24062"
"23207562","Boke, Kirche",8.56648,51.73032,"de:5774:7562"
"23208883","Höxter, Lärchenweg",9.37196,51.78275,"de:5762:8883"
"23207850","Barkhausen/Paderborn, Barkhausen",8.71075,51.69656,"de:5774:7850"
"23240016","Boke, Grundschule",8.5681,51.73098,"de:5774:40016"
"23208524","Mantinghausen, Kirche",8.48459,51.70354,"de:5774:8524"
"23240665","Höxter, Am Bielenberg",9.36869,51.78152,"de:5762:40665"
"23208916","Mantinghausen, Lippestraße",8.4845,51.70377,"de:5774:8916"
"23208915","Mantinghausen, Fasanenweg",8.49062,51.70787,"de:5774:8915"
"23208255","Paderborn, Wewerstraße/2",8.69804,51.70739,"de:5774:8255"
"23240639","Höxter, Gerstenbrink",9.3706,51.78342,"de:5762:40639"
"23208615","Höxter, Bödexer Weg",9.37271,51.7848,"de:5762:8615"
"23240021","Boke, Kiliansdamm",8.55723,51.73153,"de:5774:40021"
"23209823","Höxter, Grüne Mühle",9.37078,51.78715,"de:5762:9823"
"23240083","Büren (Kr Paderborn), Eickhoffer Straße",8.52552,51.5567,"de:5774:40083"
"23207560","Boke, Diebeskämpen",8.57146,51.73499,"de:5774:7560"
"23240596","Paderborn, Oberes Feld",8.71444,51.6998,"de:5774:40596"
"23207908","Mönkeloh, Buchenhof",8.73208,51.68267,"de:5774:7908"
"23209571","Paderborn, Phoenix Contact",8.71049,51.70304,"de:5774:9571"
"23208525","Mantinghausen, Westenholzer Straße",8.4823,51.70693,"de:5774:8525"
"23207558","Bentfeld, Spielenkamp",8.61537,51.73551,"de:5774:7558"
"23207711","Höxter, St.-Ansgar-Krankenhaus",9.36641,51.78549,"de:5762:7711"
"23208386","Höxter, Weserbergland-Klinik",9.375,51.78991,"de:5762:8386"
"23208216","Bad Wünnenberg, Neuböddeken",8.72532,51.58972,"de:5774:8216"
"23240008","Bentfeld, Becker",8.6042,51.73699,"de:5774:40008"
"23240109","Mantinghausen, Wiesenweg",8.49187,51.71406,"de:5774:40109"
"23208279","Büren (Kr Paderborn), Schanze",8.55746,51.54658,"de:5774:8279"
"23240010","Bentfeld, Martinstraße",8.6301,51.73523,"de:5774:40010"
"23207865","Elsen (Paderborn), Bahnhof",8.6817,51.72123,"de:5774:7865"
"23207555","Bentfeld, Abzw. Scharmede",8.63125,51.73525,"de:5774:7555"
"23209824","Höxter, Räuschenberg",9.37004,51.78947,"de:5762:9824"
"23240009","Bentfeld, Godefriedstraße",8.62528,51.73631,"de:5774:40009"
"23207551","Anreppen, Brinkmann",8.59893,51.73825,"de:5774:7551"
"23209812","Haaren (Kr PB), Klus",8.67003,51.55534,"de:5774:9812"
"23240515","Mantinghausen, Rebbeker Str.",8.47328,51.70411,"de:5774:40515"
"23240022","Boke, Keuter",8.55327,51.73556,"de:5774:40022"
"23207911","Mönkeloh, Kühlhaus",8.73624,51.68554,"de:5774:7911"
"23207556","Bentfeld, Grenze Gesseln",8.64284,51.73541,"de:5774:7556"
"23207557","Bentfeld, Kirche",8.62533,51.73831,"de:5774:7557"
"23208375","Haaren (Kr PB), Peacock",8.71974,51.579,"de:5774:8375"
"23240011","Bentfeld, Spielplatz",8.62216,51.7389,"de:5774:40011"
"23240588","Mantinghausen, Dunker",8.4699,51.70439,"de:5774:40588"
"23207716","Lütmarsen, Lütmarsen",9.34087,51.7846,"de:5762:7716"
"23207563","Boke, Rumann",8.55905,51.73846,"de:5774:7563"
"23240004","Anreppen, Lippebrücke",8.59431,51.74087,"de:5774:40004"
"23209313","Mantinghausen, Lippstädter Weg",8.4794,51.71172,"de:5774:9313"
"23208971","Büren (Kr Paderborn), Kleiststraße",8.55925,51.54251,"de:5774:8971"
"23208633","Mönkeloh, Frettholz",8.74006,51.68548,"de:5774:8633"
"23208913","Mantinghausen, Boker Heideweg",8.49281,51.72042,"de:5774:8913"
"23240023","Boke, Neue Reihe",8.55164,51.7387,"de:5774:40023"
"23240019","Boke, Hengsterberg",8.569,51.74129,"de:5774:40019"
"23207683","Brenkhausen, Sieplerstraße",9.35584,51.79843,"de:5762:7683"
"23240107","Haaren (Kr PB), Wewelsburger Straße",8.71661,51.57277,"de:5774:40107"
"23208376","Haaren (Kr PB), Adam-Opel-Straße",8.71999,51.57507,"de:5774:8376"
"23208273","Büren (Kr Paderborn), Fürstenberger Straße",8.5779,51.53837,"de:5774:8273"
"23207682","Brenkhausen, Denkmal",9.3523,51.80166,"de:5762:7682"
"23207684","Brenkhausen, Struck",9.34725,51.79966,"de:5762:7684"
"23208750","Paderborn, Frankfurter Weg",8.72605,51.70342,"de:5774:8750"
"23207553","Anreppen, Paradiesstraße",8.59096,51.74397,"de:5774:7553"
"23208205","Haaren (Kr PB), Münster",8.69299,51.55785,"de:5774:8205"
"23207819","Holzhausen (Nieheim), Scheips",9.13743,51.78834,"de:5762:7819"
"23209826","Brenkhausen, Dorfmitte",9.3517,51.80528,"de:5762:9826"
"23240648","Haaren (Kr PB), Industriepark",8.71579,51.57,"de:5774:40648"
"23207818","Holzhausen (Nieheim), Oberdorf",9.13297,51.79346,"de:5762:7818"
"23207915","Mönkeloh, Zementwerk",8.73507,51.69632,"de:5774:7915"
"23240001","Anreppen, Im Dorfe",8.59029,51.74454,"de:5774:40001"
"23207907","Mönkeloh, Brauerei",8.74442,51.68733,"de:5774:7907"
"23207862","Elsen (Paderborn), Abzw. Bahnhof",8.69295,51.72581,"de:5774:7862"
"23207552","Anreppen, Anreppen Mitte",8.58884,51.74591,"de:5774:7552"
"23240281","Hagen (Delbrück), Fuchsweg I",8.50248,51.72963,"de:5774:40281"
"23207910","Mönkeloh, Hella",8.73889,51.69645,"de:5774:7910"
"23238634","Paderborn, Heinz Nixdorf Parkplatz",8.71465,51.71563,"de:5774:38634"
"23208764","Paderborn, Mönkeloh",8.73787,51.69769,"de:5774:8764"
"23208613","Paderborn, Kolberger Straße",8.73242,51.70272,"de:5774:8613"
"23208208","Haaren (Kr PB), Tredde",8.72582,51.57334,"de:5774:8208"
"23208963","Haaren (Kr PB), Nordstraße",8.72323,51.57126,"de:5774:8963"
"23207909","Mönkeloh, Claas",8.74217,51.69435,"de:5774:7909"
"23208609","Paderborn, Almeweg",8.72359,51.71054,"de:5774:8609"
"23240282","Hagen (Delbrück), Fuchsweg II",8.49301,51.7272,"de:5774:40282"
"23207822","Nieheim, Altenheim",9.10416,51.80326,"de:5762:7822"
"23207912","Mönkeloh, Mönkeloh Mitte",8.73825,51.6988,"de:5774:7912"
"23207914","Mönkeloh, Westfleisch",8.74682,51.68961,"de:5774:7914"
"23240647","Haaren (Kr PB), Graf-Zeppelin-Straße",8.7157,51.56531,"de:5774:40647"
"23207823","Nieheim, Kornhaus",9.10752,51.80355,"de:5762:7823"
"23209403","Nieheim, Grundschule",9.11234,51.80235,"de:5762:9403"
"23240005","Anreppen, Lüttkenheide",8.5794,51.74754,"de:5774:40005"
"23208612","Paderborn, Waldenburger Straße",8.73097,51.70601,"de:5774:8612"
"23240220","Hagen (Delbrück), Abzweig Fuchsweg",8.51076,51.7349,"de:5774:40220"
"23208634","Paderborn, Heinz Nixdorf Wendeschleife",8.71781,51.71585,"de:5774:8634"
"23207863","Elsen (Paderborn), Antoniusstraße",8.68569,51.73191,"de:5774:7863"
"23208209","Haaren (Kr PB), Voßmann",8.71022,51.56083,"de:5774:8209"
"23207882","Elsen (Paderborn), Wewerstraße",8.69422,51.72873,"de:5774:7882"
"23207527","Weine, Weine",8.52545,51.5415,"de:5774:7527"
"23207884","Gesseln, Gesseln",8.66475,51.7395,"de:5774:7884"
"23207825","Nieheim, Schulzentrum",9.11545,51.8015,"de:5762:7825"
"23207681","Brenkhausen, An den Teichen",9.33475,51.8063,"de:5762:7681"
"23208542","Nieheim, ZOB",9.11462,51.80459,"de:5762:8542"
"23208426","Haaren (Kr PB), Schützenhalle",8.72556,51.56967,"de:5774:8426"
"23208912","Mantinghausen, Blumenweg",8.48056,51.72377,"de:5774:8912"
"23207877","Elsen (Paderborn), Elsen Schule",8.6833,51.73438,"de:5774:7877"
"23240084","Anreppen, Auf dem Teiche",8.58055,51.74956,"de:5774:40084"
"23207868","Elsen (Paderborn), Kirschenkamp",8.69862,51.72846,"de:5774:7868"
"23207879","Elsen (Paderborn), Urbanstraße",8.68836,51.73286,"de:5774:7879"
"23207871","Elsen (Paderborn), Gesselner Straße",8.67716,51.73693,"de:5774:7871"
"23207866","Elsen (Paderborn), Blumenstraße",8.69246,51.73156,"de:5774:7866"
"23207881","Elsen (Paderborn), Von-Ketteler-Straße",8.68753,51.73375,"de:5774:7881"
"23207826","Nieheim, Siedlung",9.11812,51.80739,"de:5762:7826"
"23208712","Gesseln, Obernheideweg",8.66825,51.74042,"de:5774:8712"
"23240569","Anreppen, Kampwiesen",8.59435,51.75105,"de:5774:40569"
"23209919","Sudhagen, Hagen, Lippstädter Str.",8.5107,51.73833,"de:5774:9919"
"23208306","Haaren (Kr PB), Grundschule",8.7257,51.56676,"de:5774:8306"
"23208206","Haaren (Kr PB), Volksbank",8.72765,51.56812,"de:5774:8206"
"23208610","Paderborn, Gleiwitzer Straße",8.73816,51.70531,"de:5774:8610"
"23209921","Hagen (Delbrück), Timmermann",8.50338,51.7362,"de:5774:9921"
"23208366","Haaren (Kr PB), Kirche",8.72674,51.56677,"de:5774:8366"
"23207572","Sudhagen, Lindenhof",8.51476,51.74025,"de:5774:7572"
"23207821","Nieheim, Abzw. Eversen",9.10592,51.81193,"de:5762:7821"
"23207534","Elsen (Paderborn), Schrieweshof",8.69107,51.73398,"de:5774:7534"
"23207867","Elsen (Paderborn), Bohlenweg",8.6812,51.73793,"de:5774:7867"
"23207780","Marienmünster, Altenbergen, Mitte",9.24392,51.79345,"de:5762:7780"
"23240255","Sudhagen, Schäferweg",8.52645,51.74417,"de:5774:40255"
"23209680","Hagen (Delbrück), Gastliches Dorf",8.49354,51.73337,"de:5774:9680"
"23207875","Elsen (Paderborn), Ostallee",8.70373,51.72937,"de:5774:7875"
"23208369","Anreppen, Waldweg",8.59965,51.75273,"de:5774:8369"
"23209916","Sudhagen, Sudhagen, Blienert",8.49374,51.73409,"de:5774:9916"
"23207680","Fürstenau (Höxter), Am Schlöpen",9.33148,51.81304,"de:5762:7680"
"23207870","Elsen (Paderborn), Gasthof Zur Heide",8.67768,51.74024,"de:5774:7870"
"23208204","Haaren (Kr PB), Bürener Straße",8.72566,51.56381,"de:5774:8204"
"23207837","Nieheim, Emmerbrücke",9.08945,51.8224,"de:5762:7837"
"23207880","Elsen (Paderborn), Verner Straße",8.69729,51.73301,"de:5774:7880"
"23240074","Heddinghausen/Delbr., Leste",8.61468,51.75248,"de:5774:40074"
"23208711","Gesseln, Karl-Arnold-Straße",8.67075,51.74286,"de:5774:8711"
"23208373","Hegensdorf, Kirche",8.62862,51.52999,"de:5774:8373"
"23208363","Nieheim, Baumarkt",9.12872,51.80761,"de:5762:8363"
"23207836","Nieheim, Abzw. Oeynhausen",9.08057,51.82787,"de:5762:7836"
"23207828","Nieheim, Ziegelei",9.1259,51.81222,"de:5762:7828"
"23208640","Elsen (Paderborn), Am Almerfeld",8.70497,51.73042,"de:5774:8640"
"23208207","Haaren (Kr PB), Fürstenberger Straße",8.72728,51.5636,"de:5774:8207"
"23207874","Elsen (Paderborn), Mühlenteichstraße",8.6742,51.74239,"de:5774:7874"
"23208374","Haaren (Kr PB), Friedhof",8.73059,51.56582,"de:5774:8374"
"23209930","Westenholz (Kr PB), Breimhorst",8.47949,51.72929,"de:5774:9930"
"23207679","Bödexen, Wendeplatz",9.34767,51.831,"de:5762:7679"
"23207575","Sudhagen, Timmerdamm",8.54142,51.74999,"de:5774:7575"
"23207876","Elsen (Paderborn), Sander Straße",8.67102,51.74433,"de:5774:7876"
"23209954","Westenholz (Kr PB), Roxlau",8.47493,51.72796,"de:5774:9954"
"23207687","Fürstenau (Höxter), Fahrenkamp",9.32781,51.82215,"de:5762:7687"
"23208611","Paderborn, Leonardstraße",8.74065,51.71053,"de:5774:8611"
"23207872","Elsen (Paderborn), Gesamtschule",8.68286,51.74151,"de:5774:7872"
"23208050","Eichholz (Steinheim), Abzw. Siedlung",9.0773,51.83944,"de:5762:8050"
"23208326","Eichholz (Steinheim), Eichholz Mitte",9.07708,51.84171,"de:5762:8326"
"23207808","Entrup (Kr HX), Abzweig",9.13648,51.81617,"de:5762:7808"
"23207573","Sudhagen, Schule",8.51095,51.74442,"de:5774:7573"
"23207787","Marienmünster, Bremerberg",9.2745,51.80996,"de:5762:7787"
"23208635","Elsen (Paderborn), Arena/Almeaue",8.71415,51.72949,"de:5774:8635"
"23240284","Sudhagen, Kiebitzweg",8.52628,51.7489,"de:5774:40284"
"23240278","Hagen (Delbrück), Brinkmann",8.47118,51.72857,"de:5774:40278"
"23209931","Westenholz (Kr PB), Brückenweg",8.46479,51.72504,"de:5774:9931"
"23240594","Paderborn, Im Lohfeld",8.73122,51.71998,"de:5774:40594"
"23207677","Bödexen, Gasthaus Buch",9.34309,51.83408,"de:5762:7677"
"23207786","Bredenborn, Sundernhof",9.16574,51.81012,"de:5762:7786"
"23207590","Delbrück, Lange Kamp",8.57345,51.75676,"de:5774:7590"
"23240523","Sudhagen, Wendeplatz",8.50998,51.74545,"de:5774:40523"
"23241003","Delbrück, Jakobstraße",8.56456,51.75623,"de:5774:41003"
"23207577","Heddinghausen/Delbr., Kreuzmeer 2",8.62682,51.75593,"de:5774:7577"
"23208636","Paderborn, Schulstraße",8.73741,51.71676,"de:5774:8636"
"23240531","Bredenborn, Schule",9.18769,51.80771,"de:5762:40531"
"23207813","Externbrock, Externbrock",9.1454,51.81594,"de:5762:7813"
"23207580","Delbrück, Laumeskamp",8.56244,51.75664,"de:5774:7580"
"23240075","Delbrück, Heddinghausen, Lesterweg",8.61565,51.75771,"de:5774:40075"
"23240130","Sudhagen, Friedhofsweg",8.51942,51.74946,"de:5774:40130"
"23207873","Elsen (Paderborn), Mittelweg",8.68539,51.74446,"de:5774:7873"
"23241004","Delbrück, Schlaunstraße",8.57047,51.75823,"de:5774:41004"
"23240601","Elsen (Paderborn), Stedener Feld",8.72057,51.72942,"de:5774:40601"
"23208874","Bredenborn, Bornholz",9.16985,51.81075,"de:5762:8874"
"23240304","Hegensdorf, Forsthaus",8.62756,51.52372,"de:5774:40304"
"23208997","Heddinghausen/Delbr., Hellenkamp",8.63282,51.75727,"de:5774:8997"
"23240595","Paderborn, Riemeker Feld",8.73194,51.72353,"de:5774:40595"
"23208885","Bredenborn, Sundern",9.17226,51.81135,"de:5762:8885"
"23209708","Delbrück, Habichtsweg",8.54855,51.75676,"de:5774:9708"
"23240036","Delbrück, Stadion Laumeskamp",8.56273,51.75876,"de:5774:40036"
"23207535","Elsen (Paderborn), Mentropstraße",8.6937,51.74355,"de:5774:7535"
"23207536","Siddinghausen(Kr PB), Mühlenberg",8.52932,51.5274,"de:5774:7536"
"23208623","Paderborn, Jahnstraße",8.738,51.7209,"de:5774:8623"
"23209918","Sudhagen, Heustraße",8.52607,51.75353,"de:5774:9918"
"23207926","Sande (Paderborn), Hohe Kamp",8.66641,51.7524,"de:5774:7926"
"23209928","Westenholz (Kr PB), Beine",8.44754,51.72008,"de:5774:9928"
"23207785","Bredenborn, Post",9.18292,51.81026,"de:5762:7785"
"23240355","Bredenborn, Zum Bollkasten",9.19485,51.80911,"de:5762:40355"
"23240272","Sudhagen, Sandtünsweg",8.48926,51.74386,"de:5774:40272"
"23207784","Bredenborn, Pastorat",9.18632,51.81012,"de:5762:7784"
"23240072","Heddinghausen/Delbr., Wiesengrund",8.63142,51.76044,"de:5774:40072"
"23207689","Fürstenau (Höxter), Post",9.32164,51.82845,"de:5762:7689"
"23240518","Fürstenau (Höxter), Kirche",9.32011,51.82925,"de:5762:40518"
"23207581","Anreppen, Linnenstr",8.6051,51.76275,"de:5774:7581"
"23207582","Leste, Lesterweg 1",8.6155,51.76228,"de:5774:7582"
"23207678","Bödexen, Bödexen Mitte",9.3362,51.83746,"de:5762:7678"
"23209707","Delbrück, Gewerbegebiet West",8.54663,51.7595,"de:5774:9707"
"23207802","Vörden (Kr HX), Bredenborner Weg",9.2205,51.81168,"de:5762:7802"
"23208267","Delbrück, Flußbrücke",8.59148,51.76332,"de:5774:8267"
"23207576","Heddinghausen/Delbr., Kreuzmeer 1",8.6258,51.76186,"de:5774:7576"
"23208450","Delbrück, Lange Straße",8.5539,51.76108,"de:5774:8450"
"23207688","Fürstenau (Höxter), Gasthaus Schmitz",9.31994,51.83137,"de:5762:7688"
"23209955","Westenholz (Kr PB), Schotwiese",8.46977,51.73676,"de:5774:9955"
"23207928","Sande (Paderborn), Nesthausen",8.68725,51.74923,"de:5774:7928"
"23240166","Delbrück, Wiesengrund (B64)",8.6314,51.76165,"de:5774:40166"
"23208941","Delbrück, Liboristraße",8.55407,51.76146,"de:5774:8941"
"23240269","Sudhagen, Hills",8.50116,51.74988,"de:5774:40269"
"23207788","Marienmünster, Eilversen",9.2517,51.81407,"de:5762:7788"
"23209933","Westenholz (Kr PB), Bungalow",8.43984,51.71895,"de:5774:9933"
"23208452","Delbrück, Oststraße",8.57202,51.76338,"de:5774:8452"
"23207801","Vörden (Kr HX), Umspannwerk",9.22343,51.81448,"de:5762:7801"
"23241005","Delbrück, Stadthalle",8.56417,51.76285,"de:5774:41005"
"23240261","Sudhagen, Schlinger Str.",8.50871,51.75245,"de:5774:40261"
"23209967","Sudhagen, Beckeringsdamm",8.53108,51.75819,"de:5774:9967"
"23207864","Elsen (Paderborn), Auf dem Sandfelde",8.6945,51.7476,"de:5774:7864"
"23207578","Heddinghausen/Delbr., Ludwigskrug",8.63878,51.76134,"de:5774:7578"
"23241006","Delbrück, Weststadt",8.54946,51.76145,"de:5774:41006"
"23207519","Siddinghausen(Kr PB), Ort",8.53132,51.52304,"de:5774:7519"
"23207953","Schloß Neuhaus (PB), Münsterstr",8.70895,51.74191,"de:5774:7953"
"23241002","Delbrück, Himmelreich",8.55893,51.76271,"de:5774:41002"
"23207571","Delbrück, Stadtverwaltung",8.55825,51.76273,"de:5774:7571"
"23240037","Delbrück, Waßmannsweg",8.57597,51.76425,"de:5774:40037"
"23207951","Schloß Neuhaus (PB), Merschweg",8.70285,51.74474,"de:5774:7951"
"23207927","Sande (Paderborn), Sande Kirche",8.66158,51.75749,"de:5774:7927"
"23207568","Delbrück, Lohmann",8.56651,51.76374,"de:5774:7568"
"23240522","Sudhagen, Hagenbrock",8.48327,51.74431,"de:5774:40522"
"23207935","Schloß Neuhaus (PB), Almering",8.70716,51.74322,"de:5774:7935"
"23240270","Sudhagen, Ecke Rohlingsweg",8.49037,51.74765,"de:5774:40270"
"23208859","Delbrück, Friedhof",8.56776,51.76446,"de:5774:8859"
"23208731","Sande (Paderborn), Sande Friedhof",8.65612,51.75938,"de:5774:8731"
"23207809","Entrup (Kr HX), Kirche",9.14395,51.82668,"de:5762:7809"
"23207570","Delbrück, Stadtmitte",8.56094,51.76414,"de:5774:7570"
"23208214","Leiberg (Kr PB), Köpke",8.64321,51.51924,"de:5774:8214"
"23208384","Leiberg (Kr PB), Kl Trift",8.65946,51.52225,"de:5774:8384"
"23207518","Siddinghausen(Kr PB), Mühle",8.53614,51.5205,"de:5774:7518"
"23240295","Delbrück, V-Stauffenberg-Str.",8.57902,51.76596,"de:5774:40295"
"23207942","Schloß Neuhaus (PB), Fürstenallee",8.72078,51.73857,"de:5774:7942"
"23207800","Vörden (Kr HX), Busbahnhof",9.23181,51.81898,"de:5762:7800"
"23207929","Sande (Paderborn), Ostenländer Str",8.65999,51.75952,"de:5774:7929"
"23207925","Sande (Paderborn), Hagebuttenweg",8.65144,51.76124,"de:5774:7925"
"23208860","Siddinghausen(Kr PB), Drostenberg",8.53099,51.52099,"de:5774:8860"
"23207936","Schloß Neuhaus (PB), An der Kapelle",8.72443,51.7372,"de:5774:7936"
"23240253","Delbrück, Am Rothebach",8.63627,51.76392,"de:5774:40253"
"23240483","Delbrück, Marktstraße",8.55984,51.76499,"de:5774:40483"
"23208942","Delbrück, Grassostraße",8.5529,51.76422,"de:5774:8942"
"23207949","Schloß Neuhaus (PB), Marienloher Straße",8.71644,51.74162,"de:5774:7949"
"23209360","Sande (Paderborn), Anemonenweg",8.659,51.76064,"de:5774:9360"
"23240689","Schloß Neuhaus (PB), Emilie-Rosenthal-Weg",8.71528,51.74246,"de:05774:40689"
"23207931","Sande (Paderborn), Sande Schule",8.66811,51.75869,"de:5774:7931"
"23208215","Leiberg (Kr PB), Oberdorf",8.65254,51.51931,"de:5774:8215"
"23207954","Schloß Neuhaus (PB), Padersee",8.73177,51.73466,"de:5774:7954"
"23207959","Schloß Neuhaus (PB), Schloß Neuhaus",8.71316,51.74434,"de:5774:7959"
"23207812","Eversen (Kr HX), Kirche",9.12484,51.83696,"de:5762:7812"
"23207567","Delbrück, Im Tegetfeld",8.55127,51.76563,"de:5774:7567"
"23207566","Delbrück, Von-Galen-Straße",8.56539,51.76722,"de:5774:7566"
"23208315","Delbrück, Schulzentrum",8.5599,51.76672,"de:5774:8315"
"23208751","Paderborn, Freibad/Schützenplatz",8.74416,51.72823,"de:5774:8751"
"23208614","Paderborn, Ferrariweg",8.74149,51.72999,"de:5774:8614"
"23209677","Delbrück, Bahnweg",8.56999,51.76783,"de:5774:9677"
"23207526","Weiberg (Büren/PB), Volbrexener Straße",8.594,51.51261,"de:5774:7526"
"23208318","Nordhagen, Auf dem Busche",8.52172,51.7607,"de:5774:8318"
"23208865","Delbrück, Zum langen Kreuz",8.57283,51.76832,"de:5774:8865"
"23207923","Sande (Paderborn), Dirksfeld",8.66523,51.76117,"de:5774:7923"
"23207565","Delbrück, Busbahnhof",8.56252,51.76763,"de:5774:7565"
"23208642","Schloß Neuhaus (PB), Schillerstr",8.72143,51.74202,"de:5774:8642"
"23240027","Delbrück, Birkenweg",8.59122,51.7693,"de:5774:40027"
"23208641","Sande (Paderborn), Lippesee",8.67289,51.75982,"de:5774:8641"
"23240031","Delbrück, Hubertusstr.",8.54869,51.76662,"de:5774:40031"
"23207574","Sudhagen, Tegethoff",8.50762,51.75813,"de:5774:7574"
"23240591","Sande (Paderborn), Karl-Korthaus-Straße",8.66073,51.76291,"de:5774:40591"
"23207878","Sande (Paderborn), Sunderkampstr",8.65236,51.76462,"de:5774:7878"
"23240185","Leiberg (Kr PB), Leiberg,  Zur Heide",8.65826,51.51786,"de:5774:40185"
"23208866","Delbrück, Dietrich-Bonhoeffer-Straße",8.57428,51.76941,"de:5774:8866"
"23208972","Weiberg (Büren/PB), Birkenweg",8.59527,51.51116,"de:5774:8972"
"23241001","Delbrück, Friedrichstraße",8.55106,51.76775,"de:5774:41001"
"23208213","Leiberg (Kr PB), Bruch",8.66112,51.51767,"de:5774:8213"
"23240032","Delbrück, Kiefernweg",8.59493,51.7707,"de:5774:40032"
"23207943","Schloß Neuhaus (PB), Hatzfelder Platz",8.71496,51.74749,"de:5774:7943"
"23207569","Delbrück, Nordring",8.56107,51.76973,"de:5774:7569"
"23207922","Sande (Paderborn), Boker Kanal",8.64968,51.76672,"de:5774:7922"
"23240029","Delbrück, Hallenbad",8.55413,51.76931,"de:5774:40029"
"23209952","Westenholz (Kr PB), Rieger Straße",8.4696,51.74666,"de:5774:9952"
"23208066","Steinheim (Westf), Krankenhaus",9.09109,51.85681,"de:5762:8066"
"23208631","Schloß Neuhaus (PB), Bentelerstr",8.72695,51.74257,"de:5774:8631"
"23208639","Schloß Neuhaus (PB), Amtsweg",8.71032,51.75067,"de:5774:8639"
"23207941","Schloß Neuhaus (PB), Fischerkamp",8.71678,51.74832,"de:5774:7941"
"23209929","Westenholz (Kr PB), Borgmeier",8.49892,51.75891,"de:5774:9929"
"23208220","Bad Wünnenberg, Plümpe",8.68395,51.52074,"de:5774:8220"
"23209356","Delbrück, Gewerbegebiet Ost 2",8.58258,51.77287,"de:5774:9356"
"23208625","Schloß Neuhaus (PB), Am Thunhof",8.70539,51.75385,"de:5774:8625"
"23208632","Schloß Neuhaus (PB), Abzw. Fischteiche",8.73166,51.74312,"de:5774:8632"
"23208909","Delbrück, Hoher Weg",8.56432,51.77287,"de:5774:8909"
"23208219","Bad Wünnenberg, Sonnenhof",8.69585,51.52313,"de:5774:8219"
"23240312","Schloß Neuhaus (PB), Pb-Schloß Neuhaus, Bahnhof",8.72092,51.74929,"de:5774:40312"
"23207609","Westenholz (Kr PB), Abzw. Nordhagen",8.48774,51.75785,"de:5774:7609"
"23208630","Sande (Paderborn), Hermann-Löns-Stadion",8.7003,51.75784,"de:5774:8630"
"23207791","Marienmünster, Mitte",9.27261,51.82569,"de:5762:7791"
"23207593","Ostenland, Bahnhof",8.63424,51.77304,"de:5774:7593"
"23240091","Delbrück, Walde",8.54428,51.77186,"de:5774:40091"
"23209947","Westenholz (Kr PB), Marienkirche",8.44177,51.737,"de:5774:9947"
"23208943","Westenholz (Kr PB), Hessenweg",8.46992,51.75182,"de:5774:8943"
"23240571","Hohehaus, Hohehaus, Siedlung",9.27579,51.82641,"de:5762:40571"
"23207964","Schloß Neuhaus (PB), Waldlust",8.71656,51.75251,"de:5774:7964"
"23209923","Nordhagen, Alte Realschule",8.52237,51.76859,"de:5774:9923"
"23209953","Westenholz (Kr PB), Rolf",8.48792,51.75935,"de:5774:9953"
"23207948","Schloß Neuhaus (PB), Kaiser-Heinrich-Straße",8.73142,51.7461,"de:5774:7948"
"23207805","Eversen (Kr HX), Schule",9.12802,51.83712,"de:5762:7805"
"23240587","Westenholz (Kr PB), Mühlenheider S",8.44565,51.74061,"de:5774:40587"
"23240131","Ostenland, Lohberg",8.60303,51.7763,"de:5774:40131"
"23208217","Bad Wünnenberg, Bonefeld",8.69858,51.52127,"de:5774:8217"
"23240537","Delbrück, Peitzmeyer",8.53489,51.77174,"de:5774:40537"
"23240517","Ostenland, Reksweg",8.61425,51.77615,"de:5774:40517"
"23208868","Delbrück, Industriegebiet Ost",8.58941,51.7768,"de:5774:8868"
"23240642","Bad Wünnenberg, Einkaufszentrum",8.70606,51.52361,"de:5774:40642"
"23240306","Westenholz (Kr PB), Heipenweg",8.43771,51.73665,"de:5774:40306"
"23208367","Bad Wünnenberg, Schäferstraße",8.69726,51.52047,"de:5774:8367"
"23209932","Westenholz (Kr PB), Brunnert",8.45674,51.74726,"de:5774:9932"
"23208906","Westenholz (Kr PB), Suternstraße",8.46794,51.75256,"de:5774:8906"
"23209852","Steinheim (Westf), Freiligrathstr.",9.07488,51.8726,"de:5762:9852"
"23209926","Nordhagen, Klinkerzentrale",8.52978,51.7717,"de:5774:9926"
"23240097","Vörden (Kr HX), Gewerbegebiet",9.24527,51.82502,"de:5762:40097"
"23209940","Westenholz (Kr PB), HKG-Profile",8.44978,51.7445,"de:5774:9940"
"23207940","Schloß Neuhaus (PB), Dubelohstr",8.72467,51.75122,"de:5774:7940"
"23240260","Delbrück, Abzw. Kiefernweg",8.59402,51.77782,"de:5774:40260"
"23209847","Steinheim (Westf), Frankenstraße",9.08517,51.86946,"de:5762:9847"
"23208218","Bad Wünnenberg, Ebbers",8.70441,51.52187,"de:5774:8218"
"23208904","Westenholz (Kr PB), Schule",8.47101,51.75488,"de:5774:8904"
"23240645","Bad Wünnenberg, Zinsdorfer Weg",8.71158,51.52453,"de:5774:40645"
"23240643","Bad Wünnenberg, Grabenstraße",8.70147,51.5206,"de:5774:40643"
"23209050","Bad Wünnenberg, Kurhaus",8.69979,51.52002,"de:5774:9050"
"23207957","Schloß Neuhaus (PB), Schatenweg",8.72954,51.74956,"de:5774:7957"
"23208644","Sande (Paderborn), Sennelagerstraße",8.69009,51.76489,"de:5774:8644"
"23240030","Delbrück, Helfgerdt",8.53512,51.77375,"de:5774:40030"
"23241008","Westenholz (Kr PB), Schwester-Bonavita-Platz",8.47278,51.75687,"de:5774:41008"
"23207979","Stadtheide, Haustenbecker Straße",8.74982,51.73962,"de:5774:7979"
"23207611","Westenholz (Kr PB), Kirche",8.47049,51.75651,"de:5774:7611"
"23240672","Bad Wünnenberg, Bad Wünnenberg, Stadtring",8.69662,51.51725,"de:5774:40672"
"23207932","Schloß Neuhaus (PB), Adenauerring",8.71802,51.7564,"de:5774:7932"
"23207952","Schloß Neuhaus (PB), Mozartstr",8.72276,51.75445,"de:5774:7952"
"23207983","Stadtheide, Wilseder Weg",8.74902,51.74129,"de:5774:7983"
"23208907","Westenholz (Kr PB), Malvenweg",8.46836,51.7562,"de:5774:8907"
"23240177","Bad Wünnenberg, Burgstr.",8.6973,51.51687,"de:5774:40177"
"23209796","Steinheim (Westf), Windtor",9.09255,51.86341,"de:5762:9796"
"23209051","Bad Wünnenberg, Aatal-Klinik",8.7015,51.51803,"de:5774:9051"
"23207517","Ringelstein, Ringelstein Ort",8.57258,51.50127,"de:5774:7517"
"23208305","Löwendorf (Kr HX), Saumer",9.29963,51.83869,"de:5762:8305"
"23240092","Delbrück, Westerrellerhof",8.58413,51.78064,"de:5774:40092"
"23240590","Mastbruch, Husarenstraße West",8.72047,51.75671,"de:5774:40590"
"23209816","Westenholz (Kr PB), Bogenweg",8.44627,51.74689,"de:5774:9816"
"23207612","Westenholz (Kr PB), Krokusweg",8.46746,51.75734,"de:5774:7612"
"23208973","Ringelstein, Eichenweg",8.57076,51.50068,"de:5774:8973"
"23207592","Nordhagen, Neukirch",8.52701,51.77509,"de:5774:7592"
"23240513","Westenholz (Kr PB), Knäppenstraße",8.46682,51.75742,"de:5774:40513"
"23240089","Delbrück, Laake",8.55812,51.77972,"de:5774:40089"
"23207938","Talle (Paderborn), Biberweg",8.74333,51.7467,"de:5774:7938"
"23209924","Nordhagen, Beringmeier",8.52182,51.77465,"de:5774:9924"
"23209942","Westenholz (Kr PB), Im Kuhlen",8.48446,51.76463,"de:5774:9942"
"23207966","Schloß Neuhaus (PB), Wilhelmsberg",8.71882,51.75897,"de:5774:7966"
"23207905","Mastbruch, Schule",8.73545,51.75155,"de:5774:7905"
"23207906","Mastbruch, Mastbruch Siedlung",8.73666,51.75122,"de:5774:7906"
"23208908","Westenholz (Kr PB), Hansel",8.46372,51.75725,"de:5774:8908"
"23207933","Schloß Neuhaus (PB), Albert-Schweitzer-Straße",8.72482,51.75775,"de:5774:7933"
"23240589","Mastbruch, Reiterpfad",8.71961,51.75999,"de:5774:40589"
"23207986","Talle (Paderborn), TÜV",8.74751,51.74691,"de:5774:7986"
"23209922","Nordhagen, Alte Grundschule",8.50884,51.77339,"de:5774:9922"
"23240681","Bad Wünnenberg, Schöne Aussicht",8.69903,51.51355,"de:5774:40681"
"23208332","Nordhagen, Birkenkamp",8.50103,51.7717,"de:5774:8332"
"23207903","Mastbruch, Mastbruch Gaststätte",8.73343,51.7547,"de:5774:7903"
"23208348","Bad Wünnenberg, Schwimmbad",8.70335,51.51459,"de:5774:8348"
"23209941","Westenholz (Kr PB), Höber",8.46111,51.7582,"de:5774:9941"
"23240176","Bad Wünnenberg, Kreisel",8.69616,51.51145,"de:5774:40176"
"23207614","Westenholz (Kr PB), Peitz",8.43997,51.74901,"de:5774:7614"
"23209925","Nordhagen, Böger",8.49074,51.77011,"de:5774:9925"
"23207937","Schloß Neuhaus (PB), Bahnkreuzung",8.7189,51.76241,"de:5774:7937"
"23207939","Mastbruch, Dietrichstraße",8.73206,51.75714,"de:5774:7939"
"23240680","Bad Wünnenberg, Mordian-Loer-Weg",8.69899,51.51128,"de:5774:40680"
"23209936","Westenholz (Kr PB), Grasweg",8.46929,51.76388,"de:5774:9936"
"23240514","Westenholz (Kr PB), Baumweg",8.44211,51.7519,"de:5774:40514"
"23207971","Sennelager, Stiller Winkel",8.7088,51.76798,"de:5774:7971"
"23207969","Sennelager, Gartenstadt",8.71115,51.76739,"de:5774:7969"
"23240682","Bad Wünnenberg, Oberstadt",8.69829,51.50923,"de:5774:40682"
"23207945","Mastbruch, Husarenstr",8.73004,51.7605,"de:5774:7945"
"23209913","Delbrück, Schöning, Am Sprockhof",8.51471,51.77947,"de:5774:9913"
"23207962","Schloß Neuhaus (PB), Thunebrücke",8.71824,51.76621,"de:5774:7962"
"23207904","Mastbruch, Habichtsweg",8.72687,51.76284,"de:5774:7904"
"23207617","Westenholz (Kr PB), Schroeder",8.44171,51.75429,"de:5774:7617"
"23208622","Mastbruch, Fasanenweg",8.72453,51.7642,"de:5774:8622"
"23207618","Westenholz (Kr PB), Stallein",8.45126,51.75954,"de:5774:7618"
"23207970","Sennelager, Mömmenweg",8.71114,51.76986,"de:5774:7970"
"23207960","Mastbruch, Sperberweg",8.72519,51.76603,"de:5774:7960"
"23209028","Sennelager, Bahnhof Sennelager",8.71403,51.77031,"de:5774:9028"
"23207615","Westenholz (Kr PB), Roseneck",8.43968,51.75653,"de:5774:7615"
"23207944","Sennelager, Hauptwache",8.71581,51.77053,"de:5774:7944"
"23207968","Sennelager, Einsteinstr",8.71052,51.77261,"de:5774:7968"
"23208333","Fürstenberg (Kr PB), Schulzentrum",8.74038,51.52012,"de:5774:8333"
"23209943","Westenholz (Kr PB), Kersting",8.47883,51.77391,"de:5774:9943"
"23208200","Fürstenberg (Kr PB), Brücke",8.73237,51.51622,"de:5774:8200"
"23208202","Fürstenberg (Kr PB), Siedlung",8.74152,51.51938,"de:5774:8202"
"23208621","Mastbruch, Lerchenweg",8.72797,51.76797,"de:5774:8621"
"23209951","Westenholz (Kr PB), Ottensdamm",8.46245,51.77011,"de:5774:9951"
"23207956","Sennelager, Salvatorstr",8.71389,51.77435,"de:5774:7956"
"23208201","Fürstenberg (Kr PB), Kirche",8.73965,51.51615,"de:5774:8201"
"23207955","Sennelager, Pionierweg",8.71193,51.77757,"de:5774:7955"
"23208377","Fürstenberg (Kr PB), Kesselbach",8.73737,51.51322,"de:5774:8377"
"23208378","Fürstenberg (Kr PB), Fürstenberg Mitte",8.74097,51.51432,"de:5774:8378"
"23209956","Westenholz (Kr PB), Spechtweg",8.47441,51.77841,"de:5774:9956"
"23209935","Westenholz (Kr PB), Geflügel Schulte",8.46316,51.77444,"de:5774:9935"
"23240258","Westenholz (Kr PB), Holzförster",8.48093,51.78072,"de:5774:40258"
"23207947","Sennelager, Infanterieweg",8.7101,51.78098,"de:5774:7947"
"23240679","Bad Wünnenberg, B. W-Fürstenberg, Hedderhagen",8.74811,51.51479,"de:5774:40679"
"23209957","Westenholz (Kr PB), Strathaus",8.47444,51.78101,"de:5774:9957"
"23209927","Westenholz (Kr PB), Adlerweg",8.46474,51.77913,"de:5774:9927"
"23208203","Fürstenberg (Kr PB), Wasserplatz",8.74485,51.5105,"de:5774:8203"
"23208238","Fürstenberg (Kr PB), Schützenhalle",8.74255,51.50915,"de:5774:8238"
"23208248","Fürstenberg (Kr PB), Feriendorf",8.749,51.50727,"de:5774:8248"
"23208063","Steinheim (Westf), Bahnhof",9.08915,51.8684,"de:5762:8063"
"23240070","Steinhorst/Delbrück, Thielemeyer",8.56562,51.82867,"de:5774:40070"
"23240066","Delbrück, Steinhorst, Krukemmeier",8.56032,51.82459,"de:5774:40066"
"23240069","Steinhorst/Delbrück, Ringkamp",8.5391,51.81566,"de:5774:40069"
"23240064","Steinhorst/Delbrück, Figgenweg",8.54906,51.81827,"de:5774:40064"
"23240065","Steinhorst/Delbrück, Kindergarten",8.55716,51.81724,"de:5774:40065"
"23207606","Steinhorst/Delbrück, Lager",8.56902,51.82413,"de:5774:7606"
"23208067","Steinheim (Westf), Neue Straße",9.09297,51.86559,"de:5762:8067"
"23240048","Lippling, Kuckucksweg",8.53421,51.80622,"de:5774:40048"
"23207589","Lippling, Mertens",8.5266,51.8044,"de:5774:7589"
"23240217","Delbrück, Dübeler",8.5423,51.80645,"de:5774:40217"
"23207662","Espeln, Mühle",8.58373,51.82321,"de:5774:7662"
"23240053","Lippling, Schledde",8.51988,51.80055,"de:5774:40053"
"23240049","Lippling, Möller Flex",8.561,51.80534,"de:5774:40049"
"23208069","Steinheim (Westf), Wallstraße",9.09462,51.86429,"de:5762:8069"
"23207587","Lippling, Büsing",8.53767,51.79908,"de:5774:7587"
"23240059","Schöning, Diekmann",8.51286,51.79735,"de:5774:40059"
"23207607","Lippling, Pollkläsener",8.55931,51.8045,"de:5774:7607"
"23209314","Schöning, Ehler",8.5223,51.79715,"de:5774:9314"
"23240050","Lippling, Mondscheinsknapp",8.57136,51.80913,"de:5774:40050"
"23207661","Espeln, Kirche",8.59282,51.82129,"de:5774:7661"
"23207604","Schöning, Menke",8.52672,51.79545,"de:5774:7604"
"23207584","Lippling, Abzw. Steinhorst",8.55883,51.79962,"de:5774:7584"
"23208330","Steinheim (Westf), Schulzentrum",9.08349,51.87482,"de:5762:8330"
"23208902","Schöning, Tierpark",8.50747,51.79222,"de:5774:8902"
"23208979","Lippling, Kirche",8.55321,51.7967,"de:5774:8979"
"23240051","Ostenland, Nolten Mühle",8.5838,51.80909,"de:5774:40051"
"23240054","Lippling, Schule",8.55191,51.79584,"de:5774:40054"
"23208980","Schöning, Hoppenmeer",8.50057,51.78929,"de:5774:8980"
"23240057","Lippling, Timmer",8.56082,51.79331,"de:5774:40057"
"23208901","Schöning, Wendeplatz",8.49772,51.7879,"de:5774:8901"
"23209915","Schöning, Mitte",8.49637,51.78757,"de:5774:9915"
"23209301","Ostenland, Appelkrug",8.59281,51.80682,"de:5774:9301"
"23207586","Lippling, Böddeker",8.55944,51.79144,"de:5774:7586"
"23240063","Schöning, Westermeier",8.48867,51.78607,"de:5774:40063"
"23209911","Delbrück, Schöning, Alter Postweg",8.51245,51.78295,"de:5774:9911"
"23240062","Schöning, Morfeld",8.47906,51.7844,"de:5774:40062"
"23240061","Schöning, Kersting",8.47154,51.78291,"de:5774:40061"
"23209846","Steinheim (Westf), Friedhof",9.08846,51.87194,"de:5762:9846"
"23208068","Steinheim (Westf), Rochusstraße",9.09399,51.86728,"de:5762:8068"
"23208260","Steinheim (Westf), F-W-Weber-Schule",9.09462,51.868,"de:5762:8260"
"23207667","Hövelhof, Emsquellen",8.68799,51.8538,"de:5774:7667"
"23208158","Steinheim (Westf), Rosentalstraße",9.09665,51.86626,"de:5762:8158"
"23208062","Steinheim (Westf), Lindenpark",9.08699,51.87627,"de:5762:8062"
"23240616","Hövelriege, Mühlenweg",8.65255,51.83787,"de:5774:40616"
"23208065","Steinheim (Westf), Höxterstraße",9.09842,51.86683,"de:5762:8065"
"23208328","Steinheim (Westf), Nachbarschaftszentrum",9.09448,51.87054,"de:5762:8328"
"23240292","Steinheim (Westf), Lipper Tor",9.0865,51.87966,"de:5762:40292"
"23207797","Marienmünster, Abtei",9.21081,51.83193,"de:5762:7797"
"23208327","Steinheim (Westf), Grundschule",9.09817,51.87109,"de:5762:8327"
"23240519","Marienmünster, Großenbreden Mitte",9.24993,51.8344,"de:5762:40519"
"23207796","Löwendorf (Kr HX), Löwendorf",9.28452,51.84294,"de:5762:7796"
"23207789","Marienmünster, Großenbr. Wendeplatz",9.24617,51.83527,"de:5762:7789"
"23240163","Steinheim (Westf), Scholl",9.12258,51.85684,"de:5762:40163"
"23208057","Rolfzen, Rolfzen Mitte",9.14433,51.84683,"de:5762:8057"
"23240619","Hövelhof, Am Friedhof",8.65304,51.8304,"de:5774:40619"
"23240620","Hövelhof, Otto-Hahn-Straße",8.64792,51.83207,"de:5774:40620"
"23207798","Marienmünster, Münsterbrock",9.19413,51.83618,"de:5762:7798"
"23240609","Rolfzen, Kirche",9.14508,51.84766,"de:5762:40609"
"23208070","Steinheim (Westf), Thienhausen, Abzweig",9.12921,51.85521,"de:5762:8070"
"23207835","Sommersell (Kr HX), Siedlung",9.16978,51.84097,"de:5762:7835"
"23207663","Hövelhof, Friedhof",8.65598,51.8273,"de:5774:7663"
"23240618","Hövelhof, Gehastraße",8.65419,51.82755,"de:5774:40618"
"23208270","Hövelhof, Abzw. Sennestraße",8.68016,51.82545,"de:5774:8270"
"23240621","Hövelhof, Am Holtebach",8.64322,51.83027,"de:5774:40621"
"23208844","Sommersell (Kr HX), Alte Schule",9.17394,51.84025,"de:5762:8844"
"23207834","Sommersell (Kr HX), Post",9.17316,51.84064,"de:5762:7834"
"23220055","Steinheim (Westf), Steinwarts Feld",9.10949,51.8687,"de:5762:20055"
"23207665","Hövelhof, Schulzentrum",8.66904,51.8229,"de:5774:7665"
"23240101","Steinheim (Westf), Bergkampsweg",9.10497,51.87312,"de:5762:40101"
"23208058","Rolfzen, Sommerseller Straße",9.14736,51.84907,"de:5762:8058"
"23240100","Steinheim (Westf), Am Schorrberg",9.10775,51.87487,"de:5762:40100"
"23207799","Marienmünster, Papenhöfen",9.25783,51.8427,"de:5762:7799"
"23240164","Steinheim (Westf), Hagedorner Straße",9.12409,51.86353,"de:5762:40164"
"23240169","Steinheim (Westf), Buchenweg",9.10717,51.87688,"de:5762:40169"
"23207783","Marienmünster, Bönekenberg",9.28626,51.85296,"de:5762:7783"
"23240188","Hövelhof, Bachstraße",8.64487,51.82443,"de:5774:40188"
"23240187","Hövelhof, Dr.-Schmidt-Str.",8.64952,51.82276,"de:5774:40187"
"23207782","Born (Marienmünster), Born",9.19935,51.85147,"de:5762:7782"
"23209223","Hövelhof, Friedensstraße",8.65603,51.81938,"de:5774:9223"
"23207795","Kollerbeck, Über den Höfen",9.24493,51.8523,"de:5762:7795"
"23208053","Hagedorn, Hagedorn Mitte",9.16374,51.85968,"de:5762:8053"
"23240614","Untersenne, Zur Senne",8.70299,51.82352,"de:5774:40614"
"23240190","Hövelhof, Am Biotop",8.67261,51.81688,"de:5774:40190"
"23240698","Nieheim, Kariensiek",9.17396,51.85705,"de:05762:40698"
"23240189","Hövelhof, Sportzentrum",8.64042,51.82128,"de:5774:40189"
"23207793","Kollerbeck, Langenkamp",9.27141,51.86079,"de:5762:7793"
"23240178","Hövelhof, Brandstraße",8.64861,51.81767,"de:5774:40178"
"23240186","Hövelhof, Distelweg",8.64035,51.81954,"de:5774:40186"
"23207792","Kollerbeck, Kollerbeck Ort",9.24012,51.85447,"de:5762:7792"
"23240615","Riege (Hövelhof), Detmolder Straße",8.61245,51.84122,"de:5774:40615"
"23240524","Kollerbeck, Kindergarten",9.24368,51.85619,"de:5762:40524"
"23208052","Hagedorn, Abzw. Kariensiek",9.17124,51.8622,"de:5762:8052"
"23207794","Kollerbeck, Riepenberg",9.23129,51.85781,"de:5762:7794"
"23240707","Bad Lippspringe, Marktplatz",8.82025,51.78212,"de:05774:40707"
"23240695","Staumühle, Kantinenweg",8.71642,51.82177,"de:05774:40695"
"23240700","Bad Lippspringe, Quellenpark",8.82604,51.78386,"de:05774:40700"
"23207820","Merlsheim, Denkmal",9.02514,51.79535,"de:5762:7820"
"23240702","Bad Lippspringe, Heimatstraße",8.8303,51.78368,"de:05774:40702"
"23240701","Bad Lippspringe, Bauhof",8.83535,51.78304,"de:05774:40701"
"23240703","Bad Lippspringe, Beispring/Drosselweg",8.83068,51.78535,"de:05774:40703"
"23240165","Klausheide/Hövelhof, Wiesenweg",8.67107,51.8084,"de:5774:40165"
"23208256","Bad Lippspringe, Triftstraße",8.82247,51.78747,"de:5774:8256"
"23207671","Klausheide/Hövelhof, Kindergarten",8.68007,51.8081,"de:5774:7671"
"23240296","Ostenland, Ab. Im Brande",8.63188,51.81514,"de:5774:40296"
"23240175","Erpentrup, Ringstraße",9.00512,51.79212,"de:5762:40175"
"23240704","Bad Lippspringe, Am Beispring",8.82781,51.78808,"de:05774:40704"
"23240691","Staumühle, ZUE Staumühle",8.72256,51.81835,"de:05774:40691"
"23207670","Klausheide/Hövelhof, Schier",8.67401,51.80577,"de:5774:7670"
"23207830","Oeynhausen (Nieheim), Feuerteich",9.05173,51.81261,"de:5762:7830"
"23208362","Klausheide/Hövelhof, Sägemühlenweg",8.67857,51.80196,"de:5774:8362"
"23209375","Ostenland, Moorweg",8.61996,51.81203,"de:5774:9375"
"23240174","Oeynhausen (Nieheim), Kindergarten",9.05133,51.81317,"de:5762:40174"
"23240094","Delbrück, Mohrenschänke",8.64543,51.80214,"de:5774:40094"
"23240705","Bad Lippspringe, Freibad",8.82465,51.79104,"de:05774:40705"
"23240516","Espeln, Abzw. Kapellenweg",8.60106,51.81908,"de:5774:40516"
"23240045","Delbrück, Rengering",8.6162,51.80925,"de:5774:40045"
"23207831","Oeynhausen (Nieheim), Siedlung",9.05012,51.81567,"de:5762:7831"
"23207669","Klausheide/Hövelhof, Heierweg",8.68727,51.79687,"de:5774:7669"
"23240254","Hövelhof, Heierweg/Siedlung",8.68094,51.79556,"de:5774:40254"
"23240044","Delbrück, Lohuder Weg",8.63828,51.79893,"de:5774:40044"
"23240043","Ostenland, Krietenbrink",8.65321,51.79178,"de:5774:40043"
"23207930","Sande (Paderborn), Peitz",8.69511,51.79234,"de:5774:7930"
"23207598","Ostenland, Schubertstr",8.61737,51.80026,"de:5774:7598"
"23240038","Ostenland, Bauernweg",8.62999,51.79475,"de:5774:40038"
"23208900","Ostenland, Feldstraße",8.61552,51.79921,"de:5774:8900"
"23208899","Ostenland, Biekehöhe",8.61559,51.79689,"de:5774:8899"
"23207924","Sande (Paderborn), Dreihausen",8.70123,51.78872,"de:5774:7924"
"23240040","Ostenland, Grundschule",8.6116,51.79719,"de:5774:40040"
"23240677","Ostenland, Birkenallee",8.64147,51.78803,"de:5774:40677"
"23240041","Ostenland, Hauptschule",8.61139,51.7958,"de:5774:40041"
"23207594","Ostenland, Haupt",8.61287,51.79511,"de:5774:7594"
"23240052","Lippling, Rellerweg",8.59529,51.80313,"de:5774:40052"
"23208898","Ostenland, Feuerwehr",8.61302,51.79353,"de:5774:8898"
"23240536","Delbrück, Sandbrink",8.63581,51.78609,"de:5774:40536"
"23240663","Ostenland, Pater-Meier-Straße",8.61395,51.79131,"de:5774:40663"
"23208897","Bad Lippspringe, Heideweg",8.83194,51.79515,"de:5774:8897"
"23207595","Ostenland, Peitzmeier",8.62874,51.78314,"de:5774:7595"
"23207599","Ostenland, Sportplatz",8.61653,51.78487,"de:5774:7599"
"23207600","Ostenland, Wittendorfer Eck",8.62044,51.78228,"de:5774:7600"
"23240297","Ostenland, Ab. Strothweg",8.61112,51.78405,"de:5774:40297"
"23207829","Oeynhausen (Nieheim), Am Varusberg",9.04841,51.82003,"de:5762:7829"
"23207778","Lichtenau (Westf), Grundsteinheimer Weg",8.87614,51.63556,"de:5774:7778"
"23207776","Lichtenau (Westf), Schulzentrum",8.9017,51.62076,"de:5774:7776"
"23207743","Asseln (Lichtenau), Siedlung",8.93948,51.64414,"de:5774:7743"
"23207771","Iggenhausen (Westf), Iggenhausen",8.89424,51.66059,"de:5774:7771"
"23240572","Grundsteinheim, Auf dem Kleefeld",8.87769,51.65232,"de:5774:40572"
"23207742","Asseln (Lichtenau), Post",8.93517,51.65283,"de:5774:7742"
"23207758","Hakenberg (Kr PB), Hakenberg",8.94156,51.64074,"de:5774:7758"
"23207740","Asseln (Lichtenau), Friedhof",8.93738,51.65124,"de:5774:7740"
"23207757","Grundsteinheim, Schützenhalle",8.87507,51.6524,"de:5774:7757"
"23240303","Lichtenau (Westf), Gewerbegeb. Leibühl",8.88892,51.61993,"de:5774:40303"
"23207739","Asseln (Lichtenau), Abzw. Neuenheerse",8.9364,51.65516,"de:5774:7739"
"23207756","Grundsteinheim, Grundsteinheim Mitte",8.87532,51.65498,"de:5774:7756"
"23208292","Lichtenau (Westf), Torfbruchstr",8.89963,51.61651,"de:5774:8292"
"23207803","Lichtenau (Westf), Stadtmitte",8.89559,51.61696,"de:5774:7803"
"23208506","Asseln (Lichtenau), Stoppelkamsweg",8.93758,51.65641,"de:5774:8506"
"23207755","Grundsteinheim, Ludwigskrug",8.86862,51.64953,"de:5774:7755"
"23207775","Lichtenau (Westf), Brücke",8.8911,51.61728,"de:5774:7775"
"23208268","Lichtenau (Westf), Husener Straße",8.89428,51.61307,"de:5774:8268"
"23207777","Lichtenau (Westf), Grundschule",8.8932,51.61291,"de:5774:7777"
"23209718","Herbram, Kindergarten",8.91763,51.66993,"de:5774:9718"
"23208802","Asseln (Lichtenau), Singermühle",8.94303,51.66029,"de:5774:8802"
"23207741","Asseln (Lichtenau), Hartmühle",8.92837,51.66768,"de:5774:7741"
"23207763","Herbram, Sägewerk",8.92238,51.66952,"de:5774:7763"
"23207762","Herbram, Post",8.9156,51.67216,"de:5774:7762"
"23208801","Herbram, Gasthaus Linde",8.92342,51.67237,"de:5774:8801"
"23209811","Lichtenau (Westf), IABG",8.93299,51.60702,"de:5774:9811"
"23207764","Herbram, Herbram Wald, Heide",8.94507,51.67213,"de:5774:7764"
"23207816","Himmighausen, Fischbach",9.01922,51.80903,"de:5762:7816"
"23240124","Lichtenau (Westf), Bülheim, GutBülheim (Teich)",8.94262,51.60026,"de:5774:40124"
"23207754","Ebbinghausen (Kr PB), Ortberg",8.83475,51.62653,"de:5774:7754"
"23208461","Dörenhagen, Siedlung",8.83903,51.6622,"de:5774:8461"
"23207753","Ebbinghausen (Kr PB), Ebbinghausen Mitte",8.83525,51.62362,"de:5774:7753"
"23207817","Himmighausen, Emmerbrücke",9.0251,51.81152,"de:5762:7817"
"23240662","Holtheim, Hellweg",8.90589,51.59232,"de:5774:40662"
"23207752","Ebbinghausen (Kr PB), Abzweig",8.83344,51.62174,"de:5774:7752"
"23208987","Herbram, Herbram Wald, Wendeplatz",8.9638,51.67455,"de:5774:8987"
"23208164","Himmighausen, Abzw. Kreisstraße",9.00097,51.80393,"de:5762:8164"
"23208962","Ebbinghausen (Kr PB), Niederfeld",8.83483,51.61814,"de:5774:8962"
"23208051","Grevenhagen (Kr Höxter), Kirche",8.97726,51.79809,"de:5762:8051"
"23240105","Lichtenau (Westf), Bülheim, Gut Bülheim (B68)",8.94886,51.59594,"de:5774:40105"
"23240508","Himmighausen, Zum Dockenstiel",9.00725,51.8064,"de:5762:40508"
"23209810","Lichtenau (Westf), Sydow",8.88326,51.59044,"de:5774:9810"
"23207814","Himmighausen, Abzw. Bahnhof",8.99973,51.80405,"de:5762:7814"
"23207750","Bülheim, Gut Bülheim",8.94441,51.59295,"de:5774:7750"
"23207767","Holtheim, Mitteldorf",8.90903,51.58694,"de:5774:7767"
"23208320","Grevenhagen (Kr Höxter), Kreuzung",8.97976,51.8005,"de:5762:8320"
"23208357","Holtheim, Heitmeier",8.93945,51.59079,"de:5774:8357"
"23240351","Dörenhagen, Tankstelle",8.83802,51.67515,"de:5774:40351"
"23208047","Bergheim (Westf), Bahnhof Bergheim",9.05468,51.83064,"de:5762:8047"
"23208048","Bergheim (Westf), Bahnunterführung",9.05722,51.83261,"de:5762:8048"
"23207766","Holtheim, Holtheim Mitte",8.90919,51.5845,"de:5774:7766"
"23208550","Sandebeck, Kloidt",8.99754,51.80598,"de:5762:8550"
"23208049","Bergheim (Westf), Mitte",9.04955,51.83488,"de:5762:8049"
"23208453","Holtheim, Am Südhang",8.9047,51.5823,"de:5774:8453"
"23207859","Dahl (Paderborn), Lülingsberg",8.85705,51.69382,"de:5774:7859"
"23208321","Sandebeck, Landstraße",8.99303,51.81083,"de:5762:8321"
"23207860","Dahl (Paderborn), Pastorskamp",8.84909,51.69392,"de:5774:7860"
"23208324","Bergheim (Westf), Alte Schule",9.04728,51.83473,"de:5762:8324"
"23207861","Dahl (Paderborn), Dahl Post",8.85159,51.69652,"de:5774:7861"
"23240720","Bergheim (Westf), Hömerberg",9.02511,51.82922,"de:05762:40720"
"23240307","Willebadessen, Selle",9.01195,51.6478,"de:5762:40307"
"23208857","Sandebeck, Südstraße",8.98981,51.81874,"de:5762:8857"
"23210082","Sandebeck, Sandebeck",8.98693,51.81855,"de:5762:10082"
"23209892","Willebadessen, Bahnhof",9.01171,51.62212,"de:5762:9892"
"23207770","Husen (Kr PB), Siedlung",8.83496,51.58903,"de:5774:7770"
"23208059","Sandebeck, Gasthaus",8.98723,51.8204,"de:5762:8059"
"23240167","Steinheim (Westf), Lüking",8.99804,51.82404,"de:5762:40167"
"23209793","Sandebeck, Teutoburger-Wald-Straße",8.98211,51.81986,"de:5762:9793"
"23207854","Dahl (Paderborn), Brakenberg",8.84599,51.69837,"de:5774:7854"
"23208338","Kleinenberg (Kr PB), Kindergarten",8.97196,51.58557,"de:5774:8338"
"23207745","Atteln, Birkenhof",8.81368,51.60215,"de:5774:7745"
"23207774","Kleinenberg (Kr PB), Temme",8.97127,51.58403,"de:5774:7774"
"23208359","Husen (Kr PB), Sportplatz",8.83019,51.58946,"de:5774:8359"
"23207855","Dahl (Paderborn), Dahler Heide",8.84262,51.69893,"de:5774:7855"
"23207768","Husen (Kr PB), Kirche",8.82845,51.58946,"de:5774:7768"
"23208337","Kleinenberg (Kr PB), Pöhlenstraße",8.97434,51.58426,"de:5774:8337"
"23208322","Sandebeck, Kirche",8.98733,51.82306,"de:5762:8322"
"23240593","Dahl (Paderborn), Bergsohle",8.83813,51.69889,"de:5774:40593"
"23207773","Kleinenberg (Kr PB), Post",8.97651,51.58359,"de:5774:7773"
"23208071","Vinsebeck, Gärtnerei",9.03476,51.84494,"de:5762:8071"
"23208061","Sandebeck, Leopoldstaler Straße",8.97728,51.82064,"de:5762:8061"
"23208325","Vinsebeck, Schule",9.03246,51.8465,"de:5762:8325"
"23207769","Husen (Kr PB), Sägewerk",8.81465,51.59322,"de:5774:7769"
"23240532","Schloss Hamborn, Husener Weg",8.78979,51.65846,"de:5774:40532"
"23207858","Dahl (Paderborn), Langefeld",8.82993,51.69867,"de:5774:7858"
"23208060","Sandebeck, Kronospan",8.97513,51.82772,"de:5762:8060"
"23207746","Atteln, Kindergarten",8.80581,51.59772,"de:5774:7746"
"23208189","Willebadessen, Bahnhofstraße",9.02537,51.62391,"de:5762:8189"
"23208241","Willebadessen, Grundschule",9.0242,51.62006,"de:5762:8241"
"23208371","Atteln, Neue Straße",8.80559,51.59643,"de:5774:8371"
"23207710","Ottenhausen (Westf), Lange Str",9.03693,51.86975,"de:5762:7710"
"23209376","Schwaney, Schützenhalle",8.92724,51.71722,"de:5774:9376"
"23207747","Atteln, Post",8.8023,51.59612,"de:5774:7747"
"23209174","Willebadessen, Wohnpark",9.03148,51.62533,"de:5762:9174"
"23208194","Willebadessen, Siedlung",9.03087,51.6227,"de:5762:8194"
"23207857","Dahl (Paderborn), Iggenhauser Weg",8.819,51.69917,"de:5774:7857"
"23240637","Höxter, Bergstraße",9.37459,51.77969,"de:5762:40637"
"23207748","Atteln, Wendeplatz",8.80113,51.59461,"de:5774:7748"
"23207887","Haxtergrund, Haxterhöhe",8.80164,51.6882,"de:5774:7887"
"23208231","Willebadessen, Haus des Gastes",9.03368,51.62594,"de:5762:8231"
"23240650","Höxter, Kiefernweg",9.36725,51.78091,"de:5774:40650"
"23208228","Höxter, Schulzentrum",9.37371,51.77435,"de:5762:8228"
"23208272","Atteln, Florianstraße",8.79585,51.59466,"de:5774:8272"
"23208431","Atteln, Am Hersloh",8.79558,51.59475,"de:5774:8431"
"23208192","Willebadessen, Nethebrücke",9.03925,51.62715,"de:5762:8192"
"23240692","Schwaney, Bölte",8.93972,51.72221,"de:05774:40692"
"23208190","Willebadessen, Berheide",9.04212,51.63258,"de:5762:8190"
"23207886","Haxtergrund, Weyher",8.79183,51.68778,"de:5774:7886"
"23240096","Höxter, Steinmühle",9.37161,51.77443,"de:5762:40096"
"23207751","Dalheim (Kr PB), Dalheim Mitte",8.83878,51.56618,"de:5774:7751"
"23208543","Höxter, Rewe-Markt",9.3702,51.77349,"de:5762:8543"
"23207889","Haxtergrund, Vereinshaus",8.78876,51.68695,"de:5774:7889"
"23208349","Altenbeken, Gewerbegebiet",8.94262,51.72416,"de:5774:8349"
"23207744","Atteln, Grundschule",8.78956,51.59292,"de:5774:7744"
"23208156","Altenheerse, Siedlung",9.04612,51.64922,"de:5762:8156"
"23207760","Henglarn, Siedlung",8.78423,51.59576,"de:5774:7760"
"23207888","Haxtergrund, Knickweg",8.78925,51.69183,"de:5774:7888"
"23208341","Höxter, Grundschule Petrifeld",9.37088,51.77244,"de:5762:8341"
"23208155","Altenheerse, Altenheerse Mitte",9.04939,51.65031,"de:5762:8155"
"23240112","Willebadessen, Zur Lötke",9.04798,51.62508,"de:5762:40112"
"23208370","Henglarn, Zum Brinkhof",8.77909,51.59805,"de:5774:8370"
"23207772","Kleinenberg (Kr PB), Grunewald",9.00098,51.57276,"de:5774:7772"
"23207703","Höxter, Gartenstraße",9.37144,51.77112,"de:5762:7703"
"23208849","Höxter, Ansgarstraße",9.36845,51.77235,"de:5762:8849"
"23207759","Henglarn, Kirche",8.77577,51.59991,"de:5774:7759"
"23208833","Etteln, Rustemeier",8.76221,51.62478,"de:5774:8833"
"23208056","Henglarn, Schützenhalle",8.77593,51.59907,"de:5774:8056"
"23209822","Höxter, Goethestraße",9.37259,51.76923,"de:5762:9822"
"23208834","Etteln, Burgstraße",8.75998,51.63112,"de:5774:8834"
"23209367","Kühlsen, Zum Dornberg",9.04533,51.67082,"de:5762:9367"
"23208188","Willebadessen, Teutonia",9.03361,51.59471,"de:5762:8188"
"23207706","Höxter, Peter-und-Paul-Kirche",9.36665,51.7709,"de:5762:7706"
"23207708","Höxter, Siedlung Petriklause",9.36328,51.77207,"de:5762:7708"
"23240183","Dringenberg, Mittelmühle",9.04662,51.67263,"de:5762:40183"
"23208762","Höxter, Sparkasse",9.36734,51.77025,"de:5762:8762"
"23240111","Willebadessen, Mertens",9.03579,51.59043,"de:5762:40111"
"23207707","Höxter, Siedlung Brücke",9.357,51.774,"de:5762:7707"
"23240317","Lieth (Paderborn), Ebbinghauser Weg",8.80177,51.71108,"de:5774:40317"
"23207626","Höxter, Krummer Acker",9.36707,51.76858,"de:5762:7626"
"23208339","Dalheim (Kr PB), Aussiedlerhof",8.82972,51.55614,"de:5774:8339"
"23207628","Höxter, Grabenstraße",9.35774,51.77242,"de:5762:7628"
"23209821","Höxter, Hochschule",9.37184,51.76616,"de:5762:9821"
"23240318","Lieth (Paderborn), Rheder Weg",8.80183,51.71373,"de:5774:40318"
"23207846","Lieth (Paderborn), Borgentreicher Weg",8.79589,51.71051,"de:5774:7846"
"23208608","Lieth (Paderborn), Peckelsheimer Weg",8.79881,51.71294,"de:5774:8608"
"23207705","Höxter, Ostpreußenstraße",9.36169,51.77048,"de:5762:7705"
"23207847","Lieth (Paderborn), Bürener Weg",8.79321,51.71174,"de:5774:7847"
"23208159","Borlinghausen, Hoffmann",9.03643,51.58179,"de:5762:8159"
"23208264","Höxter, Adolf-Kolping-Str.",9.3639,51.76911,"de:5762:8264"
"23207849","Lieth (Paderborn), Vinsebecker Weg",8.79801,51.71545,"de:5774:7849"
"23207702","Höxter, Galgenstieg",9.35852,51.77013,"de:5762:7702"
"23209825","Höxter, Sudbury Straße",9.35117,51.77184,"de:5762:9825"
"23207699","Höxter, Lönsstraße",9.36271,51.76674,"de:5762:7699"
"23207749","Blankenrode, Blankenrode",8.90893,51.53973,"de:5774:7749"
"23208626","Lieth (Paderborn), Bussardweg",8.80651,51.72103,"de:5774:8626"
"23208643","Lieth (Paderborn), Mistelweg",8.80229,51.71902,"de:5774:8643"
"23208160","Borlinghausen, Kirche",9.03705,51.57975,"de:5762:8160"
"23208624","Lieth (Paderborn), Weißdornweg",8.79846,51.71774,"de:5774:8624"
"23208265","Höxter, Paul-Keller-Str.",9.35432,51.7701,"de:5762:8265"
"23208629","Lieth (Paderborn), Brücke/Vinsebecker Weg",8.79385,51.71557,"de:5774:8629"
"23208113","Ossendorf (Warburg), Warburger Tor",9.08959,51.50972,"de:5762:8113"
"23207547","Bad Driburg (Westf), Gewerbegebiet",9.01791,51.71629,"de:5762:7547"
"23207845","Lieth (Paderborn), Auf der Lieth",8.79064,51.71401,"de:5774:7845"
"23207625","Höxter, Abbentalsweg",9.35221,51.76987,"de:5762:7625"
"23208111","Ossendorf (Warburg), Post",9.08425,51.51232,"de:5762:8111"
"23208385","Paderborn, F-v-Spee-Gesamtschule",8.79595,51.71826,"de:5774:8385"
"23208232","Ossendorf (Warburg), Fischer",9.07344,51.51718,"de:5762:8232"
"23208309","Buke, Feuerwehr",8.94489,51.74152,"de:5774:8309"
"23208072","Ossendorf (Warburg), Schule",9.08597,51.51456,"de:5762:8072"
"23208853","Höxter, Knüllberg",9.35491,51.76346,"de:5762:8853"
"23207721","Ovenhausen, Feuerwehr",9.30371,51.77961,"de:5762:7721"
"23240481","Borlinghausen, Altes Kornhaus",9.03784,51.57559,"de:5762:40481"
"23207848","Lieth (Paderborn), Liethberg",8.7875,51.71535,"de:5774:7848"
"23240630","Warburg (Westf), Speckgraben",9.13816,51.50193,"de:5762:40630"
"23209177","Warburg (Westf), Siekweg",9.14574,51.5006,"de:5762:9177"
"23209358","Bad Driburg (Westf), Hans-Sachs-Straße",9.01344,51.72221,"de:5762:9358"
"23208391","Bad Driburg (Westf), Garthausen",9.01114,51.72362,"de:5762:8391"
"23208638","Paderborn, Uni/Südring",8.77302,51.70624,"de:5774:8638"
"23208224","Ossendorf (Warburg), Grüner Weg",9.08846,51.51943,"de:5762:8224"
"23240525","Bad Driburg (Westf), Südenfeldmark",9.01656,51.72167,"de:5762:40525"
"23207722","Ovenhausen, Kirche",9.29853,51.7769,"de:5762:7722"
"23208390","Bad Driburg (Westf), Am Ringelsberg",9.01048,51.72499,"de:5762:8390"
"23208392","Bad Driburg (Westf), Karlsring/Hochhaus",9.01378,51.72355,"de:5762:8392"
"23207723","Ovenhausen, Post",9.29556,51.7774,"de:5762:7723"
"23208095","Hardehausen, Hardehausen Mitte",8.99551,51.54875,"de:5762:8095"
"23209827","Ovenhausen, Redegeldstraße",9.29259,51.77678,"de:5762:9827"
"23207810","Erwitzen, Abzweig",9.14028,51.77534,"de:5762:7810"
"23240694","Bad Driburg (Westf), Händelweg",9.01089,51.72678,"de:05762:40694"
"23240586","Dössel (Warburg), Beverunger Straße",9.1634,51.50187,"de:5762:40586"
"23240559","Neuenbeken, Alter Herbramer Weg",8.8522,51.7434,"de:5774:40559"
"23208767","Paderborn, Uni/Pohlweg",8.7688,51.70749,"de:5774:8767"
"23208628","Paderborn, Eggertstraße",8.7987,51.72609,"de:5774:8628"
"23207918","Neuenbeken, Kirchbrede",8.84766,51.74285,"de:5774:7918"
"23208372","Helmern (Kr PB), Dalheimer Straße",8.77051,51.57237,"de:5774:8372"
"23208738","Paderborn, Bahneinschnitt",8.77818,51.71478,"de:5774:8738"
"23208605","Paderborn, Kilianbad",8.76103,51.70231,"de:5774:8605"
"23207724","Ovenhausen, Siedlung",9.29642,51.77398,"de:5762:7724"
"23208393","Bad Driburg (Westf), Abzw. Bernhardstr",9.01481,51.72742,"de:5762:8393"
"23207811","Erwitzen, Kirche",9.12014,51.76855,"de:5762:7811"
"23240602","Daseburg, Ostheimer Weg",9.18815,51.50267,"de:5762:40602"
"23208086","Daseburg, Rothehaus",9.19236,51.50371,"de:5762:8086"
"23207919","Neuenbeken, Kleiner Viadukt",8.88081,51.74985,"de:5774:7919"
"23207631","Bellersen, Wendeplatz",9.18933,51.776,"de:5762:7631"
"23240574","Bad Driburg (Westf), Abzweig Erich-Klausener-Straße",9.02139,51.72518,"de:5762:40574"
"23208104","Nörde, Friedhof",9.09557,51.52798,"de:5762:8104"
"23208210","Helmern (Kr PB), Kaup",8.76765,51.57112,"de:5774:8210"
"23207921","Neuenbeken, Roncalliplatz",8.84783,51.74535,"de:5774:7921"
"23207920","Neuenbeken, Klostergarten",8.853,51.74652,"de:5774:7920"
"23207852","Benhausen, Papenberg",8.81138,51.73474,"de:5774:7852"
"23240362","Benhausen, Feldmeiers Weg",8.83216,51.74167,"de:5774:40362"
"23208100","Menne, Menne, Bahnhof",9.11686,51.52117,"de:5762:8100"
"23207851","Benhausen, Lippspringer Str",8.82672,51.74037,"de:5774:7851"
"23208102","Menne, Dorfschänke",9.12118,51.51989,"de:5762:8102"
"23240573","Bad Driburg (Westf), Sulburgring/West",9.02423,51.72457,"de:5762:40573"
"23207807","Albrock (Nieheim/Hx), Abzweig",9.14991,51.76804,"de:5762:7807"
"23208627","Paderborn, Friedrich-List-Straße",8.7914,51.7265,"de:5774:8627"
"23208389","Bad Driburg (Westf), Pater-Riepe-Weg",9.01545,51.72945,"de:5762:8389"
"23207853","Benhausen, Postweg",8.81941,51.73865,"de:5774:7853"
"23208239","Bad Wünnenberg, Glashütte",8.70904,51.46727,"de:5774:8239"
"23208105","Nörde, Kirche",9.0984,51.53118,"de:5762:8105"
"23208396","Bad Driburg (Westf), Lindenweg",9.02367,51.72633,"de:5762:8396"
"23207690","Godelheim, Am Friedhof",9.36426,51.73732,"de:5762:7690"
"23208394","Bad Driburg (Westf), Sulburgring/Abzweig Lindenweg",9.02556,51.72629,"de:5762:8394"
"23208085","Daseburg, Kleine Linde",9.20804,51.50867,"de:5762:8085"
"23207917","Neuenbeken, Druheimer Straße",8.85027,51.74889,"de:5774:7917"
"23208088","Dössel (Warburg), Am Horenberg",9.16471,51.51337,"de:5762:8088"
"23208107","Nörde, Schützenhalle",9.09911,51.53301,"de:5762:8107"
"23208397","Bad Driburg (Westf), Am Habichtshof",9.02099,51.72957,"de:5762:8397"
"23240118","Ovenhausen, Peckelsberg",9.29109,51.7631,"de:5762:40118"
"23208660","Neuenbeken, Holtgrevenstr",8.8543,51.75004,"de:5774:8660"
"23240661","Godelheim, Alte Schule",9.36185,51.73612,"de:5762:40661"
"23208084","Daseburg, Im Dorning",9.21495,51.5106,"de:5762:8084"
"23207916","Neuenbeken, Bekscher Berg",8.84486,51.7483,"de:5774:7916"
"23208073","Bonenburg, Alte Ziegelei",9.04841,51.56836,"de:5762:8073"
"23208364","Helmern (Kr PB), Friedhof",8.76179,51.57008,"de:5774:8364"
"23240114","Bökendorf, Kindergarten",9.2222,51.77033,"de:5762:40114"
"23208395","Bad Driburg (Westf), Abzw. Pappelweg",9.02511,51.72801,"de:5762:8395"
"23208087","Daseburg, Schule",9.22443,51.51236,"de:5762:8087"
"23208606","Paderborn, Stephanusstraße",8.75079,51.70235,"de:5774:8606"
"23207691","Godelheim, Driburger Straße",9.36104,51.7329,"de:5762:7691"
"23207545","Bad Driburg (Westf), Sulburgring/Hochhaus",9.02779,51.72722,"de:5762:7545"
"23208398","Bad Driburg (Westf), Tegelhof",9.01923,51.73186,"de:5762:8398"
"23208083","Daseburg, Daseburg Mitte",9.2219,51.51309,"de:5762:8083"
"23240716","Altenbeken, Kloster",8.95151,51.75241,"de:05774:40716"
"23209033","Godelheim, Bahnhof",9.3569,51.73496,"de:5762:9033"
"23240106","Bosseborn, Spieker",9.31214,51.75251,"de:5762:40106"
"23208211","Helmern (Kr PB), Siedlung",8.75872,51.57019,"de:5774:8211"
"23208089","Dössel (Warburg), Dössel Mitte",9.16512,51.52126,"de:5762:8089"
"23208850","Rösebeck (Kr HX), Siedlung",9.2524,51.51918,"de:5762:8850"
"23240359","Bad Driburg (Westf), Im Oberen Felde",9.00737,51.73828,"de:5762:40359"
"23209357","Bad Driburg (Westf), Dringenberger Str",9.01862,51.73354,"de:5762:9357"
"23207675","Bosseborn, Bosseborn Mitte",9.30638,51.75101,"de:5762:7675"
"23208665","Dössel (Warburg), Daseburger Str",9.17438,51.52136,"de:5762:8665"
"23208984","Dössel (Warburg), Ringstraße",9.16806,51.5228,"de:5762:8984"
"23207676","Bosseborn, Winkelstraße",9.30817,51.74931,"de:5762:7676"
"23208465","Bad Driburg (Westf), Abzw. Schützenstr",9.01281,51.73659,"de:5762:8465"
"23208945","Bad Driburg (Westf), Mühlenstraße",9.02406,51.73166,"de:5762:8945"
"23208098","Hohenwepel, Kirche",9.1346,51.53256,"de:5762:8098"
"23207844","Dörenerholz, Steubenstraße",8.78463,51.72992,"de:5774:7844"
"23208556","Bad Wünnenberg, Elisenhof",8.80601,51.54173,"de:5774:8556"
"23240684","Bad Driburg (Westf), LIDL-Markt",9.02289,51.73286,"de:5762:40684"
"23208855","Bonenburg, Borlinghauser Straße",9.05053,51.56521,"de:5762:8855"
"23208661","Dörenerholz, Uhlandstraße",8.78218,51.72921,"de:5774:8661"
"23208458","Helmern (Kr PB), Keuter",8.75558,51.56998,"de:5774:8458"
"23208165","Engar, Spielplatz",9.10518,51.54511,"de:5762:8165"
"23208404","Bad Driburg (Westf), Peter&Paul-Kirche",9.01717,51.73602,"de:5762:8404"
"23208170","Ikenhausen, Ikenhausen",9.08464,51.55893,"de:5762:8170"
"23240357","Bad Driburg (Westf), Am Alten Postweg",9.01095,51.73876,"de:5762:40357"
"23208403","Bad Driburg (Westf), Gottfried-Büren-Weg",9.03595,51.7266,"de:5762:8403"
"23240715","Altenbeken, Heistermannweg",8.94912,51.75546,"de:05774:40715"
"23208985","Körbecke (Kr HX), Waterfeld",9.27405,51.53376,"de:5762:8985"
"23240714","Altenbeken, Am Sportplatz",8.94563,51.75596,"de:05774:40714"
"23208388","Bad Driburg (Westf), Stadtmitte",9.02044,51.73489,"de:5762:8388"
"23208541","Bad Driburg (Westf), Abzw. Dr-Brück-Weg",9.03844,51.72543,"de:5762:8541"
"23240673","Brakel (Kr Höxter), Schwarze Brücke",9.22536,51.74656,"de:5762:40673"
"23240712","Altenbeken, Forsthaus Durbeke",8.90591,51.75874,"de:05774:40712"
"23208236","Willebadessen, Deppenhöfen",9.11627,51.5576,"de:5762:8236"
"23209628","Muddenhagen, Lutzenmühle",9.31879,51.55924,"de:5762:9628"
"23208870","Beverungen, Grundschule",9.37396,51.66209,"de:5762:8870"
"23209094","Brakel (Kr Höxter), Gieffers",9.20166,51.73759,"de:5762:9094"
"23208171","Löwen, Femlinde",9.09904,51.57842,"de:5762:8171"
"23208733","Lütgeneder, Großenederer Str",9.20315,51.54461,"de:5762:8733"
"23207843","Dörenerholz, Senefelderstraße",8.78432,51.73206,"de:5774:7843"
"23207544","Bad Driburg (Westf), Waldcafe",9.0378,51.72679,"de:5762:7544"
"23208172","Löwen, Michels",9.1016,51.58169,"de:5762:8172"
"23208402","Bad Driburg (Westf), Von-Vincke-Straße",9.03628,51.72795,"de:5762:8402"
"23208882","Helmern (Kr HX), Helmern Ort",9.0761,51.61361,"de:5762:8882"
"23240558","Brakel (Kr Höxter), Am Heineberg",9.1791,51.72675,"de:5762:40558"
"23207636","Bad Driburg (Westf), Einkaufszentrum Hellweg",9.02269,51.7352,"de:5762:7636"
"23208222","Peckelsheim, Alfredshöhe",9.13064,51.57002,"de:5762:8222"
"23208637","Dörenerholz, Dören-Park",8.78864,51.73475,"de:5774:8637"
"23207718","Ottbergen (Kr Höxt.), Bahnhof",9.30576,51.71127,"de:5762:7718"
"23207629","Istrup (Brakel/Hx), Wendeplatz",9.12017,51.7048,"de:5762:7629"
"23208949","Brakel (Kr Höxter), Heinefelder Weg",9.18105,51.72569,"de:5762:8949"
"23208075","Bonenburg, Friedhof",9.05114,51.56194,"de:5762:8075"
"23208982","Bühne (Westf), Kindergarten",9.30671,51.5721,"de:5762:8982"
"23209236","Bühne (Westf), Schule",9.31047,51.57411,"de:5762:9236"
"23207719","Ottbergen (Kr Höxt.), Abzw. Bahnhof",9.30597,51.70879,"de:5762:7719"
"23208425","Bad Wünnenberg, Friedrichsgrund",8.79597,51.54249,"de:5774:8425"
"23240542","Brakel (Kr Höxter), Eichenweg",9.1864,51.72527,"de:5762:40542"
"23240575","Brakel (Kr Höxter), Hillestraße",9.1713,51.72229,"de:5762:40575"
"23240546","Brakel (Kr Höxter), Kiefernweg",9.18972,51.72552,"de:5762:40546"
"23208401","Bad Driburg (Westf), Abzw. Hufelandstr",9.03351,51.73141,"de:5762:8401"
"23240549","Brakel (Kr Höxter), Lütkerlinde",9.1923,51.72484,"de:5762:40549"
"23208466","Bad Driburg (Westf), Widostraße",9.01392,51.74137,"de:5762:8466"
"23240676","Brakel (Kr Höxter), Stadtteilzentrum",9.1955,51.72515,"de:5762:40676"
"23208355","Ottbergen (Kr Höxt.), Am Lintrott",9.29559,51.71167,"de:5762:8355"
"23207999","Paderborn, Rosentor",8.75204,51.71522,"de:5774:7999"
"23208351","Ottbergen (Kr Höxt.), Am Sprung",9.29505,51.71113,"de:5762:8351"
"23240550","Brakel (Kr Höxter), Michaelstraße",9.17345,51.71976,"de:5762:40550"
"23208074","Bonenburg, Bahnhof Bonenburg",9.05007,51.55822,"de:5762:8074"
"23208468","Bad Driburg (Westf), Alleestraße",9.02198,51.73894,"de:5762:8468"
"23208467","Bad Driburg (Westf), Markusstraße",9.02041,51.7397,"de:5762:8467"
"23207842","Dörenerholz, SB-Zentralmarkt",8.7815,51.73477,"de:5774:7842"
"23240538","Brakel (Kr Höxter), Am Meierbach",9.16984,51.71873,"de:5762:40538"
"23207840","Dörenerholz, Friedhof Auf dem Dören",8.78904,51.73851,"de:5774:7840"
"23208076","Bonenburg, Schattberg",9.04777,51.55605,"de:5762:8076"
"23207720","Ottbergen (Kr Höxt.), Spalting",9.29178,51.71081,"de:5762:7720"
"23207838","Dörenerholz, Dörener Feld",8.78482,51.73715,"de:5774:7838"
"23240713","Altenbeken, Winterbergstraße",8.9385,51.76163,"de:05774:40713"
"23240544","Brakel (Kr Höxter), Generationenpark",9.19304,51.7222,"de:5762:40544"
"23240543","Brakel (Kr Höxter), Flechtheimer Straße",9.16947,51.71659,"de:5762:40543"
"23207542","Bad Driburg (Westf), Auf dem Engern",9.01636,51.74313,"de:5762:7542"
"23240110","Helmern (Kr HX), Zum Jüttebruch",9.09551,51.61345,"de:5762:40110"
"23240693","Altenbeken, Egge-Museum",8.93577,51.76272,"de:05774:40693"
"23208399","Bad Driburg (Westf), Steinbergstieg",9.03653,51.73422,"de:5762:8399"
"23240545","Brakel (Kr Höxter), Heilige Seele",9.18985,51.71978,"de:5762:40545"
"23207537","Bad Driburg (Westf), Eichendorffstraße",9.01856,51.74305,"de:5762:7537"
"23240605","Bad Driburg (Westf), Marcus-Klinik",9.03687,51.73445,"de:5762:40605"
"23207685","Ottbergen (Kr Höxt.), Bruchhauser Straße",9.29186,51.70779,"de:5762:7685"
"23208077","Bonenburg, Schmitz",9.05514,51.55803,"de:5762:8077"
"23208875","Brakel (Kr Höxter), Gartenring",9.19162,51.71963,"de:5762:8875"
"23240117","Bad Driburg (Westf), Knappschafts-Klinik",9.02671,51.74005,"de:5762:40117"
"23240548","Brakel (Kr Höxter), Königstraße",9.18693,51.71878,"de:5762:40548"
"23240539","Brakel (Kr Höxter), Bohlenweg",9.17149,51.71564,"de:5762:40539"
"23208498","Bad Driburg (Westf), Georg-Nave-Str.",9.02129,51.74274,"de:5762:8498"
"23240553","Brakel (Kr Höxter), Ringstraße",9.17513,51.71598,"de:5762:40553"
"23208604","Dörenerholz, Am Niesenteich",8.77679,51.73612,"de:5774:8604"
"23209804","Bad Driburg (Westf), Caspar-Heinrich-Klinik",9.02563,51.74115,"de:5762:9804"
"23208180","Peckelsheim, Hauptschule",9.11614,51.59426,"de:5762:8180"
"23240547","Brakel (Kr Höxter), Kreisleitstelle",9.19645,51.71796,"de:5762:40547"
"23209803","Bad Driburg (Westf), Abzw. Dr.-Rödder-Weg",9.041,51.73409,"de:5762:9803"
"23240628","Bonenburg, Schöne Aussicht",9.05694,51.55667,"de:5762:40628"
"23240552","Brakel (Kr Höxter), Neustadt",9.18817,51.71653,"de:5762:40552"
"23208877","Bruchhausen (Höxter), Bruchhausen Mitte",9.28787,51.70491,"de:5762:8877"
"23207539","Bad Driburg (Westf), Therme",9.02616,51.74226,"de:5762:7539"
"23208948","Brakel (Kr Höxter), Zur Krüne",9.19449,51.71644,"de:5762:8948"
"23240557","Brakel (Kr Höxter), Weitlandsweg",9.19885,51.7162,"de:5762:40557"
"23208424","Bad Wünnenberg, Eilern",8.77774,51.54232,"de:5774:8424"
"23208470","Bad Driburg (Westf), Steinbergstieg Wendepl.",9.0465,51.73336,"de:5762:8470"
"23208168","Fölsen (Kr HX), Nethebrücke Fölsen",9.09876,51.62471,"de:5762:8168"
"23240541","Brakel (Kr Höxter), Dr.-Loermann-Straße",9.20212,51.71616,"de:5762:40541"
"23240627","Bonenburg, Zum Kreuzberg",9.06011,51.5567,"de:5762:40627"
"23240540","Brakel (Kr Höxter), Driburger Straße",9.17692,51.71223,"de:5762:40540"
"23240360","Bad Driburg (Westf), Klinik am Rosenberg",9.04183,51.73676,"de:5762:40360"
"23240361","Bad Driburg (Westf), Klinik Berlin",9.04288,51.73623,"de:5762:40361"
"23208185","Peckelsheim, Realschule",9.121,51.59532,"de:5762:8185"
"23208167","Peckelsheim, Ewers",9.10644,51.612,"de:5762:8167"
"23209973","Scherfede, Driburger Straße",9.03231,51.53743,"de:5762:9973"
"23207976","Stadtheide, Dr-Mertens-Weg",8.76695,51.73885,"de:5774:7976"
"23240687","Brakel (Kr Höxter), Am Bahndamm",9.1881,51.71378,"de:05762:40687"
"23208124","Scherfede, Schule",9.0258,51.53244,"de:5762:8124"
"23208163","Eissen, Eissen Mitte",9.16595,51.57304,"de:5762:8163"
"23240555","Brakel (Kr Höxter), Tegelweg",9.17387,51.71068,"de:5762:40555"
"23208161","Eissen, Keck",9.17075,51.5718,"de:5762:8161"
"23240556","Brakel (Kr Höxter), Tonweg",9.17124,51.70986,"de:5762:40556"
"23240551","Brakel (Kr Höxter), Mozartstraße",9.19761,51.71463,"de:5762:40551"
"23208969","Bruchhausen (Höxter), Am Silberbach",9.28552,51.70322,"de:5762:8969"
"23208119","Scherfede, Jugendheim",9.03108,51.53234,"de:5762:8119"
"23207978","Stadtheide, Gustav-Schultze-Straße",8.75545,51.73584,"de:5774:7978"
"23240599","Stadtheide, Lagesche Straße",8.77157,51.74495,"de:5774:40599"
"23207973","Stadtheide, Bonifatius-Kirche",8.75755,51.73775,"de:5774:7973"
"23208308","Borgentreich, Cloidt",9.27207,51.57497,"de:5762:8308"
"23208122","Scherfede, Markt",9.02933,51.53038,"de:5762:8122"
"23208125","Scherfede, Trift",9.02413,51.52757,"de:5762:8125"
"23208162","Eissen, Kornhaus",9.16243,51.5761,"de:5762:8162"
"23209364","Scherfede, Clemens-Schäfer-Straße",9.0205,51.52547,"de:5762:9364"
"23207972","Stadtheide, Anhalter Weg",8.76356,51.74313,"de:5774:7972"
"23208183","Peckelsheim, Molkerei",9.12581,51.59637,"de:5762:8183"
"23207977","Stadtheide, Gerold",8.76566,51.74507,"de:5774:7977"
"23209365","Scherfede, Auf der Ware",9.01892,51.52396,"de:5762:9365"
"23208121","Scherfede, Kasseler Tor",9.03351,51.52978,"de:5762:8121"
"23207660","Brakel (Kr Höxter), Am Königsfeld",9.18052,51.70955,"de:5762:7660"
"23208123","Scherfede, Neues Viertel",9.02687,51.52629,"de:5762:8123"
"23207974","Stadtheide, Bonifatiusweg",8.75592,51.74088,"de:5774:7974"
"23207984","Stadtheide, Württemberger Weg",8.75674,51.74231,"de:5774:7984"
"23208602","Stadtheide, Sachsenweg",8.75903,51.74373,"de:5774:8602"
"23208120","Scherfede, Kapelle",9.00928,51.51856,"de:5762:8120"
"23207893","Marienloh, Im Felde",8.77964,51.75416,"de:5774:7893"
"23209797","Scherfede, B 7",9.0376,51.52858,"de:5762:9797"
"23240353","Alhausen (Westf), Ostenfeldmark",9.06136,51.74048,"de:5762:40353"
"23240699","Bad Lippspringe, Forsthaus Steinbeke",8.86769,51.77771,"de:05774:40699"
"23208970","Bruchhausen (Höxter), Brunnenallee",9.28207,51.70177,"de:5762:8970"
"23209092","Hembsen, Netheweg",9.24221,51.71169,"de:5762:9092"
"23240308","Scherfede, Bahnhof Wrexen",9.00218,51.51467,"de:5762:40308"
"23208182","Peckelsheim, Markt",9.12793,51.59719,"de:5762:8182"
"23208184","Peckelsheim, Rathaus",9.13169,51.59481,"de:5762:8184"
"23207982","Stadtheide, Füllers Heide",8.76485,51.75044,"de:5774:7982"
"23209798","Borgentreich, Friedhof",9.2441,51.57249,"de:5762:9798"
"23207981","Stadtheide, Stadtheide",8.76676,51.75222,"de:5774:7981"
"23208117","Scherfede, Haus Phöbe",9.04205,51.52727,"de:5762:8117"
"23208601","Talle (Paderborn), An der Talle",8.75678,51.74745,"de:5774:8601"
"23208179","Peckelsheim, Busbahnhof",9.12824,51.59963,"de:5762:8179"
"23208240","Peckelsheim, Kindergarten",9.13024,51.598,"de:5762:8240"
"23208178","Peckelsheim, EAM",9.1398,51.5918,"de:5762:8178"
"23240711","Bad Lippspringe, Hohe Kamp",8.80722,51.76871,"de:05774:40711"
"23207895","Marienloh, Meise",8.78407,51.76086,"de:5774:7895"
"23240354","Reelsen, Detmolder Straße",9.02374,51.7627,"de:5762:40354"
"23207899","Marienloh, Talle-Terrassen",8.77291,51.75671,"de:5774:7899"
"23207985","Talle (Paderborn), Friesenweg",8.75207,51.74767,"de:5774:7985"
"23207901","Marienloh, Waldweg",8.77559,51.75913,"de:5774:7901"
"23207900","Marienloh, Von-Dript-Weg",8.7946,51.76683,"de:5774:7900"
"23209343","Rimbeck (Warburg), Elisabethstraße",9.05165,51.52843,"de:5762:9343"
"23207898","Marienloh, Senneweg",8.79036,51.7656,"de:5774:7898"
"23207896","Marienloh, Marienloh Mitte",8.78706,51.76451,"de:5774:7896"
"23207897","Marienloh, Schlesierweg",8.77823,51.76152,"de:5774:7897"
"23208116","Rimbeck (Warburg), Schule",9.05276,51.52774,"de:5762:8116"
"23207902","Marienloh, Zum Kampe",8.78275,51.76439,"de:5774:7902"
"23208118","Scherfede, Bahnhof Scherfede",9.04864,51.52506,"de:5762:8118"
"23207894","Marienloh, Im Vogtland",8.77941,51.76398,"de:5774:7894"
"23208115","Rimbeck (Warburg), Rimbeck Mitte",9.0514,51.52521,"de:5762:8115"
"23208290","Bad Lippspringe, Lippeaue",8.81786,51.77649,"de:5774:8290"
"23208177","Peckelsheim, Schönthal",9.15047,51.5879,"de:5762:8177"
"23240706","Bad Lippspringe, Karlstraße",8.82129,51.7781,"de:5774:7264"
"23208289","Bad Lippspringe, Auf der Mersch",8.80955,51.77564,"de:5774:8289"
"23208157","Peckelsheim, Lützer Straße",9.1311,51.6019,"de:5762:8157"
"23208181","Peckelsheim, Lehmann",9.13396,51.61135,"de:5762:8181"
"23208114","Rimbeck (Warburg), Ossendorfer Straße",9.05517,51.52344,"de:5762:8114"
"23208237","Niesen (Kr HX), Kindergarten",9.13187,51.62142,"de:5762:8237"
"23208174","Niesen (Kr HX), Kirche",9.13176,51.62288,"de:5762:8174"
"23208549","Dalhausen (Beverung), Untere Hauptstraße",9.30621,51.63129,"de:5762:8549"
"23240622","Bad Lippspringe, Am Vorderflöß Mitte",8.79744,51.77741,"de:5774:40622"
"23240623","Bad Lippspringe, Am Vorderflöß Ost",8.80309,51.77934,"de:5774:40623"
"23240624","Bad Lippspringe, Zum Strothebach",8.79332,51.77652,"de:5774:40624"
"23209294","Bad Hermannsborn, Bad Hermannsborn",9.05825,51.76824,"de:5762:9294"
"23207833","Schönenberg (Westf), Gasth. Helms",9.04298,51.78046,"de:5762:7833"
"23208187","Schweckhausen, Försterei",9.165,51.60667,"de:5762:8187"
"23240511","Borgholz (Kr HX), Lebersiek",9.27856,51.61896,"de:5762:40511"
"23240082","Frohnhausen (Kr HX), Winterhof",9.19789,51.63286,"de:5762:40082"
"23208732","Frohnhausen (Kr HX), Holzstraße",9.19249,51.63762,"de:5762:8732"
"23209489","Erkeln, Neue Straße",9.22704,51.68293,"de:5762:9489"
"23240512","Borgholz (Kr HX), Abzweig B 241",9.27173,51.61673,"de:5762:40512"
"23208226","Willegassen, Trafo",9.18777,51.6106,"de:5762:8226"
"23208895","Natzungen, Hasselfeld",9.22021,51.61129,"de:5762:8895"
"23207303","Buke, Hühnerfeld",8.94951,51.73994,"de:5774:7303"
"23207370","Borgholz (Kr HX), Feuerlöschteich",9.25914,51.62551,"de:5762:7370"
"23207372","Borgholz (Kr HX), Markt",9.25896,51.62171,"de:5762:7372"
"23207395","Natzungen, Dorfkrug",9.2337,51.6096,"de:5762:7395"
"23207471","Ahden, Hof Kleine",8.62514,51.61062,"de:5774:7471"
"23207464","Natzungen, Borgentreicher Straße",9.23299,51.60922,"de:5762:7464"
"23207473","Ahden, Schokamp",8.6246,51.60359,"de:5774:7473"
"23207396","Natzungen, Prozession",9.23094,51.60696,"de:5762:7396"
"23207472","Ahden, Kirche",8.62345,51.59796,"de:5774:7472"
"23207371","Borgholz (Kr HX), Lehmkuhle",9.26518,51.61858,"de:5762:7371"
"23207474","Ahden, Stelte",8.62087,51.5955,"de:5774:7474"
"23207504","Brenken, Erpernburg",8.59012,51.5907,"de:5774:7504"
"23207465","Natzungen, Industriegebiet",9.23005,51.60131,"de:5762:7465"
"23207437","Hampenhausen, Hampenhausen Mitte",9.19356,51.65443,"de:5762:7437"
"23207431","Frohnhausen (Kr HX), Bartholomästraße",9.18979,51.64136,"de:5762:7431"
"23207391","Natingen, Feuerteich",9.2346,51.64419,"de:5762:7391"
"23207479","Brenken, Diesberg",8.59787,51.5864,"de:5774:7479"
"23207450","Siddessen, Frohnhauser Straße",9.15294,51.66211,"de:5762:7450"
"23207477","Brenken, Bahnhof",8.58662,51.58643,"de:5774:7477"
"23207481","Brenken, Fabianstraße",8.58902,51.58345,"de:5774:7481"
"23207480","Brenken, Brenken, Kirche",8.59268,51.58303,"de:5774:7480"
"23207478","Brenken, Danne",8.58597,51.58164,"de:5774:7478"
"23207401","Brakel (Kr Höxter), Auenhausen",9.2111,51.64845,"de:5762:7401"
"23207456","Siddessen, Siddessen Mitte",9.14809,51.66113,"de:5762:7456"
"23207428","Erkeln, Bachstraße",9.22599,51.68892,"de:5762:7428"
"23207446","Rheder (Nethe), Rheder Mitte",9.16415,51.67751,"de:5762:7446"
"23207432","Gehrden (Westf), Abzw. Gehrden",9.139,51.64964,"de:5762:7432"
"23207512","Büren (Kr Paderborn), Kapellenberg",8.55178,51.56412,"de:5774:7512"
"23207445","Rheder (Nethe), Kirche",9.16191,51.68062,"de:5762:7445"
"23207486","Büren (Kr Paderborn), Brenkener Straße",8.56703,51.5591,"de:5774:7486"
"23207433","Gehrden (Westf), Dalsterberg",9.1312,51.65212,"de:5762:7433"
"23207493","Büren (Kr Paderborn), Mauritiusstraße",8.55012,51.55925,"de:5774:7493"
"23207491","Büren (Kr Paderborn), Lindenstraße",8.5603,51.55646,"de:5774:7491"
"23207500","Büren (Kr Paderborn), Alte Post",8.55668,51.55616,"de:5774:7500"
"23207489","Büren (Kr Paderborn), Hüttemannstraße",8.54769,51.55677,"de:5774:7489"
"23207482","Büren (Kr Paderborn), Aftestraße",8.56123,51.55422,"de:5774:7482"
"23207434","Gehrden (Westf), Am Ring",9.12117,51.65517,"de:5762:7434"
"23207458","Gehrden (Westf), Schloß",9.11906,51.65283,"de:5762:7458"
"23207402","Beller (Brakel/Hx), Beller, Kirche",9.24414,51.70221,"de:5762:7402"
"23207462","Gehrden (Westf), Rotheweg",9.11515,51.65662,"de:5762:7462"
"23207439","Hembsen, Angerlinde",9.24004,51.70579,"de:5762:7439"
"23207492","Büren (Kr Paderborn), Markt",8.55985,51.55226,"de:5774:7492"
"23207501","Büren (Kr Paderborn), Stadthalle",8.56288,51.54984,"de:5774:7501"
"23207447","Riesel (Westf), Kirche",9.16071,51.6991,"de:5762:7447"
"23207463","Büren (Kr Paderborn), Industriegebiet West",8.53196,51.55488,"de:5774:7463"
"23207488","Büren (Kr Paderborn), Schulzentrum",8.55515,51.54806,"de:5774:7488"
"23207487","Büren (Kr Paderborn), Friedhof",8.55037,51.54844,"de:5774:7487"
"23207485","Büren (Kr Paderborn), Sonntag",8.5658,51.54476,"de:5774:7485"
"23207466","Eickhoff (Büren/PB), Klusweg",8.49537,51.56154,"de:5774:7466"
"23207467","Eickhoff (Büren/PB), Steinhäuser Straße",8.49471,51.55793,"de:5774:7467"
"23207494","Büren (Kr Paderborn), Mertenstal",8.55888,51.53972,"de:5774:7494"
"23207421","Brakel (Kr Höxter), Sudheim",9.17725,51.70595,"de:5762:7421"
"23207502","Büren (Kr Paderborn), Steinbrecher",8.57125,51.53834,"de:5774:7502"
"23207440","Hembsen, Kirche",9.24178,51.70955,"de:5762:7440"
"23207513","Keddinghausen, Keddinghausen",8.5985,51.53368,"de:5774:7513"
"23207510","Hegensdorf, Okental",8.61439,51.53311,"de:5774:7510"
"23207400","Brakel (Kr Höxter), Abbenburg",9.19919,51.78832,"de:5762:7400"
"23207511","Hegensdorf, Drift",8.6246,51.53023,"de:5774:7511"
"23207514","Barkhausen(Gnarrenb), Oberfeld",8.56377,51.52857,"de:5774:7514"
"23207509","Hegensdorf, Hegensdorf Ort",8.62897,51.52852,"de:5774:7509"
"23207475","Büren (Kr Paderborn), Barkhausen",8.56757,51.51966,"de:5774:7475"
"23207506","Harth (Büren/PB), Freibad",8.58343,51.50976,"de:5774:7506"
"23207505","Harth (Büren/PB), Arenskreuz",8.59566,51.50555,"de:5774:7505"
"23207507","Harth (Büren/PB), Friedhof",8.58382,51.50417,"de:5774:7507"
"23207508","Harth (Büren/PB), Kirche",8.57919,51.504,"de:5774:7508"
"23207515","Ringelstein, Waldlust",8.58204,51.5013,"de:5774:7515"
"23207393","Natzungen, Borgholzer Höhe",9.24928,51.62046,"de:5762:7393"
"23207407","Bökendorf, Oldentruper Mühle",9.20382,51.78064,"de:5762:7407"
"23207406","Bellersen, Siedlung",9.1967,51.77868,"de:5762:7406"
"23207408","Bökendorf, Bökerhof",9.21591,51.77348,"de:5762:7408"
"23207503","Bökendorf, Grundschule",9.22089,51.77175,"de:5762:7503"
"23207410","Bökendorf, Kirche",9.21919,51.76996,"de:5762:7410"
"23207424","Brakel (Kr Höxter), Sonnenbrink",9.19749,51.71359,"de:5762:7424"
"23207409","Bökendorf, Friedhof",9.22212,51.76679,"de:5762:7409"
"23207398","Rösebeck (Kr HX), Rösebeck",9.24484,51.52293,"de:5762:7398"
"23207404","Brakel (Kr Höxter), Abzw. Bellersen",9.17592,51.75588,"de:5762:7404"
"23207413","Brakel (Kr Höxter), Bahnhof",9.18352,51.71256,"de:5762:7413"
"23207399","Rösebeck (Kr HX), Vössing",9.23961,51.5247,"de:5762:7399"
"23207436","Hainhausen (Brakel), Siedlung",9.22839,51.75648,"de:5762:7436"
"23207381","Körbecke (Kr HX), Körbecke",9.28148,51.5347,"de:5762:7381"
"23207380","Körbecke (Kr HX), Bühner Straße",9.28783,51.53771,"de:5762:7380"
"23207435","Hainhausen (Brakel), Hainhausen Mitte",9.22811,51.7509,"de:5762:7435"
"23207469","Brakel (Kr Höxter), Hembser Berg",9.20066,51.71531,"de:5762:7469"
"23207389","Muddenhagen, Muddenhagen Mitte",9.32704,51.55955,"de:5762:7389"
"23207378","Großeneder, Abzweig",9.13229,51.55109,"de:5762:7378"
"23207390","Muddenhagen, Pape",9.32906,51.56468,"de:5762:7390"
"23207444","Brakel (Kr Höxter), Modexen",9.22263,51.74205,"de:5762:7444"
"23207388","Muddenhagen, Höppermühle",9.31538,51.55942,"de:5762:7388"
"23207448","Brakel (Kr Höxter), Schäferhof",9.16959,51.73703,"de:5762:7448"
"23207460","Lütgeneder, Kirche",9.20463,51.54022,"de:5762:7460"
"23207377","Dinkelburg, Dinkelburg",9.24525,51.5413,"de:5762:7377"
"23207459","Großeneder, Grundschule",9.15599,51.5487,"de:5762:7459"
"23207384","Lütgeneder, Friedhof",9.2044,51.54205,"de:5762:7384"
"23207386","Manrode, Feuerlöschteich",9.34584,51.58344,"de:5762:7386"
"23207379","Großeneder, Großeneder Mitte",9.15884,51.55099,"de:5762:7379"
"23207426","Brakel (Kr Höxter), Wolfskuhle",9.18531,51.71534,"de:5762:7426"
"23207468","Brakel (Kr Höxter), Leßmann",9.14265,51.70218,"de:5762:7468"
"23207449","Brakel (Kr Höxter), Schmechten, Kirche",9.08296,51.68512,"de:5762:7449"
"23207443","Brakel (Kr Höxter), Kurpark Kaiserbrunnen",9.18313,51.73248,"de:5762:7443"
"23207420","Brakel (Kr Höxter), Grundschule",9.17668,51.71468,"de:5762:7420"
"23207387","Manrode, Gemeindehalle",9.33794,51.58304,"de:5762:7387"
"23207438","Brakel (Kr Höxter), Helle",9.19572,51.73104,"de:5762:7438"
"23207441","Istrup (Brakel/Hx), Istrup, Mitte",9.12083,51.70792,"de:5762:7441"
"23207412","Brakel (Kr Höxter), Sparkasse",9.18032,51.716,"de:5762:7412"
"23207419","Brakel (Kr Höxter), Galgenberg",9.2,51.71887,"de:5762:7419"
"23207423","Brakel (Kr Höxter), Stadtmitte",9.18196,51.71732,"de:5762:7423"
"23207417","Brakel (Kr Höxter), Danziger Straße",9.18424,51.72857,"de:5762:7417"
"23207376","Bühne (Westf), Siedlung",9.31037,51.5706,"de:5762:7376"
"23207422","Brakel (Kr Höxter), Krankenhaus",9.18005,51.72783,"de:5762:7422"
"23207415","Brakel (Kr Höxter), Breslauer Straße",9.18452,51.72625,"de:5762:7415"
"23207375","Bühne (Westf), Kirche",9.30853,51.57329,"de:5762:7375"
"23207414","Brakel (Kr Höxter), Berliner Straße",9.1837,51.7251,"de:5762:7414"
"23207416","Brakel (Kr Höxter), Brunnenallee",9.18468,51.72419,"de:5762:7416"
"23207497","Brakel (Kr Höxter), Brede",9.18028,51.71887,"de:5762:7497"
"23207425","Brakel (Kr Höxter), Vitusstraße",9.17565,51.72139,"de:5762:7425"
"23207373","Bühne (Westf), Post",9.30503,51.57499,"de:5762:7373"
"23207418","Brakel (Kr Höxter), Faulensieksweg",9.17826,51.71957,"de:5762:7418"
"23207427","Brakel (Kr Höxter), Bökendorfer Straße",9.18978,51.72334,"de:5762:7427"
"23207331","Dörenhagen, Picht",8.84328,51.67316,"de:5774:7331"
"23207279","Beverungen, ZOB An der Burg",9.37512,51.66212,"de:5762:7279"
"23207310","Würgassen, Zur Kurve",9.40389,51.64183,"de:5762:7310"
"23207297","Herstelle, Torbreite",9.41153,51.63784,"de:5762:7297"
"23207308","Würgassen, Bürgermeister-Rox-Platz",9.40921,51.64181,"de:5762:7308"
"23207296","Herstelle, Kirche",9.41827,51.64196,"de:5762:7296"
"23207295","Herstelle, Am Walde",9.42423,51.64453,"de:5762:7295"
"23207361","Borgentreich, Herbold",9.24448,51.56069,"de:5762:7361"
"23207283","Blankenau (Kr HX), Zum Wesertal",9.38281,51.69362,"de:5762:7283"
"23207307","Wehrden (Weser), Siedlung",9.38212,51.70893,"de:5762:7307"
"23207305","Wehrden (Weser), Bahnhof",9.38504,51.70861,"de:5762:7305"
"23207306","Wehrden (Weser), Kirche",9.38589,51.71157,"de:5762:7306"
"23207299","Rothe (Beverungen), Glockenweg",9.2713,51.65094,"de:5762:7299"
"23207356","Borgentreich, Drankhausen",9.20778,51.61703,"de:5762:7356"
"23207304","Tietelsen, Post",9.27585,51.65784,"de:5762:7304"
"23207369","Borgholz (Kr HX), Bahnhof",9.25866,51.60956,"de:5762:7369"
"23207289","Dalhausen (Beverung), Tankstelle",9.28798,51.62487,"de:5762:7289"
"23207287","Dalhausen (Beverung), Schule",9.29196,51.62959,"de:5762:7287"
"23207290","Dalhausen (Beverung), Altes Korbhaus",9.29043,51.62604,"de:5762:7290"
"23207358","Borgentreich, Berghaus",9.22951,51.59405,"de:5762:7358"
"23207285","Dalhausen (Beverung), Kirche Dalhausen",9.29218,51.62733,"de:5762:7285"
"23207320","Alfen (Kr Paderborn), Bergstraße",8.6969,51.65492,"de:5774:7320"
"23207322","Alfen (Kr Paderborn), Kirche",8.70003,51.65192,"de:5774:7322"
"23207323","Alfen (Kr Paderborn), Kleeberg",8.70288,51.64699,"de:5774:7323"
"23207324","Alfen (Kr Paderborn), Tudorfer Straße",8.70233,51.65088,"de:5774:7324"
"23207321","Alfen (Kr Paderborn), Hellenberg",8.70249,51.6551,"de:5774:7321"
"23207340","Kirchborchen, Gallihöhe",8.7176,51.65819,"de:5774:7340"
"23207286","Dalhausen (Beverung), Mühle",9.301,51.63129,"de:5762:7286"
"23207359","Borgentreich, Christinenhof",9.22199,51.55066,"de:5762:7359"
"23207326","Nordborchen, Brücke",8.7194,51.66382,"de:5774:7326"
"23207339","Kirchborchen, Ettelner Straße",8.72435,51.65557,"de:5774:7339"
"23207349","Nordborchen, Kreuzricke",8.7232,51.66808,"de:5774:7349"
"23207344","Kirchborchen, Eulenberg",8.72805,51.65817,"de:5774:7344"
"23207345","Kirchborchen, Hessenberg",8.72826,51.66393,"de:5774:7345"
"23207350","Nordborchen, Remmert",8.72423,51.67184,"de:5774:7350"
"23207292","Drenke, Eilsen",9.29626,51.67157,"de:5762:7292"
"23207346","Kirchborchen, Stadtweg",8.73056,51.65969,"de:5774:7346"
"23207302","Beverungen, Gut Roggenthal",9.31481,51.64546,"de:5762:7302"
"23207327","Kirchborchen, Trift",8.73505,51.65931,"de:5774:7327"
"23207280","Beverungen, Meyerfeldtreppe",9.368,51.66163,"de:5762:7280"
"23207294","Haarbrück, Haarbrück",9.34106,51.62256,"de:5762:7294"
"23207281","Beverungen, Schulzentrum",9.36817,51.66546,"de:5762:7281"
"23207348","Nordborchen, Höhenweg",8.7303,51.67525,"de:5774:7348"
"23207342","Borchen, Gellinghausen",8.74261,51.63781,"de:5774:7342"
"23207347","Nordborchen, Am Knocken",8.73067,51.6787,"de:5774:7347"
"23207365","Borgentreich, Natzunger Straße",9.23683,51.57315,"de:5762:7365"
"23207362","Borgentreich, Kaserne",9.21349,51.57202,"de:5762:7362"
"23207300","Beverungen, Abzweig Forsthaus",9.32877,51.65113,"de:5762:7300"
"23207318","Alhausen (Westf), Auf der Steinbrücke",9.05649,51.74769,"de:5762:7318"
"23207298","Beverungen, Jakobsberg",9.33163,51.63228,"de:5762:7298"
"23207293","Drenke, Kirche",9.31094,51.6823,"de:5762:7293"
"23207360","Eissen, Saken",9.24025,51.57121,"de:5762:7360"
"23207357","Borgentreich, Aldorpsen",9.19788,51.57102,"de:5762:7357"
"23207367","Borgentreich, Schulzentrum",9.23518,51.57026,"de:5762:7367"
"23207363","Borgentreich, Busbahnhof",9.2407,51.57022,"de:5762:7363"
"23207366","Borgentreich, Rose",9.26189,51.57396,"de:5762:7366"
"23207328","Borchen, Busch",8.83854,51.65415,"de:5774:7328"
"23207334","Eggeringhausen, Holtsaut",8.83567,51.65977,"de:5774:7334"
"23207333","Eggeringhausen, Eggeringhausen",8.83561,51.66396,"de:5774:7333"
"23207332","Dörenhagen, Post",8.8351,51.6689,"de:5774:7332"
"23207330","Dörenhagen, Alte Kirche",8.83418,51.67221,"de:5774:7330"
"23207329","Dörenhagen, Abzweig",8.8318,51.67669,"de:5774:7329"
"23207364","Borgentreich, Mühlenstraße",9.24236,51.56679,"de:5762:7364"
"23207319","Schloss Hamborn, Altenheim",8.77924,51.66232,"de:5774:7319"
"23207352","Schloss Hamborn, Schloß Hamborn Mitte",8.77304,51.6622,"de:5774:7352"
"23207351","Schloss Hamborn, Querweg",8.76685,51.6628,"de:5774:7351"
"23207336","Etteln, Post",8.76272,51.62801,"de:5774:7336"
"23207335","Etteln, Oberdorf",8.76343,51.6238,"de:5774:7335"
"23207337","Etteln, Siedlung",8.75999,51.6321,"de:5774:7337"
"23207343","Kirchborchen, Erhard",8.7537,51.66079,"de:5774:7343"
"23207353","Brakel (Kr Höxter), Sägewerk",9.19597,51.71216,"de:5762:7353"
"23207301","Beverungen, Blockst.Roggenthal",9.33578,51.65135,"de:5762:7301"
"23207368","Borgentreich, Siedlung",9.23711,51.56774,"de:5762:7368"
"23207291","Drenke, Am Sportplatz",9.31734,51.68263,"de:5762:7291"
"23207354","Brakel (Kr Höxter), Schulzentrum",9.18637,51.71318,"de:5762:7354"
"23207252","Bentlake, Bentlakestraße",8.67877,51.81908,"de:5774:7252"
"23207166","Bühne (Westf), Tankstelle",9.30274,51.57603,"de:5762:7166"
"23207241","Salzkotten, Westerhudestraße",8.60031,51.66085,"de:5774:7241"
"23207181","Bad Driburg (Westf), Evang. Kirche",9.03276,51.73391,"de:5762:7181"
"23207278","Beverungen, Grüner Weg",9.3752,51.67229,"de:5762:7278"
"23207195","Bad Driburg (Westf), Lehrer-Lippert-Str",9.01929,51.74155,"de:5762:7195"
"23207247","Büren (Kr Paderborn), Paderborn/Lippstadt Airport",8.62053,51.61057,"de:5774:7247"
"23207274","Beverungen, Haarbrücker Str",9.35456,51.65933,"de:5762:7274"
"23207191","Bad Driburg (Westf), Krankenhaus",9.00947,51.74201,"de:5762:7191"
"23207185","Bad Driburg (Westf), Glashütte",9.03001,51.73244,"de:5762:7185"
"23207194","Bad Driburg (Westf), Vor der Brede",9.02095,51.73646,"de:5762:7194"
"23207260","Bad Driburg (Westf), Tourist-Information",9.0274,51.73319,"de:5762:7260"
"23207216","Bad Driburg (Westf), Pyrmonter Straße",9.01829,51.73749,"de:5762:7216"
"23207187","Bad Driburg (Westf), Jahnstraße",9.01797,51.73386,"de:5762:7187"
"23207184","Bad Driburg (Westf), Friedhof",9.00982,51.73705,"de:5762:7184"
"23207186","Bad Driburg (Westf), Hildegundestraße",9.01275,51.73958,"de:5762:7186"
"23207213","Herste, Liliental",9.06443,51.72039,"de:5762:7213"
"23207248","Altenbeken, Mittelmühle",8.93402,51.76395,"de:5774:7248"
"23207197","Bad Driburg (Westf), Stadtpark",9.02475,51.72971,"de:5762:7197"
"23207264","Bad Lippspringe, Gesamtschule",8.81402,51.78028,"de:5774:8283"
"23207188","Bad Driburg (Westf), Josefsmühle",9.04404,51.72309,"de:5762:7188"
"23207218","Bad Driburg (Westf), Grundschulen",9.01518,51.73395,"de:5762:7218"
"23207254","Bad Lippspringe, Bleichstraße",8.80908,51.77786,"de:5774:7254"
"23207276","Beverungen, Am Fischteich",9.36126,51.67287,"de:5762:7276"
"23207263","Bad Lippspringe, Neuhäuser Weg",8.805,51.77557,"de:5774:7263"
"23207167","Körbecke (Kr HX), Kröger",9.27015,51.53447,"de:5762:7167"
"23207199","Bad Driburg (Westf), Freibad",9.04057,51.73495,"de:5762:7199"
"23207222","Langeland, Rusterhof",9.01003,51.77364,"de:5762:7222"
"23207198","Bad Driburg (Westf), Rathaus",9.02466,51.73379,"de:5762:7198"
"23207177","Bad Driburg (Westf), Bahnhof",9.03029,51.73084,"de:5762:7177"
"23207235","Reelsen, Schloß",9.02464,51.76777,"de:5762:7235"
"23207189","Bad Driburg (Westf), Kapellenstraße",9.01154,51.73379,"de:5762:7189"
"23207277","Beverungen, Am Selsberg",9.36937,51.67115,"de:5762:7277"
"23207196","Bad Driburg (Westf), Gymnasium St. Xaver",9.0178,51.73093,"de:5762:7196"
"23207238","Bad Driburg (Westf), Stellberg",9.00384,51.73662,"de:5762:7238"
"23207200","Bad Driburg (Westf), Tegelweg",9.02156,51.72749,"de:5762:7200"
"23207170","Alhausen (Westf), Alhausen Mitte",9.0539,51.74917,"de:5762:7170"
"23207174","Alhausen (Westf), Umspannwerk",9.05941,51.74374,"de:5762:7174"
"23207275","Beverungen, Lilienweg",9.37474,51.66905,"de:5762:7275"
"23207256","Talle (Paderborn), Ingolstädter Weg",8.75684,51.74493,"de:5774:7256"
"23207234","Reelsen, Kirche",9.02377,51.75938,"de:5762:7234"
"23207172","Alhausen (Westf), Ortseingang",9.04769,51.74876,"de:5762:7172"
"23207237","Bad Driburg (Westf), Eggeweg",8.98681,51.73946,"de:5762:7237"
"23207171","Alhausen (Westf), Mühlengrund",9.04071,51.74848,"de:5762:7171"
"23207175","Bad Driburg (Westf), Abzw.Alhausen",9.0625,51.73704,"de:5762:7175"
"23207180","Bad Driburg (Westf), Erich-Klausener-S",9.018,51.72606,"de:5762:7180"
"23207271","Amelunxen, Amelunxen West",9.33994,51.7219,"de:5762:7271"
"23207257","Stadtheide, Schleswiger Weg",8.74826,51.74273,"de:5774:7257"
"23207173","Reelsen, Stöver",9.03154,51.75223,"de:5762:7173"
"23207253","Hövelriege, Bahnhof",8.64169,51.86592,"de:5774:7253"
"23207221","Langeland, Langeland Ort",8.99739,51.78185,"de:5762:7221"
"23207190","Bad Driburg (Westf), Karlsring",9.01371,51.72572,"de:5762:7190"
"23207267","Bad Lippspringe, Sparkasse",8.81708,51.78173,"de:5774:7267"
"23207268","Bad Lippspringe, Stadtmitte",8.82132,51.78403,"de:5774:7268"
"23207251","Klausheide/Hövelhof, Erlenweg",8.66964,51.80971,"de:5774:7251"
"23207210","Erpentrup, Erpentrup Mitte",9.00147,51.78895,"de:5762:7210"
"23207243","Erpentrup, Am Breitenbach",9.00062,51.78929,"de:5762:7243"
"23207259","Pömbsen, Ermissen",9.07745,51.7587,"de:5762:7259"
"23207258","Bad Lippspringe, Konrad-Korte-Straße",8.82366,51.78635,"de:5774:7258"
"23207266","Bad Lippspringe, Westfalentherme",8.82685,51.79025,"de:5774:7266"
"23207219","Buke, Dorfplatz",8.94899,51.74157,"de:5774:7219"
"23207265","Bad Lippspringe, Schützenplatz",8.8296,51.79295,"de:5774:7265"
"23207250","Sennelager, Pater-Ewald-Straße",8.70865,51.78269,"de:5774:7250"
"23207168","Großeneder, Josef-Gockeln-Straße",9.15751,51.54707,"de:5762:7168"
"23207179","Bad Driburg (Westf), Clemensheim",9.02367,51.74736,"de:5762:7179"
"23207236","Siebenstern, Siebenstern Mitte",9.03534,51.70481,"de:5762:7236"
"23207262","Lieth (Paderborn), Kaukenberg",8.8035,51.72075,"de:5774:7262"
"23207255","Bad Lippspringe, Dedinger Heide",8.83518,51.79779,"de:5774:7255"
"23207178","Bad Driburg (Westf), Brunnenstraße",9.05002,51.73678,"de:5762:7178"
"23207223","Neuenheerse, Abzw. Herbram Wald",8.96532,51.67922,"de:5762:7223"
"23207231","Neuenheerse, Ziegelei",8.97524,51.67688,"de:5762:7231"
"23207169","Dringenberg, Südstraße",9.06154,51.67037,"de:5762:7169"
"23207182","Bad Driburg (Westf), Forsthaus",9.0152,51.71531,"de:5762:7182"
"23207214","Herste, Mitte",9.09474,51.71034,"de:5762:7214"
"23207228","Neuenheerse, Radbaum",8.9689,51.68987,"de:5762:7228"
"23207240","Paderborn, Goldberg",8.80838,51.71897,"de:5774:7240"
"23207203","Dringenberg, Burg",9.05489,51.67159,"de:5762:7203"
"23207229","Neuenheerse, Siedlung",8.99314,51.67577,"de:5762:7229"
"23207212","Herste, Heristiestraße",9.08488,51.71137,"de:5762:7212"
"23207225","Neuenheerse, Gut Wertheim",9.00901,51.65593,"de:5762:7225"
"23207209","Dringenberg, Siedlung Dringenberg",9.04993,51.67386,"de:5762:7209"
"23207226","Neuenheerse, Kirche",8.99809,51.67637,"de:5762:7226"
"23207269","Paderborn, Kleingärten Dahler Weg",8.79508,51.70361,"de:5774:7269"
"23207230","Neuenheerse, Wendeplatz",9.00089,51.67573,"de:5762:7230"
"23207239","Pömbsen, Dr-Gotthard-Straße",9.07021,51.77063,"de:5762:7239"
"23207207","Dringenberg, Obermühle",9.04241,51.67711,"de:5762:7207"
"23207273","Amelunxen, Wildbergstraße",9.3493,51.71151,"de:5762:7273"
"23207224","Neuenheerse, Nackenweg",9.00376,51.67308,"de:5762:7224"
"23207233","Pömbsen, Post",9.07407,51.77449,"de:5762:7233"
"23207192","Bad Driburg (Westf), Polizei",9.02348,51.73355,"de:5762:7192"
"23207272","Amelunxen, Kirche",9.34388,51.71277,"de:5762:7272"
"23207227","Neuenheerse, Klusstraße",9.00765,51.67426,"de:5762:7227"
"23207249","Schwaney, Rotenbach",8.93502,51.71844,"de:5774:7249"
"23207232","Pömbsen, Abzw. Erwitzen",9.07532,51.77662,"de:5762:7232"
"23207205","Dringenberg, Fiele",9.0276,51.68149,"de:5762:7205"
"23207211","Herste, Abzw. Schmechten",9.09133,51.71019,"de:5762:7211"
"23207215","Kühlsen, Kirche Kühlsen",9.02988,51.6691,"de:5762:7215"
"23207131","Altenbeken, Bahnhof",8.94302,51.76609,"de:5774:7131"
"23207102","Paderborn, Rotheweg",8.75364,51.73295,"de:5774:7102"
"23207140","Altenbeken, Schule",8.94244,51.76005,"de:5774:7140"
"23207156","Schwaney, Otten",8.93227,51.71612,"de:5774:7156"
"23207141","Altenbeken, Seniorenzentrum",8.95289,51.75805,"de:5774:7141"
"23207153","Schwaney, Gemeindeplatz",8.93536,51.71368,"de:5774:7153"
"23207134","Altenbeken, Am Hammer",8.91945,51.76106,"de:5774:7134"
"23207162","Natzungen, Siedlung",9.23902,51.61053,"de:5762:7162"
"23207157","Schwaney, Siedlung",8.94219,51.71054,"de:5774:7157"
"23207155","Schwaney, Osningstraße",8.94541,51.70972,"de:5774:7155"
"23207135","Altenbeken, Hüttenstraße",8.94996,51.76097,"de:5774:7135"
"23207108","Paderborn, Schützenplatz Nord",8.75064,51.73208,"de:5774:7108"
"23207133","Altenbeken, Großer Viadukt",8.92854,51.76361,"de:5774:7133"
"23207146","Buke, Industriestraße",8.94535,51.73002,"de:5774:7146"
"23207106","Paderborn, SZ Niesenteich",8.77572,51.73464,"de:5774:7106"
"23207152","Schwaney, Forsthaus",8.94193,51.70392,"de:5774:7152"
"23207132","Altenbeken, Durbekeweg",8.90561,51.75742,"de:5774:7132"
"23207145","Buke, Alter Postweg",8.9482,51.73424,"de:5774:7145"
"23207126","Paderborn, Winfriedstraße",8.7595,51.71291,"de:5774:7126"
"23207130","Altenbeken, Am Brande",8.95157,51.75295,"de:5774:7130"
"23207159","Neuenheerse, Alte Ziegelei",8.98031,51.67685,"de:5762:7159"
"23207143","Altenbeken, Am Marktplatz",8.94141,51.76355,"de:5774:7143"
"23207164","Bühne (Westf), Waldeyer",9.29049,51.57607,"de:5762:7164"
"23207142","Altenbeken, Untere Sage",8.94526,51.76346,"de:5774:7142"
"23207105","Paderborn, Schulbrede",8.76592,51.71437,"de:5774:7105"
"23207158","Großeneder, Volksbank",9.15785,51.54969,"de:5762:7158"
"23207111","Paderborn, Stettiner Straße",8.73031,51.69946,"de:5774:7111"
"23207137","Alhausen (Westf), Anne-Frank-Schule",9.05147,51.74976,"de:5762:7137"
"23207104","Stadtheide, Schubertweg",8.76779,51.73999,"de:5774:7104"
"23207115","Paderborn, Tegelweg",8.75618,51.72735,"de:5774:7115"
"23207123","Paderborn, Westfriedhof",8.72998,51.71577,"de:5774:7123"
"23207109","Stadtheide, Schwabenweg",8.76106,51.74095,"de:5774:7109"
"23207119","Paderborn, Warburger Straße",8.77694,51.70698,"de:5774:7119"
"23207110","Paderborn, Sighardstraße",8.74638,51.70771,"de:5774:7110"
"23207128","Paderborn, Zur Schmiede",8.74362,51.71245,"de:5774:7128"
"23207121","Paderborn, Westerntor",8.74621,51.7155,"de:5774:7121"
"23207148","Buke, Reelsberg",8.95595,51.7412,"de:5774:7148"
"23207125","Paderborn, Wilhelmshöhe",8.72941,51.73039,"de:5774:7125"
"23207127","Paderborn, Zentralstation",8.74928,51.71768,"de:5774:7127"
"23207107","Paderborn, Schulze-Delitzsch-Straße",8.77746,51.71809,"de:5774:7107"
"23207163","Bad Driburg (Westf), Schulzentrum",9.01935,51.72688,"de:5762:7163"
"23207122","Paderborn, Ludwigsfelder Ring",8.77947,51.71836,"de:5774:7122"
"23207160","Neuenbeken, Buchholz",8.85692,51.7457,"de:5774:7160"
"23207147","Buke, Buke Mitte",8.94989,51.7423,"de:5774:7147"
"23207149","Buke, Schule",8.94474,51.74345,"de:5774:7149"
"23207117","Paderborn, Uni/Schöne Aussicht",8.77406,51.71045,"de:5774:7117"
"23207113","Paderborn, Südring",8.7662,51.70388,"de:5774:7113"
"23207039","Paderborn, Friedrich-Ebert-Str",8.73482,51.71585,"de:5774:7039"
"23207046","Paderborn, Kasseler Tor",8.75965,51.71615,"de:5774:7046"
"23207071","Stadtheide, Lemgoer Straße",8.76987,51.74269,"de:5774:7071"
"23207100","Paderborn, Rathausplatz",8.75375,51.71699,"de:5774:7100"
"23207077","Stadtheide, Lortzingweg",8.76475,51.7404,"de:5774:7077"
"23207066","Paderborn, Kilianstraße",8.75477,51.71118,"de:5774:7066"
"23207063","Paderborn, Kamp",8.75748,51.71701,"de:5774:7063"
"23207083","Paderborn, Mörikestraße",8.77896,51.72611,"de:5774:7083"
"23207082","Paderborn, Michaelstraße",8.75324,51.72079,"de:5774:7082"
"23207084","Paderborn, Neuenheerser Weg",8.78678,51.70847,"de:5774:7084"
"23207054","Paderborn, Heinrichskirche",8.75959,51.72585,"de:5774:7054"
"23207064","Paderborn, Kasseler Straße",8.75923,51.71688,"de:5774:7064"
"23207099","Paderborn, Querweg",8.753,51.7061,"de:5774:7099"
"23207076","Paderborn, Lindenweg",8.75727,51.70859,"de:5774:7076"
"23207095","Paderborn, Piepenturmweg",8.77099,51.71853,"de:5774:7095"
"23207061","Paderborn, Brüderkrankenhaus",8.76071,51.71071,"de:5774:7061"
"23207058","Paderborn, Im Lichtenfelde",8.78496,51.70789,"de:5774:7058"
"23207089","Paderborn, Ostfriedhof",8.76563,51.71995,"de:5774:7089"
"23207091","Paderborn, Pankratiusstraße",8.75741,51.70761,"de:5774:7091"
"23207049","Paderborn, Gottfried-Keller-Weg",8.77835,51.72248,"de:5774:7049"
"23207079","Paderborn, Maspernplatz",8.75353,51.72357,"de:5774:7079"
"23207081","Paderborn, Meinolfkirche",8.75092,51.70965,"de:5774:7081"
"23207078","Paderborn, Lothringer Weg",8.76415,51.73073,"de:5774:7078"
"23207094","Paderborn, Betriebshof",8.7209,51.70559,"de:5774:7094"
"23207053","Paderborn, Heiersstraße",8.75713,51.72083,"de:5774:7053"
"23207075","Paderborn, Liethstaudamm",8.7862,51.71053,"de:5774:7075"
"23207093","Paderborn, Parkplatz",8.71491,51.71661,"de:5774:7093"
"23207070","Paderborn, Langer Weg",8.77154,51.72439,"de:5774:7070"
"23207098","Paderborn, Pontanusstraße",8.7272,51.71037,"de:5774:7098"
"23207055","Paderborn, Hochstiftstraße",8.78069,51.70889,"de:5774:7055"
"23207097","Paderborn, Technisches Rathaus",8.72574,51.71571,"de:5774:7097"
"23207065","Paderborn, Kilianplatz",8.75944,51.70564,"de:5774:7065"
"23207069","Paderborn, Klöcknerstraße",8.73398,51.71195,"de:5774:7069"
"23207057","Paderborn, Ilseweg",8.74421,51.70417,"de:5774:7057"
"23207074","Paderborn, Liegnitzer Straße",8.74044,51.70795,"de:5774:7074"
"23207059","Paderborn, Im Spiringsfelde",8.7641,51.70617,"de:5774:7059"
"23207087","Paderborn, Paderborn, Nordbahnhof",8.75794,51.72852,"de:5774:7087"
"23207047","Paderborn, Goerdelerstraße",8.72294,51.72346,"de:5774:7047"
"23207067","Paderborn, Dahler Weg",8.78038,51.70958,"de:5774:7067"
"23207048","Paderborn, Goerdeler Gymnasium",8.72568,51.72369,"de:5774:7048"
"23207080","Paderborn, Mälzerstraße",8.74613,51.71238,"de:5774:7080"
"23207086","Paderborn, Heinz-Nixdorf-Ring",8.72454,51.72816,"de:5774:7086"
"23207072","Paderborn, Le-Mans-Wall",8.74955,51.71515,"de:5774:7072"
"23207085","Paderborn, Neuhäuser Tor",8.74867,51.72058,"de:5774:7085"
"23207101","Paderborn, Rolandsweg",8.74422,51.72495,"de:5774:7101"
"23207056","Paderborn, MuseumsForum",8.73675,51.73232,"de:5774:7056"
"23207096","Paderborn, Pirolweg",8.74677,51.7377,"de:5774:7096"
"23206162","Riege (Hövelhof), Spieker",8.62409,51.85034,"de:5774:6162"
"23206219","Klausheide/Hövelhof, Heinrichstr",8.69692,51.81262,"de:5774:6219"
"23206974","Fürstenberg (Kr PB), Buchholz",8.81111,51.48542,"de:5774:6974"
"23207015","Paderborn, Bhf. Kasseler Tor",8.76074,51.7161,"de:5774:7015"
"23206978","Salzkotten, Lange Brückenstraße",8.60553,51.66626,"de:5774:6978"
"23206707","Langeland, Kirche Langeland",8.99761,51.78409,"de:5762:6707"
"23206992","Salzkotten, Am Wallgraben",8.60482,51.67307,"de:5774:6992"
"23207044","Paderborn, Gertrudenstraße",8.76234,51.70467,"de:5774:7044"
"23206975","Salzkotten, Tudorfer Straße",8.6196,51.67069,"de:5774:6975"
"23207028","Paderborn, Detmolder Tor",8.75828,51.72261,"de:5774:7028"
"23206224","Staumühle, JVA Staumühle",8.72084,51.8191,"de:5774:6224"
"23206851","Steinheim (Westf), Minipreis",9.08795,51.86577,"de:5762:6851"
"23206382","Ottbergen (Kr Höxt.), Kirche",9.3054,51.70772,"de:5762:6382"
"23206386","Dörenhagen, Eiferslohn",8.80001,51.65993,"de:5774:6386"
"23207008","Paderborn, Am Bogen",8.75847,51.71843,"de:5774:7008"
"23207045","Paderborn, Gierstor",8.76165,51.72046,"de:5774:7045"
"23207023","Paderborn, Brukterer Weg",8.76744,51.73568,"de:5774:7023"
"23207014","Paderborn, Ausbesserungswerk",8.74815,51.73523,"de:5774:7014"
"23206988","Brakel (Kr Höxter), Ostheimer Straße",9.19196,51.7143,"de:5762:6988"
"23207010","Paderborn, Am Laugrund",8.77602,51.70942,"de:5774:7010"
"23206619","Höxter, Waldhoff",9.35119,51.77537,"de:5762:6619"
"23207032","Paderborn, Englische Siedlung",8.78283,51.72802,"de:5774:7032"
"23207040","Paderborn, Fröbelstraße",8.76617,51.722,"de:5774:7040"
"23207041","Paderborn, Fürstenweg",8.74324,51.72227,"de:5774:7041"
"23206888","Steinheim (Westf), Vinsebecker Straße",9.07284,51.85928,"de:5762:6888"
"23206852","Höxter, Kampschulteweg",9.35072,51.77426,"de:5762:6852"
"23207024","Paderborn, Cheruskerstraße",8.76161,51.72689,"de:5774:7024"
"23207011","Paderborn, Am Silberbrink",8.73286,51.72766,"de:5774:7011"
"23207043","Paderborn, Georgskirche",8.73948,51.72318,"de:5774:7043"
"23207009","Paderborn, Hilligenbusch",8.76931,51.71295,"de:5774:7009"
"23207030","Paderborn, Elsener Straße",8.73655,51.72473,"de:5774:7030"
"23206380","Godelheim, Marbeke",9.35784,51.73055,"de:5762:6380"
"23206320","Stadtheide, Seskerbruch",8.77242,51.74328,"de:5774:6320"
"23207027","Paderborn, Delpstraße",8.7306,51.7263,"de:5774:7027"
"23206987","Steinheim (Westf), Rolfzener Straße",9.10198,51.86603,"de:5762:6987"
"23206693","Langeland, Horner Straße",8.99953,51.77964,"de:5762:6693"
"23207001","Paderborn, Abtsbrede",8.74699,51.70989,"de:5774:7001"
"23206221","Klausheide/Hövelhof, Brandenburger Straße",8.67767,51.79692,"de:5774:6221"
"23207020","Paderborn, Berliner Ring",8.77635,51.72719,"de:5774:7020"
"23207000","Paderborn, Paderborn Hbf",8.74059,51.71338,"de:5774:7000"
"23206225","Staumühle, Staumühler Straße",8.69956,51.81822,"de:5774:6225"
"23207029","Paderborn, Elisabethkirche",8.74921,51.70434,"de:5774:7029"
"23207025","Paderborn, Corveyer Weg",8.77778,51.71168,"de:5774:7025"
"23206624","Hövelhof, Zieglerstraße",8.66474,51.81515,"de:5774:6624"
"23206222","Lichtenau (Westf), Sportplatz",8.90252,51.62183,"de:5774:6222"
"23206384","Godelheim, Drosteweg",9.36135,51.73479,"de:5762:6384"
"23206223","Bentlake, Mergelweg",8.70009,51.82257,"de:5774:6223"
"23206990","Brakel (Kr Höxter), Warburger Straße",9.17926,51.7124,"de:5762:6990"
"23206381","Godelheim, Barbarastraße",9.35965,51.73706,"de:5762:6381"
"23206850","Riege (Hövelhof), Neuer Weg",8.62067,51.84764,"de:5774:6850"
"23206227","Hövelhof, Katholische Kirche",8.65812,51.82113,"de:5774:6227"
"23207005","Paderborn, Almepark",8.72197,51.71891,"de:5774:7005"
"23207038","Stadtheide, Friedlandweg",8.76727,51.74322,"de:5774:7038"
"23207026","Paderborn, Damaschkestraße",8.72292,51.71572,"de:5774:7026"
"23207022","Paderborn, Breslauer Straße",8.73528,51.70427,"de:5774:7022"
"23207036","Paderborn, Frauenklinik",8.76237,51.70857,"de:5774:7036"
"23207007","Paderborn, Bischofsteich",8.75469,51.72543,"de:5774:7007"
"23206385","Lütmarsen, Kirche",9.34308,51.78574,"de:5762:6385"
"23206810","Lütmarsen, Friedhof",9.33629,51.78436,"de:5762:6810"
"23207019","Paderborn, Barkhauser Straße",8.72163,51.7075,"de:5774:7019"
"23206195","Hövelriege, Hahnenkrug",8.64119,51.85415,"de:5774:6195"
"23206199","Hövelhof, Unterems",8.66489,51.84871,"de:5774:6199"
"23206203","Riege (Hövelhof), Am Henkenteich",8.60815,51.83801,"de:5774:6203"
"23206209","Espeln, Stollmeier",8.62693,51.81961,"de:5774:6209"
"23206200","Hövelriege, Rieger Str",8.62936,51.86336,"de:5774:6200"
"23206215","Espeln, Emsallee",8.59147,51.8245,"de:5774:6215"
"23206214","Espeln, Pape",8.57412,51.82421,"de:5774:6214"
"23206204","Riege (Hövelhof), Vennweg",8.6058,51.83599,"de:5774:6204"
"23206205","Herstelle, Fährstraße",9.41982,51.64272,"de:5762:6205"
"23206210","Espeln, Haller Weg",8.62025,51.81966,"de:5774:6210"
"23206211","Espeln, Mittelweg",8.61,51.81972,"de:5774:6211"
"23206216","Espeln, Emsbrücke",8.59637,51.83005,"de:5774:6216"
"23206218","Untersenne, Rellerriege",8.70463,51.82867,"de:5774:6218"
"23206212","Espeln, Im Brande",8.60224,51.81903,"de:5774:6212"
"23206202","Riege (Hövelhof), Brockweg",8.61039,51.83962,"de:5774:6202"
"23206206","Hasendorf/Hövelhof, Wilhörster Teich",8.67579,51.83016,"de:5774:6206"
"23206217","Untersenne, Lippspringer Postweg",8.69672,51.83236,"de:5774:6217"
"23206207","Hasendorf/Hövelhof, Mühlenschule",8.68402,51.82827,"de:5774:6207"
"23206208","Hasendorf/Hövelhof, Sennestraße",8.68943,51.83035,"de:5774:6208"
"23205696","Höxter, Petrikirche",9.36614,51.77232,"de:5762:5696"
"23206152","Hövelhof, Kirchschule",8.65202,51.82004,"de:5774:6152"
"23206180","Hövelhof, Hudeweg",8.66154,51.81707,"de:5774:6180"
"23206191","Hövelhof, Lerchenstraße",8.6718,51.82984,"de:5774:6191"
"23206159","Hövelhof, Steinweg",8.66872,51.84768,"de:5774:6159"
"23206156","Hövelhof, Rathaus",8.65751,51.82252,"de:5774:6156"
"23206185","Hövelhof, Wanderparkplatz",8.6724,51.82347,"de:5774:6185"
"23206153","Hövelhof, Grüner Weg",8.63963,51.81633,"de:5774:6153"
"23206194","Hövelriege, Neue Riege",8.63817,51.85724,"de:5774:6194"
"23206196","Hövelriege, Tellweg",8.65108,51.85458,"de:5774:6196"
"23206197","Hövelriege, Emssiedlung",8.65243,51.84325,"de:5774:6197"
"23206192","Hövelriege, Furlbachschule",8.64517,51.8667,"de:5774:6192"
"23206154","Hövelhof, Gütersloher Straße",8.63968,51.82762,"de:5774:6154"
"23206155","Hövelriege, Lehmweg",8.64602,51.84108,"de:5774:6155"
"23206193","Hövelriege, Rübbelke",8.63665,51.86342,"de:5774:6193"
"23206190","Hövelhof, Ev. Kirche",8.6667,51.82674,"de:5774:6190"
"23206189","Hövelhof, Hegemann",8.66445,51.82347,"de:5774:6189"
"23206164","Hövelriege, Wiethof",8.65284,51.83727,"de:5774:6164"
"23206157","Riege (Hövelhof), Schalück",8.60328,51.8487,"de:5774:6157"
"23206163","Hövelhof, Lakeweg",8.66748,51.81165,"de:5774:6163"
"23203957","Vinsebeck, Vinsebeck Mitte",9.0299,51.8488,"de:5762:3957"
"23206144","Hövelhof, Bahnhof",8.6616,51.82367,"de:5774:6144"
"23206147","Riege (Hövelhof), Brink",8.61077,51.84177,"de:5774:6147"
"23206150","Riege (Hövelhof), Goldamsel",8.63991,51.85268,"de:5774:6150"
"23202458","Bad Driburg (Westf), Freiherr-vom-Stein-Straße",9.03275,51.7329,"de:5762:2458"
"23202459","Bad Driburg (Westf), Ostfriedhof",9.03441,51.7302,"de:5762:2459"
"23203951","Steinheim (Westf), Lother Str",9.10962,51.86731,"de:5762:3951"
"23205698","Höxter, Hellweg",9.36142,51.76745,"de:5762:5698"
"23205685","Lippling, Steppeler",8.5659,51.78428,"de:5774:5685"
"23205695","Höxter, Corbiestraße",9.38433,51.77666,"de:5762:5695"
"23205683","Riesel (Westf), Disse",9.16229,51.70111,"de:5762:5683"
"23203946","Steinheim (Westf), Abzw. Ottenhausen",9.08026,51.87076,"de:5762:3946"
"23202653","Holtheim, Schäfers",8.9125,51.5869,"de:5774:2653"
"23203956","Ottenhausen (Westf), Kirche",9.03523,51.87088,"de:5762:3956"
"23202652","Bad Wünnenberg, Krois",8.73798,51.5011,"de:5774:2652"
"23203949","Steinheim (Westf), Detmolder Straße",9.08967,51.8623,"de:5762:3949"
"23202651","Büren (Kr Paderborn), Helsberg",8.5605,51.53564,"de:5774:2651"
"23203958","Ottenhausen (Westf), Siedlung",9.04473,51.87098,"de:5762:3958"
"23205697","Höxter, Louis-Flotho-Straße",9.36839,51.76966,"de:5762:5697"
"23203955","Steinheim (Westf), Steinheimer Feld",9.12086,51.86828,"de:5762:3955"
"23202416","Kirchborchen, Friedhof",8.72987,51.66198,"de:5774:2416"
"23202411","Westenholz (Kr PB), Ziegeleistraße",8.44801,51.74389,"de:5774:2411"
"23202454","Hohenwepel, Gemeindehalle",9.13,51.53528,"de:5762:2454"
"23202417","Willebadessen, Sportplatz",9.02118,51.62294,"de:5762:2417"
"23202445","Pömbsen, Kirche",9.07189,51.77433,"de:5762:2445"
"23202455","Hohenwepel, Peckelsheimer Straße",9.13537,51.53496,"de:5762:2455"
"23202414","Alfen (Kr Paderborn), Hilgenweg",8.7016,51.65603,"de:5774:2414"
"23202457","Warburg (Westf), Ossendorf, Haus Maria",9.10505,51.50324,"de:5762:2457"
"23202421","Lippling, Feuerwehr",8.55341,51.79758,"de:5774:2421"
"23202444","Bad Driburg (Westf), Kindergarten",9.02686,51.76005,"de:5762:2444"
"23202371","Steinheim (Westf), Anette-von-Droste-Hülshoff-Str",9.06973,51.87439,"de:5762:2371"
"23007781","Schwalenberg, Abzweig Born",9.20603,51.85805,"de:5762:7781"
