"stop_id","stop_name","stop_lon","stop_lat","stop_code"
"21003807","Merkstein, Naturfreundehaus",6.1247,50.89584,"de:5334:3807"
"21004789","Kalterherberg, Leyloch",6.19311,50.543,"de:5334:4789"
"21004795","Kalterherberg, Reichenstein",6.19879,50.53806,"de:5334:4795"
"21004796","Kalterherberg, Kalterherberg Bahnhof",6.20636,50.52066,"de:5334:4796"
"21004833","Kalterherberg, Messeweg Anfang",6.20532,50.53454,"de:5334:4833"
"21006310","Tetelrath, Tetelrath Siedlung",6.25041,51.18532,"de:5370:6310"
"21004821","Kalterherberg, Alte Str.",6.21499,50.53113,"de:5334:4821"
"21004835","Kalterherberg, Malmedyer Str.",6.21868,50.51631,"de:5334:4835"
"21004825","Kalterherberg, Fedderbach",6.21786,50.52568,"de:5334:4825"
"21004831","Kalterherberg, Messeweg",6.21956,50.52413,"de:5334:4831"
"21004827","Kalterherberg, Kalterherberg Kirche",6.22038,50.52168,"de:5334:4827"
"21004791","Monschau, Mützenich Zoll",6.19619,50.56482,"de:5334:4791"
"21004823","Kalterherberg, Bäckerei Thomas",6.22212,50.51305,"de:5334:4823"
"21004828","Monschau, Kalterherberg Grundschule",6.22333,50.51932,"de:5334:4828"
"21004829","Kalterherberg, Oberdorf",6.22574,50.51005,"de:5334:4829"
"21004885","Monschau, Weilersbroich",6.21107,50.55835,"de:5334:4885"
"21004881","Monschau, Mützenich Reichensteiner Straße",6.20952,50.56397,"de:5334:4881"
"21004798","Kalterherberg, Sonnenberg",6.23227,50.5285,"de:5334:4798"
"21004857","Monschau, Dreistegen",6.23016,50.54869,"de:5334:4857"
"21004879","Monschau, Mützenich Kirche",6.21808,50.56596,"de:5334:4879"
"21004880","Monschau, Mützenich Grundschule",6.21744,50.56661,"de:5334:4880"
"21004853","Monschau, Realschule",6.23036,50.55457,"de:5334:4853"
"21004793","Monschau, Perlenau",6.23809,50.541,"de:5334:4793"
"21004875","Monschau, Biesweg/Vennbad",6.23116,50.55396,"de:5334:4875"
"21004849","Monschau, Abzw. Kalterherberg",6.23344,50.55129,"de:5334:4849"
"21004851","Monschau, Bienenhaus",6.23567,50.55421,"de:5334:4851"
"21004883","Monschau, Schiffenborn",6.2245,50.56924,"de:5334:4883"
"21004861","Monschau, Monschau Gymnasium",6.23518,50.55721,"de:5334:4861"
"21004873","Monschau, Ursulinen / Burgau",6.23881,50.55286,"de:5334:4873"
"21004871","Monschau, Umgehungsstr.",6.2369,50.55909,"de:5334:4871"
"21004877","Monschau, Alter Gerstenhof",6.22942,50.56808,"de:5334:4877"
"21004855","Monschau, Burghotel",6.2412,50.55403,"de:5334:4855"
"21004867","Monschau, Parkhaus / Schmiede",6.24013,50.55723,"de:5334:4867"
"21004847","Monschau, Abzw. Haag",6.23576,50.5639,"de:5334:4847"
"21004865","Monschau, Monschau Bahnhof",6.23534,50.56442,"de:5334:4865"
"21004805","Monschau, Höfen Heidgen",6.2481,50.54566,"de:5334:4805"
"21004859","Monschau, Flora",6.23986,50.56518,"de:5334:4859"
"21004869","Monschau, Serpentinen",6.24626,50.56576,"de:5334:4869"
"21004837","Konzen, Konzen Bahnhof",6.24983,50.59816,"de:5334:4837"
"21005215","Roetgen, Pilgerborn",6.20054,50.63806,"de:5334:5215"
"21005227","Roetgen, Roetgen Süd",6.20691,50.63584,"de:5334:5227"
"21005233","Roetgen, Willemslägerweg",6.21578,50.63277,"de:5334:5233"
"21005225","Roetgen, Roetgen Post",6.1891,50.64268,"de:5334:5225"
"21005193","Roetgen, Fringshaus",6.23401,50.62651,"de:5334:5193"
"21005211","Roetgen, Kalfstr.",6.21001,50.63729,"de:5334:5211"
"21005219","Roetgen, Roetgen Bahnhof",6.18448,50.64734,"de:5334:5219"
"21005223","Roetgen, Neustr.",6.21194,50.63895,"de:5334:5223"
"21005217","Roetgen, Am Kloster",6.19449,50.64513,"de:5334:5217"
"21005221","Roetgen, Roetgen Markt",6.19586,50.64769,"de:5334:5221"
"21005231","Roetgen, Vogelsangstr.",6.2092,50.64351,"de:5334:5231"
"21005207","Roetgen, Am Roetgenbach",6.20463,50.6458,"de:5334:5207"
"21005197","Roetgen, Roetgen Gewerbegebiet",6.18635,50.65324,"de:5334:5197"
"21005229","Roetgen, Roetgenbachstr.",6.20122,50.64899,"de:5334:5229"
"21005213","Roetgen, Knott",6.20102,50.65092,"de:5334:5213"
"21005209","Roetgen, Brandstr.",6.20634,50.65267,"de:5334:5209"
"21006311","Wegberg, Venn",6.25525,51.18291,"de:5370:6311"
"21006293","Merbeck, Merbeck Schule",6.2502,51.17464,"de:5370:6293"
"21006295","Merbeck, Schürensteg",6.25507,51.17701,"de:5370:6295"
"21006257","Venheyde, Venheyde",6.26252,51.17783,"de:5370:6257"
"21006255","Schwaam, Schwaam",6.27522,51.17623,"de:5370:6255"
"21005836","Titz, Bettenhoven",6.47455,50.95762,"de:5358:5836"
"21005838","Titz, Bettenhoven Abzw.",6.47175,50.95742,"de:5358:5838"
"21005859","Titz, Höllen",6.46437,50.9566,"de:5358:5859"
"21005879","Rödingen, Kroschstr.",6.46859,50.95861,"de:5358:5879"
"21006263","Schwaam, Zum Thomeshof",6.27704,51.17352,"de:5370:6263"
"21006253","Merbeck, Merbecker Busch",6.26258,51.16396,"de:5370:6253"
"21005883","Rödingen, Hohe Str.",6.46236,50.962,"de:5358:5883"
"21005881","Rödingen, Rödingen Markt",6.46074,50.96521,"de:5358:5881"
"21006305","Rickelrath, Rickelrath",6.28458,51.16821,"de:5370:6305"
"21006269","Harbeck, Harbeck Hau",6.26866,51.15794,"de:5370:6269"
"21006289","Klinkum, Klinkum Schule",6.25112,51.13576,"de:5370:6289"
"21006303","Rickelrath, Abzw. Molzmühle",6.28345,51.1607,"de:5370:6303"
"21006265","Harbeck, Grenzlandring",6.27243,51.15083,"de:5370:6265"
"21006271","Harbeck, Harbeck Im Ländchen",6.2738,51.14997,"de:5370:6271"
"21006285","Klinkum, Klinkum Backhaus",6.25977,51.13699,"de:5370:6285"
"21006327","Wegberg, Berg",6.28107,51.15378,"de:5370:6327"
"21005885","Titz, Sevenich",6.39124,50.96968,"de:5358:5885"
"21006267","Harbeck, Harbeck",6.27285,51.146,"de:5370:6267"
"21006343","Wegberg, Wegberg Burg",6.27294,51.14341,"de:5370:6343"
"21006333","Wegberg, Große Riet",6.28319,51.15028,"de:5370:6333"
"21006288","Wegberg, Busch",6.2901,51.15433,"de:5370:6288"
"21006313","Wegberg, Tüschenbroich Schule",6.25099,51.1181,"de:5370:6313"
"21006290","Wegberg, Bissen",6.26774,51.13726,"de:5370:6290"
"21006346","Wegberg, Westend",6.27213,51.1406,"de:5370:6346"
"21005861","Hompesch, Hompesch",6.35373,50.97952,"de:5358:5861"
"21005153","Aachen, Köpfchen Grenze",6.09039,50.72121,"de:5334:5153"
"21006355","Wegberg, Wegberg Post",6.27896,51.14347,"de:5370:6355"
"21006340","Wegberg, Wegberg Bf",6.28168,51.14514,"de:5370:6340"
"21006345","Wegberg, Wegberg Bushof",6.27586,51.14056,"de:5370:6345"
"21006339","Wegberg, Wegberg Bahnhof (Bus)",6.28154,51.14477,"de:5370:6339"
"21006315","Wegberg, Tüschenbroicher Mühle",6.2572,51.12038,"de:5370:6315"
"21006323","Watern, Haus St. Georg",6.27261,51.13515,"de:5370:6323"
"21006329","Wegberg, Freiheider Str.",6.28483,51.1449,"de:5370:6329"
"21006321","Watern, Bischofsmühle",6.2692,51.1308,"de:5370:6321"
"21006353","Wegberg, Markusstr.",6.27925,51.13953,"de:5370:6353"
"21005887","Spiel, Spiel",6.41093,50.97782,"de:5358:5887"
"21006286","Wegberg, Holtmühle",6.30024,51.15288,"de:5370:6286"
"21006347","Wegberg, Grundschule",6.2785,51.13727,"de:5370:6347"
"21006341","Wegberg, Bahnübergang",6.2906,51.14608,"de:5370:6341"
"21005847","Spiel, Spiel Neuspiel",6.39787,50.97923,"de:5358:5847"
"21005871","Müntz, Müntz Kloster",6.36561,50.98287,"de:5358:5871"
"21006337","Wegberg, Krankenhausstr.",6.28562,51.14074,"de:5370:6337"
"21005873","Müntz, Müntz Schule",6.3698,50.98422,"de:5358:5873"
"21005869","Kalrath, Kalrath",6.46166,50.988,"de:5358:5869"
"21006357","Wegberg, Sporthalle",6.28155,51.13481,"de:5370:6357"
"21005839","Titz, Ameln Meerhofstr.",6.43106,50.98343,"de:5358:5839"
"21005840","Titz, Ameln Hauptstr. (Schulbus)",6.4324,50.98387,"de:5358:5840"
"21006325","Wegberg, Begegnungszentrum",6.28713,51.13805,"de:5370:6325"
"21006335","Beeckerheide, Kiefernweg",6.29556,51.14099,"de:5370:6335"
"21005870","Kalrath, Kalrath Kalrath Lommertzheimstraße",6.46041,50.99162,"de:5358:5870"
"21006331","Gerichhausen, Gerichhausen",6.29185,51.13734,"de:5370:6331"
"21005837","Titz, Ameln Grüner Weg",6.43037,50.98684,"de:5358:5837"
"21005835","Titz, Ameln",6.43454,50.98746,"de:5358:5835"
"21006351","Gerichhausen, Lindenstr.",6.2938,51.13776,"de:5370:6351"
"21006227","Beeckerheide, Beecker Wald",6.29891,51.13997,"de:5370:6227"
"21005853","Hasselsweiler, Bachstr.",6.39096,50.98807,"de:5358:5853"
"21006225","Beeckerheide, Am Grüngürtel",6.29838,51.13782,"de:5370:6225"
"21005855","Hasselsweiler, Hasselsweiler Bürgerhaus",6.39326,50.99059,"de:5358:5855"
"21006319","Uevekoven, Luehweg",6.28815,51.12569,"de:5370:6319"
"21006284","Wegberg, Ellinghoven",6.31881,51.14532,"de:5370:6284"
"21006229","Wegberg, Im Maggenfeld",6.30173,51.1346,"de:5370:6229"
"21005857","Hasselsweiler, Ehem. Wasserwerk",6.40437,50.99258,"de:5358:5857"
"21006317","Uevekoven, Gartenweg",6.29087,51.12302,"de:5370:6317"
"21006224","Wegberg, Beeck Grundschule",6.30296,51.13089,"de:5370:6224"
"21005843","Titz, Meerhof",6.41616,50.99595,"de:5358:5843"
"21006282","Wegberg, Gripekoven",6.3239,51.14229,"de:5370:6282"
"21006223","Wegberg, Beeck Am Friedhof",6.30874,51.13241,"de:5370:6223"
"21005896","Titz, Heinrich-Gossen-Str.",6.42513,50.99881,"de:5358:5896"
"21005877","Ralshoven, Ralshoven",6.36772,51.00355,"de:5358:5877"
"21006273","Wegberg, Holtum Spielplatz",6.30159,51.1204,"de:5370:6273"
"21005897","Titz, Titz Schulzentrum",6.42559,51.00143,"de:5358:5897"
"21005895","Titz, Titz Rathaus",6.4256,51.00425,"de:5358:5895"
"21009074","Aachen, Rabentalweg (Mensa Vita)",6.04568,50.78139,"de:5334:1428"
"21006294","Moorshoven, Moorshoven Kapelle",6.31764,51.12819,"de:5370:6294"
"21005891","Titz, Linnicher Str.",6.42121,51.00446,"de:5358:5891"
"21006297","Moorshoven, Moorshoven",6.32089,51.12939,"de:5370:6297"
"21006292","Wegberg, Beecker Bissen",6.31713,51.12511,"de:5370:6292"
"21009075","Aachen, Wilfried-König-Str.",6.04408,50.78324,"de:5334:1430"
"21005893","Titz, Titz Mitte",6.42852,51.00701,"de:5358:5893"
"21005876","Opherten, Opherten Kalrather Straße",6.44773,51.01163,"de:5358:5876"
"21005875","Opherten, Opherten",6.44755,51.0119,"de:5358:5875"
"21009076","Aachen, Hainbuchenstr.",6.0638,50.77836,"de:5334:1442"
"21005851","Gevelsdorf, Gevelsdorf",6.38737,51.00825,"de:5358:5851"
"21006298","Wegberg, Felderhof",6.31939,51.12261,"de:5370:6298"
"21006279","Kehrbusch, Kehrbusch",6.30785,51.11023,"de:5370:6279"
"21006281","Kipshoven, Kipshoven",6.32978,51.12778,"de:5370:6281"
"21006296","Wegberg, Schönhausen",6.32187,51.12148,"de:5370:6296"
"21005889","Titz, Titz Bahnhof",6.43354,51.01238,"de:5358:5889"
"21005845","Mündt, Mündt",6.44834,51.01677,"de:5358:5845"
"21006275","Flassenberg, Flassenberg",6.31499,51.10864,"de:5370:6275"
"21009073","Aachen, Maria-Lipp-Str.",6.0439,50.78645,"de:5334:1422"
"21006277","Isengraben, Isengraben",6.31707,51.10966,"de:5370:6277"
"21006251","Mehlbusch, Mehlbusch",6.3359,51.1244,"de:5370:6251"
"21006247","Rath-Anhoven, Abzw. Schönhausen",6.33145,51.11636,"de:5370:6247"
"21006299","Rath-Anhoven, Rath-Anhoven",6.32843,51.11085,"de:5370:6299"
"21006301","Rath-Anhoven, Rath-Anhoven Schule",6.33346,51.11127,"de:5370:6301"
"21005867","Jackerath, Sportplatz",6.45148,51.03375,"de:5358:5867"
"21005863","Jackerath, Jackerath Grevenbroicher Straße",6.45185,51.03625,"de:5358:5863"
"21004961","Wollersheim, Wollersheim Kreuz / Trierer Straße",6.56283,50.67003,"de:5358:4961"
"21004965","Wollersheim, Stupp",6.56827,50.67158,"de:5358:4965"
"21004963","Wollersheim, Wollersheim Heide",6.57008,50.67329,"de:5358:4963"
"21004921","Embken, Embken Kirche",6.57481,50.68457,"de:5358:4921"
"21006043","Ginnick, Ginnick",6.56926,50.70047,"de:5358:6043"
"21006039","Froitzheim, Landstr.",6.57167,50.71105,"de:5358:6039"
"21006041","Froitzheim, Martinusstr.",6.57527,50.7126,"de:5358:6041"
"21006031","Vettweiß, Aussiedlerhöfe",6.57668,50.75,"de:5358:6031"
"21006077","Vettweiß, Sportheim",6.59714,50.73549,"de:5358:6077"
"21006075","Vettweiß, Vettweiß Markt",6.59717,50.73916,"de:5358:6075"
"21005053","Frauwüllesheim, Frauwüllesheim",6.57124,50.79283,"de:5358:5053"
"21006073","Vettweiß, Bahnübergang",6.60271,50.74289,"de:5358:6073"
"21005047","Frauwüllesheim, Zeelmaarerhof",6.57764,50.78906,"de:5358:5047"
"21005045","Frauwüllesheim, Isweiler",6.5811,50.78538,"de:5358:5045"
"21005049","Eschweiler über Feld, Eschweiler über Feld, Kirche",6.58202,50.81151,"de:5358:5049"
"21005051","Eschweiler über Feld, Eschweiler über Feld Mitte",6.58606,50.81243,"de:5358:5051"
"21005050","Eschweiler über Feld, Eschweiler über Feld Golzheimer Straße",6.58867,50.81304,"de:5358:5050"
"21006055","Kelz, Kelz Schule",6.59391,50.77048,"de:5358:6055"
"21006053","Kelz, Kelz Kirchstr.",6.59675,50.76725,"de:5358:6053"
"21006067","Sievernich, Sievernich, Landstr.",6.66221,50.7292,"de:5358:6067"
"21006069","Sievernich, Sievernich Ort",6.66628,50.72847,"de:5358:6069"
"21005075","Eschweiler über Feld, Ollesheim",6.60832,50.81125,"de:5358:5075"
"21006029","Vettweiß, Disternich",6.66733,50.74031,"de:5358:6029"
"21006033","Vettweiß, Mersheim",6.64272,50.75432,"de:5358:6033"
"21006045","Vettweiß, Gladbach",6.63472,50.76086,"de:5358:6045"
"21006065","Müddersheim, Ziegelei",6.64996,50.75027,"de:5358:6065"
"21005055","Nörvenich, Irresheim",6.62116,50.79046,"de:5358:5055"
"21005038","Nörvenich, Birkenhof",6.6239,50.81091,"de:5358:5038"
"21006047","Vettweiß, Gladbach Kirche",6.63881,50.76209,"de:5358:6047"
"21006057","Lüxheim, Lüxheim",6.63284,50.77317,"de:5358:6057"
"21006059","Müddersheim, Müddersheim Brücke",6.65691,50.7539,"de:5358:6059"
"21006049","Vettweiß, Gladbach Siedlung",6.6438,50.7641,"de:5358:6049"
"21006063","Müddersheim, Parktor",6.66378,50.75107,"de:5358:6063"
"21006061","Müddersheim, Müddersheim Kirche",6.66027,50.75294,"de:5358:6061"
"21006035","Lüxheim, Rengershauser Mühle",6.634,50.78,"de:5358:6035"
"21005039","Nörvenich, Eggersheim",6.6351,50.78562,"de:5358:5039"
"21005063","Nörvenich, Nörvenich Bf",6.63735,50.80976,"de:5358:5063"
"21005059","Nörvenich, Hochkirchen",6.63597,50.79807,"de:5358:5059"
"21005061","Nörvenich, Hommelsheimer Weg",6.64128,50.80256,"de:5358:5061"
"21005069","Nörvenich, Katharinenheim",6.64315,50.80534,"de:5358:5069"
"21005073","Nörvenich, Schlosspark",6.64424,50.80814,"de:5358:5073"
"21005065","Nörvenich, Nörvenich Brücke",6.64688,50.80864,"de:5358:5065"
"21005071","Oberbolheim, Oberbolheim",6.65292,50.8116,"de:5358:5071"
"21005067","Nörvenich, Gewerbepark",6.65548,50.80928,"de:5358:5067"
"21005079","Nörvenich, Poll",6.66791,50.7829,"de:5358:5079"
"21005083","Nörvenich, Schmiede",6.68053,50.81411,"de:5358:5083"
"21005081","Nörvenich, Rath Mitte",6.6832,50.81436,"de:5358:5081"
"21005037","Nörvenich, Dorweiler",6.67562,50.79283,"de:5358:5037"
"21005089","Wissersheim, Wissersheim",6.69745,50.81687,"de:5358:5089"
"21005078","Pingsheim, Pingsheim Friedhof",6.69077,50.79884,"de:5358:5078"
"21005077","Pingsheim, Pingsheim",6.69386,50.80047,"de:5358:5077"
"21005365","Simmerath, Radarstation",6.28989,50.66538,"de:5334:5365"
"21004927","Muldenau, Muldenau",6.55891,50.68805,"de:5358:4927"
"21004907","Nideggen, Berg Wendeplatz",6.5165,50.67577,"de:5358:4907"
"21004949","Nideggen, Oberdorf",6.40237,50.65779,"de:5358:4949"
"21004905","Nideggen, Berg Kirche",6.51876,50.67744,"de:5358:4905"
"21004957","Nideggen, Schmidt Schützenhof",6.40722,50.65835,"de:5358:4957"
"21004951","Nideggen, Schmidt Schule",6.41018,50.6595,"de:5358:4951"
"21004899","Nideggen, Frankenstr.",6.52015,50.68055,"de:5358:4899"
"21004901","Nideggen, Im Brühl",6.52414,50.68294,"de:5358:4901"
"21004958","Nideggen, Schmidt Wildpark",6.42578,50.66173,"de:5358:4958"
"21004943","Nideggen, Abzw. Froitscheid",6.41462,50.66315,"de:5358:4943"
"21004955","Nideggen, Schmidt Weiher",6.39782,50.66357,"de:5358:4955"
"21004945","Nideggen, Harscheid",6.41959,50.66591,"de:5358:4945"
"21004947","Nideggen, Schlehbach",6.42471,50.66717,"de:5358:4947"
"21004959","Nideggen, Thuir",6.52833,50.6929,"de:5358:4959"
"21004915","Nideggen, Schefferstr.",6.42425,50.6689,"de:5358:4915"
"21004925","Nideggen, Kommerscheidt",6.40089,50.66858,"de:5358:4925"
"21004953","Nideggen, Schmidt Spielplatz",6.40979,50.67029,"de:5358:4953"
"21005829","Zweifall, Zweifall Brücke",6.25362,50.71951,"de:5334:5829"
"21005831","Zweifall, Zweifall Kirche",6.25659,50.7187,"de:5334:5831"
"21004923","Nideggen, Froitscheidt",6.40893,50.67433,"de:5358:4923"
"21005827","Zweifall, Zweifall",6.26191,50.71669,"de:5334:5827"
"21006037","Froitzheim, Frangenheim",6.56081,50.72507,"de:5358:6037"
"21005663","Zweifall, Solchbachtal",6.27242,50.71008,"de:5334:5663"
"21005833","Zweifall, Zweifall Sägewerk",6.25478,50.72269,"de:5334:5833"
"21004939","Nideggen, Abendener Str.",6.48512,50.68995,"de:5358:4939"
"21004910","Nideggen, Brück Hetzingen Höhenweg",6.4696,50.68676,"de:5358:4910"
"21004929","Nideggen, Dürener Tor",6.48217,50.69101,"de:5358:4929"
"21004909","Nideggen, Brück Ort",6.46988,50.68922,"de:5358:4909"
"21004937","Nideggen, Jülicher Str.",6.48478,50.69329,"de:5358:4937"
"21004935","Nideggen, Milchbar",6.4832,50.69288,"de:5358:4935"
"21004912","Nideggen, Brück Bahnhof (Bus)",6.46565,50.6899,"de:5358:4912"
"21006071","Vettweiß, Soller",6.55347,50.73438,"de:5358:6071"
"21004933","Nideggen, Jungholz",6.48,50.6953,"de:5358:4933"
"21004977","Niederzier, Sägewerk",6.44194,50.90559,"de:5358:4977"
"21005655","Vicht, Vicht Jägersfahrt",6.26707,50.73148,"de:5334:5655"
"21004900","Zerkall, Zerkall",6.45135,50.69209,"de:5358:4900"
"21005635","Dorff, Dorff Fuchskaul",6.19761,50.7414,"de:5334:5635"
"21005633","Dorff, Dorff",6.20104,50.7389,"de:5334:5633"
"21004926","Nideggen, Zweifallshammer",6.40648,50.68866,"de:5358:4926"
"21004931","Nideggen, Felsenrundgang",6.47481,50.69806,"de:5358:4931"
"21004987","Niederzier, Schlossstr.",6.44467,50.90121,"de:5358:4987"
"21005647","Vicht, Derichsberg",6.25282,50.75258,"de:5334:5647"
"21005657","Vicht, Nachtigällchen",6.25738,50.7491,"de:5334:5657"
"21005811","Vicht, Fischbachstr.",6.26685,50.73885,"de:5334:5811"
"21005813","Vicht, Vicht Kirche",6.26338,50.74308,"de:5334:5813"
"21005561","Breinig, Weiherstr.",6.2081,50.73265,"de:5334:5561"
"21005809","Vicht, Vicht Brücke",6.26281,50.74468,"de:5334:5809"
"21004985","Niederzier, Schebben",6.44766,50.89764,"de:5358:4985"
"21005569","Breinig, Stockemer Str.",6.2102,50.72797,"de:5334:5569"
"21005565","Breinig, Breinigerheide",6.20958,50.73175,"de:5334:5565"
"21005639","Venwegen, Abzw. Venwegen",6.20906,50.71941,"de:5334:5639"
"21004913","Nideggen, Rath Harscheid",6.46958,50.70223,"de:5358:4913"
"21006051","Jakobwüllesheim, Jakobwüllesheim",6.55984,50.76456,"de:5358:6051"
"21004941","Nideggen, Rath Forsthaus",6.46954,50.70529,"de:5358:4941"
"21005815","Vicht, Wingertsberg",6.27007,50.74802,"de:5334:5815"
"21005637","Dorff, Dorff Hahnenkreuz",6.20281,50.74304,"de:5334:5637"
"21005019","Niederzier, Weihberg",6.4677,50.88734,"de:5358:5019"
"21005604","Donnerberg, Hochwegerhof",6.25487,50.77549,"de:5334:5604"
"21005549","Breinig, Barbarastr.",6.2119,50.73423,"de:5334:5549"
"21005601","Stolberg (Rheinl), Rothe Gasse",6.2637,50.76,"de:5334:5601"
"21005007","Niederzier, Alte Post",6.46223,50.88768,"de:5358:5007"
"21004917","Nideggen, Rath Walter-Ott-Str.",6.46866,50.70863,"de:5358:4917"
"21005547","Breinig, Breinig Bahnhof",6.2139,50.73138,"de:5334:5547"
"21005807","Venwegen, Vennstr.",6.21226,50.71739,"de:5334:5807"
"21005041","Nörvenich, Rommelsheim Abzw. Burg Bubenheim",6.55224,50.77325,"de:5358:5041"
"21005543","Breinig, Alt-Breinig",6.21503,50.72491,"de:5334:5543"
"21005013","Niederzier, Niederzier Mitte",6.46411,50.88494,"de:5358:5013"
"21005087","Nörvenich, Fichtestr.",6.55314,50.78173,"de:5358:5087"
"21005043","Rommelsheim, Bubenheim Bf",6.55181,50.77745,"de:5358:5043"
"21005703","Stolberg (Rheinl), Mausbach Fleuth",6.27688,50.75194,"de:5334:5703"
"21005599","Stolberg (Rheinl), Diepenlinchen",6.26937,50.76448,"de:5334:5599"
"21005602","Stolberg (Rheinl), Am Wimblech",6.27126,50.76248,"de:5334:5602"
"21005595","Stolberg (Rheinl), Dechant-Brock-Str.",6.27347,50.75927,"de:5334:5595"
"21005009","Niederzier, Apotheke",6.46712,50.88043,"de:5358:5009"
"21005085","Nörvenich, Feuerwehrhaus",6.54989,50.78499,"de:5358:5085"
"21005551","Breinig, Breinig Denkmal",6.21792,50.73109,"de:5334:5551"
"21005711","Stolberg (Rheinl), Mausbach Kirche",6.27623,50.75715,"de:5334:5711"
"21005606","Donnerberg, Donnerberg Allmannshof (Stadtgrenze)",6.26562,50.7805,"de:5334:5606"
"21005567","Breinig, Schützheide",6.21631,50.73832,"de:5334:5567"
"21005021","Niederzier, Weiherhof",6.46988,50.87716,"de:5358:5021"
"21005797","Venwegen, Venwegen Kirche",6.21512,50.71261,"de:5334:5797"
"21005597","Stolberg (Rheinl), Mausbach Diepenlinchen Industriestraße",6.27363,50.7678,"de:5334:5597"
"21005557","Breinig, Breinig Kirche",6.22138,50.73002,"de:5334:5557"
"21005545","Breinig, Auf der Geiß",6.21946,50.73592,"de:5334:5545"
"21005005","Niederzier, Auestr.",6.46916,50.87587,"de:5358:5005"
"21005553","Breinig, Entengasse",6.22178,50.73222,"de:5334:5553"
"21005799","Venwegen, Kochsgasse",6.21662,50.71103,"de:5334:5799"
"21005649","Büsbach, Elgermühle",6.20067,50.75359,"de:5334:5649"
"21005709","Stolberg (Rheinl), Mausbach Bürgermeisteramt",6.28006,50.76006,"de:5334:5709"
"21005017","Oberzier, Sophienhof",6.46966,50.87419,"de:5358:5017"
"21005705","Stolberg (Rheinl), Franzosenkreuz",6.28276,50.76127,"de:5334:5705"
"21005667","Stolberg (Rheinl), Werther Heide",6.27768,50.76996,"de:5334:5667"
"21004981","Ellen, Ellen Reitweg",6.49814,50.85995,"de:5358:4981"
"21005027","Oberzier, Oberzier Schulzentrum",6.47178,50.87175,"de:5358:5027"
"21005035","Nörvenich, Binsfeld Kirche",6.54097,50.7956,"de:5358:5035"
"21005011","Niederzier, Berg",6.44227,50.87866,"de:5358:5011"
"21005585","Büsbach, Tiefental",6.21118,50.74942,"de:5334:5585"
"21004975","Niederzier, Abzw. Schophoven",6.41728,50.88029,"de:5358:4975"
"21005707","Stolberg (Rheinl), Krewinkel",6.286,50.7627,"de:5334:5707"
"21005805","Venwegen, Teichstr.",6.21932,50.71044,"de:5334:5805"
"21004983","Ellen, Streffenweg",6.49407,50.85863,"de:5358:4983"
"21005033","Nörvenich, Binsfeld Sportplatz",6.53703,50.79548,"de:5358:5033"
"21005579","Büsbach, Büsbach Friedhof",6.20996,50.75149,"de:5334:5579"
"21005803","Venwegen, Venwegen Süd",6.21822,50.70787,"de:5334:5803"
"21005801","Venwegen, Rainweg",6.21924,50.70884,"de:5334:5801"
"21005023","Oberzier, Dorfplatz",6.47507,50.86682,"de:5358:5023"
"21005819","Werth, Brunnenweg",6.28213,50.77997,"de:5334:5819"
"21005821","Werth, Werth Kirche",6.28264,50.78081,"de:5334:5821"
"21005004","Niederzier, Krauthausen",6.42262,50.87602,"de:5358:5004"
"21005025","Oberzier, Kirchstr.",6.47088,50.86447,"de:5358:5025"
"21005817","Werth, Wehrstr.",6.28494,50.78128,"de:5334:5817"
"21004979","Niederzier, Wellpappenfabrik",6.42859,50.87299,"de:5358:4979"
"21005825","Werth, Werth Markt",6.28939,50.78205,"de:5334:5825"
"21005823","Werth, Werth Kreuzung",6.29308,50.7833,"de:5334:5823"
"21005677","Gressenich, Poststr.",6.2999,50.7718,"de:5334:5677"
"21005673","Gressenich, Gressenich Kirche",6.29964,50.77267,"de:5334:5673"
"21005680","Gressenich, Hitzberg",6.29816,50.77845,"de:5334:5680"
"21005681","Gressenich, Gressenich Schule",6.3016,50.7747,"de:5334:5681"
"21005683","Gressenich, Königreich",6.30445,50.7713,"de:5334:5683"
"21005581","Büsbach, Büsbach Kirche",6.21472,50.75132,"de:5334:5581"
"21005032","Selhausen, Selhausen",6.43577,50.8636,"de:5358:5032"
"21005671","Gressenich, Gressenich Kapelle",6.3041,50.77271,"de:5334:5671"
"21004999","Huchem-Stammeln, Huchem-Stammeln Oberzierer Straße",6.45787,50.85747,"de:5358:4999"
"21005675","Gressenich, Parkstr.",6.30676,50.76978,"de:5334:5675"
"21005555","Breinig, Gartengasse",6.23045,50.73508,"de:5334:5555"
"21005591","Büsbach, Hostetstr.",6.21933,50.75061,"de:5334:5591"
"21005679","Gressenich, Quellstr.",6.30962,50.76882,"de:5334:5679"
"21005653","Gressenich, Gracht",6.30698,50.77284,"de:5334:5653"
"21004997","Huchem-Stammeln, Huchem-Stammeln Post",6.45855,50.85401,"de:5358:4997"
"21005669","Gressenich, Farmweg",6.31032,50.77167,"de:5334:5669"
"21004989","Huchem-Stammeln, Schwarzer Weg",6.45042,50.85484,"de:5358:4989"
"21005583","Büsbach, Büsbach Markt",6.21645,50.75553,"de:5334:5583"
"21005589","Büsbach, Hassenberg",6.22568,50.74982,"de:5334:5589"
"21004994","Huchem-Stammeln, Huchem-Stammeln Bahnhof",6.45315,50.85228,"de:5358:4994"
"21005001","Huchem-Stammeln, Huchem-Stammeln Stammelner Straße",6.44427,50.8538,"de:5358:5001"
"21005203","Mulartshütte, Mulartshütte",6.21939,50.69745,"de:5334:5203"
"21005573","Büsbach, Aachener Str.",6.21538,50.75851,"de:5334:5573"
"21005737","Schevenhütte, Helenasruhe",6.33072,50.76117,"de:5334:5737"
"21005741","Schevenhütte, Lamersiefen",6.32953,50.76288,"de:5334:5741"
"21005575","Büsbach, Bischofstr.",6.2196,50.75735,"de:5334:5575"
"21004991","Huchem-Stammeln, Huchem-Stammeln Apotheke",6.44766,50.85006,"de:5358:4991"
"21005739","Schevenhütte, Hotel Roeb",6.32754,50.76614,"de:5334:5739"
"21005205","Mulartshütte, Mulartshütte Vichtalweg",6.21033,50.69077,"de:5334:5205"
"21005571","Büsbach, Bauschenberg",6.22259,50.75577,"de:5334:5571"
"21005559","Breinig, Breinig Siedlung",6.23875,50.7372,"de:5334:5559"
"21005593","Büsbach, Kelmesberg",6.22888,50.7519,"de:5334:5593"
"21005577","Büsbach, Brockenberg",6.22672,50.75395,"de:5334:5577"
"21005743","Schevenhütte, Schevenhütte Kirche",6.32548,50.76956,"de:5334:5743"
"21004993","Huchem-Stammeln, Rurbenden",6.45116,50.84616,"de:5358:4993"
"21005689","Liester, Liester Grüner Weg",6.2207,50.7596,"de:5334:5689"
"21005416","Simmerath, Lammersdorf Waldsiedlung (Schulbushaltestelle)",6.26692,50.64438,"de:5334:5416"
"21005415","Simmerath, Waldsiedlung",6.26774,50.64387,"de:5334:5415"
"21005419","Simmerath, Junker",6.26987,50.63721,"de:5334:5419"
"21005411","Simmerath, Bahnhofstr.",6.27239,50.63486,"de:5334:5411"
"21005587","Büsbach, Büsbacher Berg",6.22443,50.75865,"de:5334:5587"
"21005407","Simmerath, Ev. Gemeindehaus",6.27288,50.63213,"de:5334:5407"
"21005698","Münsterbusch, Am Südhang",6.2096,50.76622,"de:5334:5698"
"21005697","Liester, Marie-Juchacz-Park",6.21977,50.76161,"de:5334:5697"
"21005699","Münsterbusch, Prämienstr.",6.21675,50.76338,"de:5334:5699"
"21005417","Simmerath, Lammersdorf Bahnhof",6.27304,50.63163,"de:5334:5417"
"21005563","Breinig, Breinigerberg",6.24285,50.73977,"de:5334:5563"
"21005691","Liester, Kranensterz",6.22474,50.75967,"de:5334:5691"
"21005694","Liester, Liester Hauptschule",6.22103,50.76239,"de:5334:5694"
"21005409","Simmerath, Lammersdorf Grundschule",6.27742,50.63237,"de:5334:5409"
"21005701","Liester, Liester Seniorenzentrum",6.21887,50.76359,"de:5334:5701"
"21005235","Roetgen, Rott Kindergarten",6.2113,50.68569,"de:5334:5235"
"21005201","Roetgen, Rotterdell",6.19329,50.68056,"de:5334:5201"
"21005421","Simmerath, Lammersdorf Kirche",6.27925,50.63155,"de:5334:5421"
"21004952","Nideggen, Schmidt Kapelle",6.42012,50.65591,"de:5358:4952"
"21005727","Münsterbusch, Münsterbusch Friedhof",6.20935,50.76887,"de:5334:5727"
"21005713","Münsterbusch, Buschmühle",6.19914,50.77202,"de:5334:5713"
"21005413","Simmerath, Sonntagsstr.",6.27303,50.62766,"de:5334:5413"
"21005361","Simmerath, Strauch Gerstenhof",6.37604,50.65414,"de:5334:5361"
"21005685","Münsterbusch, Am Haselbusch",6.21447,50.76728,"de:5334:5685"
"21005693","Liester, Liester",6.21755,50.76609,"de:5334:5693"
"21005645","Münsterbusch, Münsterbusch Buschmühle Friedhof",6.19117,50.7744,"de:5334:5645"
"21005423","Paustenbach, Paustenbach Hermanns",6.27312,50.62342,"de:5334:5423"
"21005425","Paustenbach, Paustenbach Post",6.28057,50.62069,"de:5334:5425"
"21009068","Eilendorf, Breitbenden",6.15772,50.77548,"de:5334:1268"
"21005687","Liester, Brauereistr.",6.22808,50.76175,"de:5334:5687"
"21005661","Münsterbusch, Sebastianusweg",6.18731,50.77569,"de:5334:5661"
"21005239","Roetgen, Königsberger Str.",6.20682,50.68153,"de:5334:5239"
"21005237","Roetgen, Rott Kirche",6.20939,50.68211,"de:5334:5237"
"21005362","Rollesbroich, Rollesbroich Schlad",6.31888,50.63378,"de:5334:5362"
"21005241","Roetgen, Roetgener Str.",6.20739,50.68127,"de:5334:5241"
"21005437","Rollesbroich, Rollesbroich Kirche",6.31387,50.63032,"de:5334:5437"
"21005731","Münsterbusch, Münsterbusch Schule",6.21198,50.77044,"de:5334:5731"
"21005360","Rollesbroich, Am Mühlenweg",6.3119,50.62822,"de:5334:5360"
"21005665","Stolberg (Rheinl), Hammer Breinigerberg Waldschenke",6.24766,50.74385,"de:5334:5665"
"21005435","Rollesbroich, Rollesbroich",6.31062,50.62764,"de:5334:5435"
"21005371","Simmerath, Strauch Zäunchen",6.3442,50.63544,"de:5334:5371"
"21004839","Konzen, Breite Str.",6.25855,50.59527,"de:5334:4839"
"21005483","Simmerath, Weidenbroich",6.33902,50.63094,"de:5334:5483"
"21004845","Konzen, Konzen Schmiede",6.25333,50.59096,"de:5334:4845"
"21005651","Stolberg (Rheinl), Finkensief",6.23292,50.76111,"de:5334:5651"
"21005369","Steckenborn, Langgasse",6.35012,50.63154,"de:5334:5369"
"21005643","Stolberg (Rheinl), Binsfeldhammer",6.23725,50.75798,"de:5334:5643"
"21005715","Münsterbusch, Cockerillstr.",6.20702,50.77356,"de:5334:5715"
"21005465","Steckenborn, Steckenborn Hechelscheid Auf der Höhe",6.36514,50.63327,"de:5334:5465"
"21005457","Witzerath, Witzerath",6.30402,50.6171,"de:5334:5457"
"21005729","Münsterbusch, Münsterbusch Kreuz",6.21505,50.7714,"de:5334:5729"
"21005463","Steckenborn, Steckenborn Hechelscheid Höhe/Wolfsgasse",6.36066,50.63236,"de:5334:5463"
"21005445","Simmerath, Bickerath Post",6.29197,50.6111,"de:5334:5445"
"21004844","Monschau, Konzen Grundschule",6.25427,50.58646,"de:5334:4844"
"21004843","Konzen, Konzen Kirche",6.25522,50.58708,"de:5334:4843"
"21005725","Münsterbusch, Münsterbusch Mauerstraße (Dienstleistungszentrum)",6.21165,50.7736,"de:5334:5725"
"21005479","Simmerath, Strauch Kirche",6.33611,50.62614,"de:5334:5479"
"21005475","Simmerath, Am Roßbach",6.32174,50.62138,"de:5334:5475"
"21005199","Roetgen, Rott Wald",6.20478,50.67738,"de:5334:5199"
"21005467","Steckenborn, Steckenborn Hechelscheid Wolfsgasse",6.36272,50.63048,"de:5334:5467"
"21005696","Liester, Liester Schulzentrum",6.22429,50.7687,"de:5334:5696"
"21005477","Simmerath, Strauch Geflügelhof",6.32802,50.62254,"de:5334:5477"
"21005641","Stolberg (Rheinl), Bernhardshammer",6.24502,50.75472,"de:5334:5641"
"21005788","Stolberg (Rheinl), Stolberg Altstadt Bf",6.23072,50.76597,"de:5334:5788"
"21005471","Steckenborn, Steckenborn Kirche",6.35246,50.62766,"de:5334:5471"
"21005481","Simmerath, Strauch Post",6.3356,50.62325,"de:5334:5481"
"21005787","Stolberg (Rheinl), Stolberg Altstadt (Bus)",6.23162,50.76593,"de:5334:5787"
"21005461","Steckenborn, Felderstr.",6.34768,50.62575,"de:5334:5461"
"21005459","Witzerath, Witzerath Witzerkuhl",6.30966,50.6132,"de:5334:5459"
"21004841","Konzen, Heerstr.",6.25837,50.58194,"de:5334:4841"
"21005447","Simmerath, Bickerather Str.",6.2989,50.60749,"de:5334:5447"
"21005453","Simmerath, Simmerath Bushof",6.30221,50.60895,"de:5334:5453"
"21005473","Simmerath, Strauch Kreuzchen",6.33407,50.61983,"de:5334:5473"
"21005469","Steckenborn, Im Birkenschlag",6.35584,50.62392,"de:5334:5469"
"21005775","Stolberg (Rheinl), Lohrstr.",6.22181,50.77206,"de:5334:5775"
"21005719","Münsterbusch, Heinrichstr.",6.20984,50.77682,"de:5334:5719"
"21005795","Stolberg (Rheinl), Von-Werner-Str.",6.22439,50.77151,"de:5334:5795"
"21005444","Simmerath, Aldi",6.30916,50.6095,"de:5334:5444"
"21005455","Simmerath, Simmerath Krankenhaus",6.30277,50.60529,"de:5334:5455"
"21005735","Stolberg (Rheinl), Zinkhütter Hof",6.2188,50.77403,"de:5334:5735"
"21005791","Stolberg (Rheinl), Stolberg Rathaus",6.2293,50.76924,"de:5334:5791"
"21005485","Woffelsbach, Woffelsbach",6.38296,50.62566,"de:5334:5485"
"21005451","Simmerath, Berufsschule",6.29577,50.60125,"de:5334:5451"
"21005717","Stolberg (Rheinl), Dienstleistungszentrum",6.21632,50.7753,"de:5334:5717"
"21005456","Simmerath, Thelen",6.30709,50.6064,"de:5334:5456"
"21004815","Imgenbroich, Imgenbroich Nord",6.26197,50.57597,"de:5334:4815"
"21004863","Monschau, Hargard",6.25404,50.56616,"de:5334:4863"
"21005449","Simmerath, Simmerath Gewerbegebiet",6.31019,50.60535,"de:5334:5449"
"21005367","Simmerath, Am Gericht",6.28587,50.59258,"de:5334:5367"
"21004813","Imgenbroich, Dürr",6.26662,50.57782,"de:5334:4813"
"21005723","Münsterbusch, Münsterbusch Kohlbusch Spielplatz",6.21123,50.77795,"de:5334:5723"
"21005535","Atsch, Im Rehgrund",6.19982,50.781,"de:5334:5535"
"21005793","Stolberg (Rheinl), Vogelsang",6.23515,50.76747,"de:5334:5793"
"21005777","Stolberg (Rheinl), Rosental",6.22707,50.7721,"de:5334:5777"
"21005785","Stolberg (Rheinl), Mühlener Bahnhof (Bus)",6.2242,50.77355,"de:5334:5785"
"21005786","Stolberg (Rheinl), Mühlener Bf",6.2242,50.77355,"de:5334:5786"
"21004819","Imgenbroich, Imgenbroich Schlosserei",6.27041,50.58077,"de:5334:4819"
"21005401","Kesternich, Oberdorf",6.32029,50.60705,"de:5334:5401"
"21004816","Imgenbroich, Imgenbroich Grundschule",6.26574,50.57342,"de:5334:4816"
"21004820","Monschau, Imgenbroich Alte Monschauer Straße",6.25677,50.5631,"de:5334:4820"
"21005781","Stolberg (Rheinl), Stolberg Krankenhaus",6.22993,50.77246,"de:5334:5781"
"21004817","Imgenbroich, Imgenbroich Süd",6.2647,50.57125,"de:5334:4817"
"21004818","Monschau, Imgenbroich Atrium",6.26072,50.56687,"de:5334:4818"
"21004790","Menzerath, Menzerath",6.25699,50.56098,"de:5334:4790"
"21005403","Kesternich, Kesternich Post",6.32902,50.60678,"de:5334:5403"
"21005659","Atsch, Schwarzenbruch",6.1857,50.78522,"de:5334:5659"
"21005441","Rurberg, Rurberg Kirche",6.38123,50.61466,"de:5334:5441"
"21005359","Huppenbroich, Abzw. Huppenbroich",6.29701,50.58772,"de:5334:5359"
"21005721","Münsterbusch, Kohlbusch Buschstr.",6.21416,50.77979,"de:5334:5721"
"21004809","Monschau, Josefsheim",6.2541,50.54105,"de:5334:4809"
"21004811","Monschau, Höfen Kirche",6.25267,50.53547,"de:5334:4811"
"21005405","Kesternich, Unterdorf",6.33842,50.60459,"de:5334:5405"
"21005779","Stolberg (Rheinl), Salmstr.",6.22369,50.77685,"de:5334:5779"
"21005783","Stolberg (Rheinl), Krankenhaus (Parkplatz)",6.23163,50.77325,"de:5334:5783"
"21005439","Rurberg, Rurberg Jugendherberge",6.36977,50.61129,"de:5334:5439"
"21005458","Simmerath, Kriegsgräberstätte",6.36387,50.60938,"de:5334:5458"
"21005617","Donnerberg, Donnerberg Friedhof",6.23518,50.77244,"de:5334:5617"
"21005539","Atsch, Nordstr.",6.20576,50.78364,"de:5334:5539"
"21005789","Stolberg (Rheinl), Mühlener Brücke",6.22269,50.77849,"de:5334:5789"
"21004807","Monschau, Hermesstr.",6.25809,50.53009,"de:5334:4807"
"21005609","Donnerberg, Brandweiher",6.24211,50.76919,"de:5334:5609"
"21005627","Donnerberg, Sportplatz Krakau",6.23796,50.77202,"de:5334:5627"
"21005399","Huppenbroich, Huppenbroich",6.31691,50.59043,"de:5334:5399"
"21005733","Atsch, Schlossberg",6.21733,50.78153,"de:5334:5733"
"21005443","Rurberg, Rurberg Seeufer",6.38281,50.60707,"de:5334:5443"
"21004801","Monschau, Kauferberg",6.26526,50.52593,"de:5334:4801"
"21005375","Simmerath, Eicherscheid Ehrenmal",6.30521,50.57888,"de:5334:5375"
"21004803","Monschau, Höfen Alzen",6.26824,50.52641,"de:5334:4803"
"21005377","Simmerath, Eicherscheid Förster",6.30808,50.57658,"de:5334:5377"
"21004799","Monschau, Rohren Abzw",6.27305,50.52963,"de:5334:4799"
"21005363","Kesternich, Haus Wilden",6.35646,50.59415,"de:5334:5363"
"21005751","Atsch, Eisenbahnstr.",6.21938,50.78268,"de:5334:5751"
"21004887","Rohren, Rohren Kirche",6.28536,50.5481,"de:5334:4887"
"21004891","Rohren, Rohren Widdauer Weg",6.28892,50.55225,"de:5334:4891"
"21005537","Atsch, Atsch Kirche",6.21015,50.78599,"de:5334:5537"
"21005629","Donnerberg, Malmedyer Str.",6.23819,50.77537,"de:5334:5629"
"21004889","Rohren, Rohren Leykaulstr.",6.28409,50.54444,"de:5334:4889"
"21005753","Stolberg (Rheinl), Steinfurt Kraftwerke",6.22366,50.78222,"de:5334:5753"
"21005373","Simmerath, Auf dem Knipp",6.31296,50.57339,"de:5334:5373"
"21005541","Atsch, Atsch Schule",6.20787,50.78739,"de:5334:5541"
"21005773","Stolberg (Rheinl), Birkengang",6.2286,50.78078,"de:5334:5773"
"21005603","Donnerberg, Am Lindchen",6.24516,50.77232,"de:5334:5603"
"21004893","Widdau, Widdau",6.29803,50.56071,"de:5334:4893"
"21005757","Atsch, Schneidmühle",6.21879,50.78505,"de:5334:5757"
"21005431","Dedenborn, Rauchenauel",6.36103,50.58725,"de:5334:5431"
"21005387","Einruhr, Schöne Aussicht",6.37044,50.5882,"de:5334:5387"
"21005621","Donnerberg, Hastenrather Str.",6.24774,50.77136,"de:5334:5621"
"21005385","Einruhr, Rösberg",6.37816,50.58909,"de:5334:5385"
"21005749","Stolberg (Rheinl), Breslauer Str.",6.22683,50.78259,"de:5334:5749"
"21005747","Atsch, Atsch Dreieck",6.21482,50.78697,"de:5334:5747"
"21005429","Dedenborn, Haus Rurblick",6.35669,50.58368,"de:5334:5429"
"21005755","Stolberg (Rheinl), Nikolausstr.",6.22293,50.78507,"de:5334:5755"
"21005433","Dedenborn, Seifenauel",6.36145,50.58439,"de:5334:5433"
"21005427","Dedenborn, Dedenborn",6.35319,50.58191,"de:5334:5427"
"21005611","Donnerberg, Duffenter",6.24573,50.77485,"de:5334:5611"
"21005379","Einruhr, Dedenborn Abzw.",6.37217,50.58413,"de:5334:5379"
"21004794","Monschau, Bratherhof",6.29613,50.52441,"de:5334:4794"
"21005761","Stolberg (Rheinl), Steinfurt Friedrich-Ebert-Straße",6.22737,50.78461,"de:5334:5761"
"21005397","Simmerath, Hammer Kirche",6.32604,50.56373,"de:5334:5397"
"21005615","Donnerberg, Donnerberg Kirche",6.23945,50.77958,"de:5334:5615"
"21005605","Donnerberg, Am Sender",6.24332,50.77756,"de:5334:5605"
"21005612","Donnerberg, Donnerberg Duffenter Höhenstraße",6.24605,50.77612,"de:5334:5612"
"21005195","Roetgen, Münsterbildchen",6.18902,50.65895,"de:5334:5195"
"21005395","Simmerath, Hammer Haus Waldblick",6.33293,50.56622,"de:5334:5395"
"21005769","Velau, Velau Velauer Berg",6.2224,50.78723,"de:5334:5769"
"21005623","Donnerberg, Heidestr.",6.23674,50.7816,"de:5334:5623"
"21005383","Einruhr, Einruhr",6.37986,50.58196,"de:5334:5383"
"21005619","Donnerberg, Goepelschacht",6.23496,50.78317,"de:5334:5619"
"22001780","Monschau, Rothe Kreuz",6.30536,50.52217,"de:5334:4792"
"21005191","Roetgen, Dreilägerbachtalsperre",6.20673,50.66068,"de:5334:5191"
"21005763","Stolberg (Rheinl), Hans-Böckler-Str.",6.22982,50.78602,"de:5334:5763"
"21005381","Einruhr, Erkensruhr Abzw.",6.38339,50.57825,"de:5334:5381"
"21005391","Erkensruhr, Erkensruhr Anfang",6.37401,50.56881,"de:5334:5391"
"21005389","Erkensruhr, Erkensruhr Alte Post",6.36461,50.56572,"de:5334:5389"
"21005767","Stolberg (Rheinl), Velau",6.22229,50.78948,"de:5334:5767"
"21005607","Donnerberg, Anemonenweg",6.24452,50.78011,"de:5334:5607"
"21005393","Erkensruhr, Erkensruhr Finkenauel",6.35502,50.561,"de:5334:5393"
"22001789","Monschau, Wahlerscheid",6.32778,50.50206,"de:5334:4812"
"21005925","Frelenberg, Urweg",6.1147,50.94097,"de:5370:5925"
"21005745","Atsch, Büchel",6.21745,50.79152,"de:5334:5745"
"21005921","Frelenberg, Gürzelweg",6.1105,50.94053,"de:5370:5921"
"21005917","Frelenberg, Ackerstr.",6.11336,50.94324,"de:5370:5917"
"21005920","Frelenberg, Frelenberg Geilenkirchener Straße",6.1065,50.94172,"de:5370:5920"
"21005625","Donnerberg, Rosenweg",6.2413,50.78433,"de:5334:5625"
"21005991","Übach-Palenberg, Windhausen",6.0922,50.93893,"de:5370:5991"
"21005626","Donnerberg, Distelweg",6.24477,50.78413,"de:5334:5626"
"21005923","Frelenberg, Frelenberg Kirche",6.10563,50.94338,"de:5370:5923"
"21005919","Frelenberg, Ägidiusstr.",6.10727,50.94405,"de:5370:5919"
"21005765","Atsch, Stolberg Hbf (Bus)",6.21861,50.79445,"de:5334:5765"
"21005961","Siepenbusch, Siepenbusch",6.08071,50.93961,"de:5370:5961"
"21005927","Frelenberg, Teverenstr.",6.1021,50.94572,"de:5370:5927"
"21005631","Donnerberg, Tulpenweg",6.24841,50.78389,"de:5334:5631"
"21005929","Frelenberg, Heinsberger Str.",6.10035,50.9493,"de:5370:5929"
"21005759","Stolberg (Rheinl), Steinfurt",6.22691,50.79374,"de:5334:5759"
"21005613","Donnerberg, Donnerberg Kaserne",6.2437,50.78712,"de:5334:5613"
"80022023","Heinsberg (Rheinl), Heinsberg-Randerath",6.18221,51.01565,"de:5370:3594"
"80022024","Heinsberg (Rheinl), Heinsberg-Horst",6.18217,51.02945,"de:5370:3532"
"21005307","Hillensberg, Hillensberg Wendeplatz",5.90853,50.97698,"de:5370:5307"
"21005303","Hillensberg, Hillensberg Kirche",5.91368,50.97988,"de:5370:5303"
"21005305","Hillensberg, Hillensberg Unterdorf",5.91809,50.983,"de:5370:5305"
"80022025","Heinsberg (Rheinl), Heinsberg-Porselen",6.17349,51.04092,"de:5370:3588"
"21005345","Süsterseel, Süsterseel Schule",5.94544,50.99328,"de:5370:5345"
"21005355","Selfkant, Abzw. Hillensberg",5.92683,50.99431,"de:5370:5355"
"21005341","Süsterseel, Kreissparkasse",5.94333,50.99521,"de:5370:5341"
"21005357","Selfkant, Wehr",5.92015,50.99678,"de:5370:5357"
"21005339","Süsterseel, Bundesstr.",5.9368,50.99677,"de:5370:5339"
"21005347","Süsterseel, Wehrer Bahnhof",5.93127,50.99762,"de:5370:5347"
"80022021","Heinsberg (Rheinl), Heinsberg-Dremmen",6.15357,51.04545,"de:5370:3438"
"21005337","Süsterseel, Karl-Arnold Str.",5.9347,50.99931,"de:5370:5337"
"21005343","Süsterseel, Geilen",5.93192,51.00086,"de:5370:5343"
"21005293","Süsterseel, Westerheide",5.92912,51.00349,"de:5370:5293"
"21005354","Tüddern, Tüddern Schule",5.89925,51.01216,"de:5370:5354"
"21006283","Bischofshütte, Klinkum Bischofshütte",6.24069,51.136,"de:5370:6283"
"21005350","Tüddern, Tüddern Geilenkirchener Straße",5.9051,51.01283,"de:5370:5350"
"21005353","Tüddern, Tüddern Apotheke",5.89483,51.01413,"de:5370:5353"
"80022033","Heinsberg (Rheinl), Heinsberg-Oberbruch",6.13365,51.05365,"de:5370:3490"
"21005352","Tüddern, Tüddern Millerner Weg",5.89406,51.01514,"de:5370:5352"
"21006362","Wildenrath, List Center",6.22442,51.11984,"de:5370:6362"
"21005349","Tüddern, Am Höfgen",5.90533,51.01473,"de:5370:5349"
"21005351","Tüddern, Tüddern Am Rathaus",5.9025,51.01635,"de:5370:5351"
"21006179","Myhl, Myhl Myhlerfeld",6.20324,51.10248,"de:5370:6179"
"21006287","Klinkum, Klinkum Eickels",6.23327,51.13707,"de:5370:6287"
"21005321","Kleinwehrhagen, Kleinwehrhagen",5.95716,51.01767,"de:5370:5321"
"21006259","Wildenrath, DAST GmbH",6.21732,51.11959,"de:5370:6259"
"21006291","Merbeck, Merbeck Kirche",6.24991,51.17314,"de:5370:6291"
"21006173","Myhl, Myhl Erkelenzer Str.",6.19288,51.0986,"de:5370:6173"
"21006175","Myhl, Myhl Feuerwehr",6.19376,51.09988,"de:5370:6175"
"21005323","Millen, Millen",5.88239,51.02242,"de:5370:5323"
"21005295","Großwehrhagen, Großwehrhagen",5.95084,51.01979,"de:5370:5295"
"21005309","Selfkant, Bird",5.93578,51.01991,"de:5370:5309"
"21006165","Luchtenberg, Ratheimer Str.",6.16349,51.07945,"de:5370:6165"
"21006261","Klinkum, Klinkum Pumpstation",6.2251,51.13885,"de:5370:6261"
"21006309","Tetelrath, Tetelrath",6.24624,51.184,"de:5370:6309"
"21005313","Selfkant, Schmitz",5.93226,51.02274,"de:5370:5313"
"21005317","Selfkant, Zehntweg",5.9292,51.02294,"de:5370:5317"
"21006307","Tetelrath, Abzw. Tetelrath",6.24402,51.18242,"de:5370:6307"
"21006167","Luchtenberg, Luchtenberg Rurweg",6.15865,51.08228,"de:5370:6167"
"21006177","Myhl, Myhl Kino",6.18321,51.10092,"de:5370:6177"
"21005315","Selfkant, Höngen Schule",5.93552,51.02521,"de:5370:5315"
"21006191","Orsbeck, Orsbeck Friedhof",6.15491,51.08525,"de:5370:6191"
"21006219","Arsbeck, Petersholz",6.21558,51.14086,"de:5370:6219"
"21005311","Selfkant, Höngen Molkerei",5.93644,51.02852,"de:5370:5311"
"80022027","Heinsberg (Rheinl), Kreishaus",6.10894,51.06177,"de:5370:3504"
"21005331","Saeffelen, Saeffelen Schule",5.96086,51.02944,"de:5370:5331"
"21005332","Saeffelen, Am Steincleef",5.95762,51.02936,"de:5370:5332"
"21006171","Wassenberg, Frowein",6.17621,51.10303,"de:5370:6171"
"21006361","Wildenrath, Wildenrath Flugplatz",6.19481,51.11981,"de:5370:6361"
"21005325","Saeffelen, Altes Zollamt",5.95234,51.02998,"de:5370:5325"
"21005301","Heilder, Heilder",5.93985,51.02976,"de:5370:5301"
"21006169","Wassenberg, Am Stern",6.17994,51.10797,"de:5370:6169"
"21006203","Wassenberg, Wassenberg Süd",6.15978,51.09276,"de:5370:6203"
"21006181","Wassenberg, Waldschänke",6.17587,51.10502,"de:5370:6181"
"21006193","Orsbeck, Orsbeck Sportplatz",6.15331,51.08902,"de:5370:6193"
"21005327","Saeffelen, Saeffelen Kirche",5.95958,51.03193,"de:5370:5327"
"21006213","Arsbeck, Arsbeck Kirche",6.21015,51.14185,"de:5370:6213"
"21005291","Selfkant, Stein",5.92352,51.03195,"de:5370:5291"
"21005297","Millen-Bruch, Millen-Bruch",5.90567,51.03355,"de:5370:5297"
"21006363","Wildenrath, Wildenrath Kirche",6.19356,51.124,"de:5370:6363"
"21006207","Wassenberg, Wassenberg ZOB",6.16976,51.10294,"de:5370:6207"
"21006189","Orsbeck, Orsbeck",6.14905,51.08859,"de:5370:6189"
"21006215","Arsbeck, Heiderstr.",6.21044,51.14611,"de:5370:6215"
"21006129","Selsten, Abzw. Pütt",6.03858,51.04469,"de:5370:6129"
"21005333","Saeffelen, Zollsiedlung",5.96405,51.03471,"de:5370:5333"
"21006201","Wassenberg, Lindenhof",6.16457,51.10191,"de:5370:6201"
"80022026","Heinsberg (Rheinl), Heinsberg(Rheinl)",6.09888,51.06504,"de:5370:3512"
"21005289","Havert, Havert Lind",5.9155,51.0356,"de:5370:5289"
"21006217","Arsbeck, Mailandweg",6.20925,51.14997,"de:5370:6217"
"21006199","Wassenberg, Kirchstr.",6.15853,51.10004,"de:5370:6199"
"21006205","Wassenberg, Unterstadt",6.15515,51.09764,"de:5370:6205"
"21006133","Selsten, Selsten Mitte",6.03828,51.04801,"de:5370:6133"
"21005299","Havert, Havert Kirche",5.91024,51.03756,"de:5370:5299"
"21006359","Wildenrath, Dalheimer Weg",6.19077,51.12971,"de:5370:6359"
"21005320","Isenbruch, Rodebachaue",5.87621,51.04195,"de:5370:5320"
"21006221","Arsbeck, Roermonder Bahn",6.20671,51.15278,"de:5370:6221"
"21005319","Isenbruch, Isenbruch",5.88207,51.04135,"de:5370:5319"
"21006197","Wassenberg, Wassenberg Burg",6.15738,51.10176,"de:5370:6197"
"21006103","Bocket, Breberer Kreuz",5.99276,51.04169,"de:5370:6103"
"21006195","Wassenberg, Roermonder Str.",6.15564,51.1019,"de:5370:6195"
"21006131","Selsten, Selsten Kreuzung",6.03675,51.05145,"de:5370:6131"
"21006211","Arsbeck, Büch",6.20047,51.15226,"de:5370:6211"
"21006243","Wegberg, Rochusweiler",6.19065,51.13969,"de:5370:6243"
"21006119","Hontem, Hontem Neustr.",6.03126,51.05186,"de:5370:6119"
"21006142","Birgelen, Dammstr.",6.15532,51.1063,"de:5370:6142"
"21005953","Übach-Palenberg, Scherpenseel Grenze",6.06241,50.92488,"de:5370:5953"
"21006097","Braunsrath, Braunsrath Mühlenberg",6.03805,51.05453,"de:5370:6097"
"21006147","Birgelen, Lambertusstr.",6.15448,51.10961,"de:5370:6147"
"21006095","Braunsrath, Braunsrath Dorfplatz",6.03954,51.05692,"de:5370:6095"
"21006087","Bocket, Ev. Gemeindehaus",5.99743,51.04893,"de:5370:6087"
"21006237","Arsbeck, VDK-Siedlung",6.19408,51.15322,"de:5370:6237"
"21006117","Hontem, Hontem",6.02393,51.05451,"de:5370:6117"
"21006235","Wegberg, Dalheim Kirche",6.18674,51.14464,"de:5370:6235"
"21006093","Bocket, Bocket Schulstr.",5.99886,51.05206,"de:5370:6093"
"21006089","Bocket, Bocket Mitte",5.99725,51.05194,"de:5370:6089"
"21006141","Birgelen, Birgelen Kirche",6.151,51.11304,"de:5370:6141"
"21005335","Schalbruch, Schalbruch",5.90481,51.04973,"de:5370:5335"
"21006107","Bocket, Dampfmühle",6.00917,51.05459,"de:5370:6107"
"21006241","Wegberg, Philosophenweg",6.18772,51.15327,"de:5370:6241"
"21005336","Schalbruch, Schalbruch Schule",5.90308,51.05099,"de:5370:5336"
"21006121","Löcken, Löcken",6.03838,51.06252,"de:5370:6121"
"21006143","Birgelen, Ringstr.",6.15044,51.11655,"de:5370:6143"
"21006231","Wegberg, Dalheim Abzw. Bahnhof",6.18142,51.14922,"de:5370:6231"
"21006091","Bocket, Bocket Post",5.99519,51.0552,"de:5370:6091"
"21005959","Übach-Palenberg, Röntgenstr.",6.07278,50.9272,"de:5370:5959"
"21005955","Übach-Palenberg, Scherpenseel Kirche",6.06894,50.92872,"de:5370:5955"
"21006127","Waldfeucht, Schöndorf",6.03164,51.06296,"de:5370:6127"
"21006233","Wegberg, Dalheim Bahnhof (Bus)",6.17909,51.1494,"de:5370:6233"
"21006239","Wegberg, Waldweg",6.18213,51.15388,"de:5370:6239"
"21006234","Wegberg, Dalheim Bf",6.1782,51.14901,"de:5370:6234"
"21006145","Birgelen, Kreuzbuschstr.",6.15032,51.12103,"de:5370:6145"
"21006101","Frilinghoven, Einkaufszentrum",5.99927,51.05961,"de:5370:6101"
"21005957","Übach-Palenberg, Scherpenseel Schule",6.0717,50.9304,"de:5370:5957"
"21006149","Birgelen, Rosenthaler Str.",6.14873,51.12333,"de:5370:6149"
"21006123","Obspringen, Obspringen",6.03057,51.06866,"de:5370:6123"
"21005933","Übach-Palenberg, Marienstr.",6.0875,50.92573,"de:5370:5933"
"21006162","Krafeld, Krafelder Str.",6.13248,51.11399,"de:5370:6162"
"21006161","Birgelen, Krafeld",6.12646,51.11008,"de:5370:6161"
"21006163","Birgelen, Schloss Elsum",6.13902,51.11983,"de:5370:6163"
"21006137","Waldfeucht, Bocketer Weg",5.99168,51.0643,"de:5370:6137"
"21006139","Waldfeucht, Waldfeucht Markt",5.98887,51.0658,"de:5370:6139"
"21005935","Übach-Palenberg, Sandberg",6.09294,50.9287,"de:5370:5935"
"21006125","Obspringen, Obspringen Marktplatz",6.02275,51.07279,"de:5370:6125"
"21006135","Waldfeucht, Auf dem Wall",5.99023,51.06815,"de:5370:6135"
"21006185","Ophoven, Marienstr.",6.10287,51.10743,"de:5370:6185"
"21006183","Ophoven, Ophoven",6.10226,51.10953,"de:5370:6183"
"21006105","Brüggelchen, Brüggelchen",5.99733,51.07372,"de:5370:6105"
"21006159","Birgelen, Englische Siedlung",6.12965,51.13134,"de:5370:6159"
"21006109","Obspringen, Wasserwerk",6.02015,51.07984,"de:5370:6109"
"21006111","Waldfeucht, Driesch",6.0437,51.08769,"de:5370:6111"
"21006157","Birgelen, Abzw. Rothenbach",6.12628,51.13335,"de:5370:6157"
"21006187","Effeld, Steinkirchen",6.09735,51.11334,"de:5370:6187"
"21006153","Effeld, Effeld Lehnen",6.09876,51.11784,"de:5370:6153"
"21006115","Waldfeucht, Neuhaaren",6.03714,51.09079,"de:5370:6115"
"21006085","Waldfeucht, Haaren Pölert",6.02662,51.08826,"de:5370:6085"
"21006113","Waldfeucht, Soperich",6.03217,51.09042,"de:5370:6113"
"21006155","Effeld, Effeld Neuer Weg",6.10537,51.12535,"de:5370:6155"
"21006081","Waldfeucht, Abzw. Schabroich",6.00759,51.08534,"de:5370:6081"
"21006151","Effeld, Effeld",6.10227,51.12374,"de:5370:6151"
"21006079","Waldfeucht, Abzw. Obspringen",6.01343,51.08734,"de:5370:6079"
"21006083","Waldfeucht, Haaren Alte Schule",6.01951,51.08925,"de:5370:6083"
"21005989","Übach-Palenberg, Abzw. Windhausen",6.09617,50.93582,"de:5370:5989"
"21005993","Zweibrüggen, Wurmbrücke",6.10006,50.9364,"de:5370:5993"
"21005931","Übach-Palenberg, Am Erbbusch",6.09457,50.93216,"de:5370:5931"
"21005915","Zweibrüggen, Abzw. Zweibrüggen",6.10365,50.93543,"de:5370:5915"
"21005947","Palenberg, Paul-Keller-Str.",6.10035,50.92992,"de:5370:5947"
"21005937","Übach-Palenberg, Wurmtal",6.09464,50.92561,"de:5370:5937"
"21009069","Aachen, Heimstr.",6.12243,50.79878,"de:5334:1376"
"21005941","Palenberg, Wurmtalbrücke",6.10017,50.92654,"de:5370:5941"
"21005952","Palenberg, Übach-Palenberg Bf",6.09723,50.92435,"de:5370:5952"
"21009070","Aachen, Haaren Friedhof",6.12057,50.80101,"de:5334:1378"
"21009072","Aachen, Lindenweg",6.13488,50.79742,"de:5334:1382"
"21005951","Palenberg, Übach-Palenberg Bahnhof (Bus)",6.09767,50.92337,"de:5370:5951"
"21005945","Palenberg, Mühlenweg",6.10257,50.92484,"de:5370:5945"
"21009071","Aachen, Granitweg",6.12721,50.80145,"de:5334:1380"
"21005939","Palenberg, Carolus-Magnus-Allee",6.10708,50.92496,"de:5370:5939"
"21005942","Palenberg, Carlstr.",6.11105,50.9247,"de:5370:5942"
"21005948","Palenberg, Rimburger Acker",6.10234,50.92034,"de:5370:5948"
"21005943","Palenberg, Ev. Kirche",6.10902,50.92103,"de:5370:5943"
"21005940","Palenberg, Am Wasserturm",6.11445,50.92312,"de:5370:5940"
"21005967","Übach, Maastrichter Str.",6.11207,50.92099,"de:5370:5967"
"21005987","Übach, Übach Schulzentrum",6.10983,50.9198,"de:5370:5987"
"21006451","Würselen, Kaisersruh",6.1172,50.8121,"de:5334:6451"
"21005975","Übach, Friedrich-Ebert-Str.",6.11663,50.92141,"de:5370:5975"
"21006427","Würselen, Straßenverkehrsamt",6.15274,50.80537,"de:5334:6427"
"21005969","Übach, Talstr.",6.12096,50.91994,"de:5370:5969"
"21005985","Übach, Übach Rathaus",6.11805,50.91865,"de:5370:5985"
"21006407","Broichweiden, Kaninsberg",6.14391,50.80877,"de:5334:6407"
"21005979","Übach, Übach Sportzentrum",6.11596,50.91673,"de:5370:5979"
"21006423","Würselen, Carlo-Schmid-Str.",6.15893,50.80701,"de:5334:6423"
"21005981","Übach, Übach Kirche",6.12215,50.91818,"de:5370:5981"
"21006409","Würselen, Teuterhof",6.10821,50.82325,"de:5334:6409"
"21006453","Würselen, Paulinenstr.",6.12173,50.81676,"de:5334:6453"
"21006425","Würselen, De-Gasperi-Str.",6.14907,50.8095,"de:5334:6425"
"21006368","Würselen, Marshallstr.",6.16272,50.80835,"de:5334:6368"
"21006398","Broichweiden, Broichweiden Kapellenfeldchen",6.14669,50.81043,"de:5334:6398"
"21005973","Übach, Borsigstr.",6.13095,50.92017,"de:5370:5973"
"21006391","Würselen, Mauerfeldchen",6.14247,50.81131,"de:5334:6391"
"21006478","Würselen, Realschule Tittelstr.",6.12838,50.8156,"de:5334:6478"
"21006421","Würselen, Aachener Kreuz Metro",6.15445,50.80991,"de:5334:6421"
"21006366","Würselen, Mitterrandstr.",6.1677,50.81022,"de:5334:6366"
"21005983","Übach, Übach Markt",6.12645,50.91651,"de:5370:5983"
"21006389","Würselen, Kreiskrankenhaus Marienhöhe",6.14135,50.81414,"de:5334:6389"
"21006401","Würselen, Ringstr.",6.13704,50.81533,"de:5334:6401"
"21006417","Würselen, Aachener Kreuz Ginsterweg",6.15956,50.81142,"de:5334:6417"
"21006475","Würselen, Klosterstr.",6.12826,50.81845,"de:5334:6475"
"21006399","Würselen, Würselen Kirche",6.13483,50.81652,"de:5334:6399"
"21006387","Würselen, Dobach",6.15023,50.81336,"de:5334:6387"
"21005963","Übach, Finkenstr.",6.12964,50.91578,"de:5370:5963"
"21006465","Würselen, Neuhauser Str.",6.12495,50.82044,"de:5334:6465"
"21006455","Würselen, Schweilbach",6.11932,50.82307,"de:5334:6455"
"21006397","Broichweiden, Sankt Jobs",6.15223,50.81354,"de:5334:6397"
"21006477","Würselen, Würselen Markt",6.13265,50.81835,"de:5334:6477"
"21006458","Würselen, Drischer Str.",6.13705,50.81772,"de:5334:6458"
"21006463","Würselen, Jugendheim",6.13504,50.81841,"de:5334:6463"
"21005908","Boscheln, Schokoladenfabrik",6.14488,50.91831,"de:5370:5908"
"21005910","Boscheln, Grüner Weg",6.13903,50.91682,"de:5370:5910"
"21005965","Übach-Palenberg, Holthausen",6.13699,50.91609,"de:5370:5965"
"21006481","Würselen, Würselen Rathaus",6.13119,50.82028,"de:5334:6481"
"21006395","Würselen, Salmanusstraße (Kreiskrankenhaus)",6.14575,50.8165,"de:5334:6395"
"21006469","Würselen, Teutstr.",6.1204,50.82502,"de:5334:6469"
"21006476","Würselen, Lehnstr.",6.12782,50.82193,"de:5334:6476"
"21006393","Würselen, Salmanusplatz",6.1415,50.81819,"de:5334:6393"
"21006411","Bardenberg, Wurmtal",6.09897,50.84173,"de:5334:6411"
"21006473","Würselen, Bahnhofstr.",6.13003,50.82229,"de:5334:6473"
"21006471","Würselen, Geschwister-Scholl-Str.",6.13697,50.82018,"de:5334:6471"
"21005977","Boscheln, Friedensstr.",6.1315,50.91182,"de:5370:5977"
"21006371","Bardenberg, Pley",6.09689,50.84892,"de:5334:6371"
"21006467","Würselen, Parkhotel",6.12772,50.82502,"de:5334:6467"
"21005901","Boscheln, Brünestr.",6.13718,50.91202,"de:5370:5901"
"21006385","Broichweiden, Weiden Wersch",6.15761,50.81828,"de:5334:6385"
"21006479","Würselen, Nordstr.",6.13581,50.82353,"de:5334:6479"
"21006459","Würselen, EUREGIO-Kolleg",6.13891,50.82274,"de:5334:6459"
"21006437","Broichweiden, Broich Gymnasium",6.17415,50.84389,"de:5334:6437"
"21006375","Bardenberg, Kamper Gracht",6.10217,50.84594,"de:5334:6375"
"21005907","Boscheln, Wiesenstr.",6.14414,50.91237,"de:5370:5907"
"21006433","Würselen, Morsbach",6.12435,50.82993,"de:5334:6433"
"21005905","Boscheln, Schwarzer Weg",6.14923,50.91266,"de:5370:5905"
"21006379","Bardenberg, Wilhelmstein",6.10665,50.84352,"de:5334:6379"
"21006457","Würselen, Brückweg",6.12927,50.82825,"de:5334:6457"
"21006413","Broichweiden, Euchen",6.1618,50.84395,"de:5334:6413"
"21006369","Bardenberg, Bardenberg Krankenhaus",6.10895,50.84158,"de:5334:6369"
"21006377","Bardenberg, Steinbusch",6.11103,50.84012,"de:5334:6377"
"21005909","Boscheln, Carl-Alexander-Str.",6.14121,50.90971,"de:5370:5909"
"21005913","Boscheln, Roermonder Str.",6.13733,50.90847,"de:5370:5913"
"21006435","Würselen, Von-Görschen-Str.",6.12173,50.83338,"de:5334:6435"
"21006373","Bardenberg, Grindelstr.",6.11676,50.83778,"de:5334:6373"
"21006443","Broichweiden, Broichweiden Neusen Fronhofstraße",6.18133,50.84159,"de:5334:6443"
"21006415","Broichweiden, Broichweiden Euchen Willibrordstraße",6.15855,50.84173,"de:5334:6415"
"21006429","Würselen, Gouleystr.",6.13065,50.83106,"de:5334:6429"
"21005903","Boscheln, Grundschule",6.14121,50.90716,"de:5370:5903"
"21006383","Broichweiden, Weiden Kirche",6.1641,50.82343,"de:5334:6383"
"21006367","Bardenberg, Bardenberg Friedhof",6.11706,50.84245,"de:5334:6367"
"21005911","Boscheln, Mommertzhäuschen",6.13754,50.90348,"de:5370:5911"
"21006447","Broichweiden, Broichweiden Neusen Mozartstraße",6.18036,50.83981,"de:5334:6447"
"21006445","Broichweiden, Neusen Kreuz",6.1854,50.84012,"de:5334:6445"
"21006431","Würselen, Immeln",6.13198,50.83382,"de:5334:6431"
"21004797","Monschau, Sonnentau",6.19105,50.54814,"de:5334:4797"
"21005899","Boscheln, Alt Boscheln",6.13592,50.90155,"de:5370:5899"
"21006381","Broichweiden, Nassauer Str.",6.17081,50.82656,"de:5334:6381"
"21006449","Broichweiden, Vorweiden",6.16744,50.82966,"de:5334:6449"
"80022257","Eschweiler (Rheinl), Eschweiler-St.Jöris",6.20138,50.8345,"de:5334:2974"
"21006439","Broichweiden, Linden Kirche",6.17806,50.83686,"de:5334:6439"
"21006441","Broichweiden, Linden Ziegelei",6.17064,50.83242,"de:5334:6441"
"21006405","Würselen, Birk",6.13581,50.84162,"de:5334:6405"
"21001801","Aldenhoven (Kr Düren), Pattener Ring",6.275,50.88865,"de:5358:1801"
"21004595","Ederen, Ederen K6 / Brunnenstr.",6.25119,50.94603,"de:5358:4595"
"21004662","Linnich, Welz Am Ederer Weg",6.25589,50.95742,"de:5358:4662"
"21004658","Welz, Welz Spielplatz (Schulbus)",6.25725,50.96024,"de:5358:4658"
"21004655","Welz, Welz",6.26171,50.95979,"de:5358:4655"
"21004787","Monschau, Kleinbüchel",6.20262,50.55277,"de:5334:4787"
"21004609","Floßdorf, Abzw. Floßdorf",6.28131,50.95748,"de:5358:4609"
"21004611","Floßdorf, Floßdorf",6.28787,50.95734,"de:5358:4611"
"21004636","Rurdorf, Zur Frack",6.27466,50.96298,"de:5358:4636"
"21004649","Rurdorf, Rurdorf Alte Post",6.27553,50.96389,"de:5358:4649"
"21004651","Rurdorf, Rurdorf Siedlung",6.27379,50.96649,"de:5358:4651"
"21004647","Linnich, Wilhelm-Raabe-Str.",6.27033,50.9726,"de:5358:4647"
"21004635","Linnich, Am Merzbach",6.25931,50.97868,"de:5358:4635"
"21004641","Linnich, Linnich Rathaus",6.26857,50.9761,"de:5358:4641"
"21004637","Linnich, Linnich Markt",6.26586,50.97834,"de:5358:4637"
"21004644","Tetz, Alte Burgstr.",6.3168,50.96016,"de:5358:4644"
"21004639","Linnich, Linnich Post",6.27266,50.98084,"de:5358:4639"
"21004645","Linnich, Linnich Schulzentrum",6.27049,50.98326,"de:5358:4645"
"21004653","Tetz, Tetz Mitte",6.31722,50.96515,"de:5358:4653"
"21004656","Tetz, Tetz Bahnhof (Bus)",6.32284,50.96389,"de:5358:4656"
"21004643","Linnich, Sägewerk",6.28098,50.9804,"de:5358:4643"
"21004654","Tetz, Tetz Bf (Rurtalbahn)",6.32288,50.96421,"de:5358:4654"
"21004604","Linnich, Im Gansbruch",6.2854,50.98072,"de:5358:4604"
"21004605","Linnich, Ivenhain",6.29261,50.98291,"de:5358:4605"
"21004601","Boslar, Boslar Erzelbach",6.31146,50.97666,"de:5358:4601"
"21004603","Linnich, Erzelbach Landstr.",6.30591,50.97983,"de:5358:4603"
"21004607","Linnich, Kiffelberg",6.29946,50.98426,"de:5358:4607"
"21004629","Körrenzig, Hauptstr.",6.2769,50.9991,"de:5358:4629"
"21004631","Körrenzig, Körrenzig Kirche",6.28072,51.00045,"de:5358:4631"
"21004632","Körrenzig, Südstr.",6.28479,50.99794,"de:5358:4632"
"21004621","Glimbach, Glimbach",6.29161,50.99479,"de:5358:4621"
"21004619","Linnich, Gevenich Post",6.30978,50.98836,"de:5358:4619"
"21004633","Körrenzig, Oberdorf",6.28094,51.00488,"de:5358:4633"
"21004617","Linnich, Gevenich Kreuz",6.31267,50.98868,"de:5358:4617"
"21004628","Kofferen, Kofferen Schule (Schulbus)",6.31621,51.00005,"de:5358:4628"
"21004627","Kofferen, Kofferen",6.32118,51.00001,"de:5358:4627"
"21004625","Hottorf, Fasanenstr.",6.34343,50.99806,"de:5358:4625"
"21004623","Hottorf, Auf der Maar",6.34724,51.00026,"de:5358:4623"
"21004733","Merzenich (Kr Düren), Marienstr.",6.57905,50.84193,"de:5358:4733"
"21004732","Merzenich (Kr Düren), Golzheim Kirche",6.57997,50.83954,"de:5358:4732"
"21004731","Merzenich (Kr Düren), Aachener Str.",6.57889,50.83619,"de:5358:4731"
"21004735","Merzenich (Kr Düren), Golzheim Schule",6.58312,50.83819,"de:5358:4735"
"21004713","Merzenich (Kr Düren), Kradeburg",6.60316,50.84383,"de:5358:4713"
"21004761","Morschenich, Morschenich Siedlung",6.5461,50.86646,"de:5358:4761"
"21004757","Morschenich, Feuerwehrhaus",6.54595,50.86479,"de:5358:4757"
"21004759","Morschenich, Morschenich Kirche",6.54186,50.86647,"de:5358:4759"
"21004755","Morschenich, Bahnübergang",6.52747,50.86088,"de:5358:4755"
"21004727","Girbelsrath, Girbelsrath Kirche",6.55433,50.81187,"de:5358:4727"
"21004719","Girbelsrath, Girbelsrath Dechant-Fabry-Straße",6.55277,50.81506,"de:5358:4719"
"21004729","Girbelsrath, Neuwerk",6.5515,50.81168,"de:5358:4729"
"21004725","Girbelsrath, Fa. Stollenwerk",6.5453,50.81659,"de:5358:4725"
"21004721","Girbelsrath, Firma MBS",6.5464,50.81315,"de:5358:4721"
"21004723","Girbelsrath, Fa. Semer",6.54363,50.81303,"de:5358:4723"
"21004715","Merzenich (Kr Düren), Schöne Aussicht",6.53709,50.82094,"de:5358:4715"
"21004747","Merzenich (Kr Düren), Mühlenstr.",6.53291,50.82446,"de:5358:4747"
"21004751","Merzenich (Kr Düren), Schützenstr.",6.53119,50.82585,"de:5358:4751"
"21004711","Merzenich (Kr Düren), Auf der Heide",6.52003,50.84013,"de:5358:4711"
"21004709","Arnoldsweiler, Merzenich Abzw.",6.5162,50.84355,"de:5358:4709"
"21004753","Merzenich (Kr Düren), Weinberg",6.52856,50.82885,"de:5358:4753"
"21004717","Merzenich (Kr Düren), Merzenich, Valdersweg",6.53202,50.82022,"de:5358:4717"
"21004738","Merzenich (Kr Düren), Merzenich (S)",6.51857,50.83949,"de:5358:4738"
"21004712","Merzenich (Kr Düren), Merzenich S-Bahnhof (Bus)",6.51857,50.83949,"de:5358:4712"
"21004749","Merzenich (Kr Düren), Poolplatz",6.52542,50.83119,"de:5358:4749"
"21004743","Merzenich (Kr Düren), Merzenich Schule",6.52628,50.82831,"de:5358:4743"
"21004737","Merzenich (Kr Düren), Alter Bahnhof",6.52772,50.82509,"de:5358:4737"
"21004741","Merzenich (Kr Düren), Lindenplatz",6.52428,50.8282,"de:5358:4741"
"21004734","Merzenich (Kr Düren), Festplatz",6.52442,50.82446,"de:5358:4734"
"21004739","Merzenich (Kr Düren), Merzenich Friedhof",6.52154,50.82604,"de:5358:4739"
"21004746","Merzenich (Kr Düren), Dürener Str.",6.51933,50.82287,"de:5358:4746"
"21004745","Merzenich (Kr Düren), Merzenich West",6.51885,50.82215,"de:5358:4745"
"21004788","Imgenbroich, Imgenbroich Bushof",6.25995,50.57942,"de:5334:4788"
"21004597","Ederen, Ederen Markt",6.24643,50.94555,"de:5358:4597"
"21004599","Ederen, Ederen Post",6.24772,50.94749,"de:5358:4599"
"21004615","Gereonsweiler, Gereonsweiler Post",6.22279,50.95667,"de:5358:4615"
"21004616","Gereonsweiler, Fuchsgracht",6.21867,50.95717,"de:5358:4616"
"21004613","Gereonsweiler, Kölnstr.",6.22581,50.96048,"de:5358:4613"
"21004620","Gereonsweiler, Gereonsweiler Alte Schule (Schulbus)",6.22385,50.96133,"de:5358:4620"
"21004614","Gereonsweiler, Töpferstr.",6.2189,50.96116,"de:5358:4614"
"21001577","Orsbach, Orsbach Anfang",5.99839,50.7961,"de:5334:1577"
"21002051","Alsdorf (b Aachen), Warden Kirche",6.22073,50.86079,"de:5334:2051"
"21004139","Jülich, Haus Overbach",6.30459,50.94039,"de:5358:4139"
"21002059","Baesweiler, Gymnasium",6.18706,50.91199,"de:5334:2059"
"21003787","Merkstein, Sommerweg",6.10436,50.88434,"de:5334:3787"
"21003701","Herzogenrath, Herzogenrath Waldfriedhof",6.09963,50.86164,"de:5334:3701"
"21004140","Jülich, Haus Overbach Gymnasium",6.30647,50.94061,"de:5358:4140"
"21002087","Baesweiler, Urweg",6.18378,50.91266,"de:5334:2087"
"21002061","Baesweiler, Im Brühl",6.18032,50.89989,"de:5334:2061"
"21002094","Baesweiler, CAP Kreisverkehr",6.16612,50.91358,"de:5334:2094"
"21003775","Merkstein, Martinusstr.",6.10471,50.88648,"de:5334:3775"
"21004141","Jülich, Barmen Post",6.30334,50.94514,"de:5358:4141"
"21002123","Oidtweiler, Oidtweiler Sportplatz",6.18948,50.89662,"de:5334:2123"
"21003761","Merkstein, Alt-Merkstein (Bus)",6.10188,50.88282,"de:5334:3761"
"21002117","Oidtweiler, Kirchgasse",6.18717,50.90047,"de:5334:2117"
"21002069","Baesweiler, Geilenkirchener Str.",6.17652,50.91439,"de:5334:2069"
"21003667","Herzogenrath, Nordstern",6.11714,50.87047,"de:5334:3667"
"21003685","Herzogenrath, Dammstr.",6.09693,50.8671,"de:5334:3685"
"21004157","Stetternich, Margarethenhof",6.41001,50.9386,"de:5358:4157"
"21003785","Merkstein, Hauptstr.",6.10247,50.8856,"de:5334:3785"
"21002063","Baesweiler, Baesweiler Rathaus",6.18346,50.9024,"de:5334:2063"
"21004158","Jülich, Thywissenhof",6.4171,50.93977,"de:5358:4158"
"21004148","Jülich, Broich Siedlung",6.33318,50.94827,"de:5358:4148"
"21003833","Merkstein, Plitschard Friedhof",6.11484,50.89863,"de:5334:3833"
"21004147","Jülich, Broich Kirche",6.33793,50.94812,"de:5358:4147"
"21003709","Herzogenrath, Schütz-von-Rode-Str.",6.09595,50.8656,"de:5334:3709"
"21002109","Baesweiler, Roskaul",6.17668,50.90431,"de:5334:2109"
"21002929","Hehlrath, Westerwaldstr.",6.23595,50.84029,"de:5334:2929"
"21003793","Merkstein, Zum Kalverhof",6.09921,50.88332,"de:5334:3793"
"21003707","Herzogenrath, Schmetz",6.09527,50.87308,"de:5334:3707"
"21003689","Herzogenrath, Herzogenrath Bahnhof (Bus)",6.09476,50.87039,"de:5334:3689"
"21002971","St. Jöris, St. Jöris Friedhof",6.20892,50.83826,"de:5334:2971"
"21003703","Herzogenrath, Kleikstr.",6.09449,50.86854,"de:5334:3703"
"21004149","Jülich, Broich Rurwiesenstr.",6.33248,50.95184,"de:5358:4149"
"21002083","Baesweiler, Place de Montesson",6.19397,50.91412,"de:5334:2083"
"21003690","Herzogenrath, Herzogenrath Bf",6.09449,50.87092,"de:5334:3690"
"21003665","Herzogenrath, Bierstraß Schule",6.11255,50.87058,"de:5334:3665"
"21003831","Merkstein, Plitschard Dorf",6.11201,50.8986,"de:5334:3831"
"21002105","Oidtweiler, Kloshaus",6.1785,50.89637,"de:5334:2105"
"21003771","Herzogenrath, Glaswerke",6.09448,50.87547,"de:5334:3771"
"21004273","Welldorf, Kreuzplatz",6.41592,50.94878,"de:5358:4273"
"21003783","Merkstein, Merkstein Goethestraße (Freibad)",6.12406,50.89029,"de:5334:3783"
"21002055","Zopp, Zopp",6.13666,50.86989,"de:5334:2055"
"21002813","Röhe, Abzw. Merzbrück",6.20985,50.8227,"de:5334:2813"
"21004271","Welldorf, Güstener Str.",6.41932,50.95057,"de:5358:4271"
"21003767","Merkstein, Merkstein August-Schmidt-Platz (Bus)",6.11947,50.88598,"de:5334:3767"
"21002927","Hehlrath, Schwarzwaldstr.",6.2385,50.83813,"de:5334:2927"
"21003805","Merkstein, Merkstein Stadion",6.12647,50.89257,"de:5334:3805"
"21002097","Baesweiler, Gewerbegebiet ITS",6.17382,50.91911,"de:5334:2097"
"21004179","Jülich, Güsten Siedlung",6.42818,50.9528,"de:5358:4179"
"21003768","Merkstein, Merkstein August-Schmidt-Platz Bf",6.1195,50.88696,"de:5334:3768"
"21004594","Linnich, SIG Combibloc Bahnhof",6.27596,50.9828,"de:5358:4594"
"21003781","Merkstein, Gesamtschule",6.1155,50.88224,"de:5334:3781"
"21002098","Baesweiler, Max-Planck-Str.",6.17939,50.91971,"de:5334:2098"
"21003773","Merkstein, Magerauer Str.",6.11605,50.88353,"de:5334:3773"
"21004177","Jülich, Güsten",6.43332,50.95439,"de:5358:4177"
"21004251","Pattern, Sevenicher Weg",6.38961,50.95387,"de:5358:4251"
"21002071","Baesweiler, In der Schaf",6.18583,50.90521,"de:5334:2071"
"21004249","Pattern, Moesges Weg",6.38782,50.95575,"de:5358:4249"
"21004247","Pattern, Pattern Kreuzstr.",6.38559,50.95787,"de:5358:4247"
"21003809","Merkstein, Neumerberen",6.12815,50.8955,"de:5334:3809"
"21004241","Jülich, Mersch Patterner Gasse",6.38031,50.96032,"de:5358:4241"
"21004239","Jülich, Mersch Zum Jagdfeld",6.37953,50.96128,"de:5358:4239"
"21002103","Setterich, Im Weinkeller",6.19798,50.91936,"de:5334:2103"
"21003679","Merkstein, Herbach",6.10864,50.90474,"de:5334:3679"
"21003813","Herzogenrath, Niederbardenberg",6.11219,50.85527,"de:5334:3813"
"21002973","St. Jöris, St. Jöris Kirche",6.21031,50.8358,"de:5334:2973"
"21003677","Merkstein, Wildnis Zollhaus",6.09557,50.89424,"de:5334:3677"
"21004593","Boslar, Boslar Ort",6.33343,50.97171,"de:5358:4593"
"21004591","Boslar, Boslar Kirche",6.3314,50.97269,"de:5358:4591"
"21003803","Merkstein, Humboldtstr.",6.12341,50.89258,"de:5334:3803"
"21003795","Merkstein, Boscheler Berg",6.13269,50.89844,"de:5334:3795"
"21003782","Merkstein, Merkstein Gesamtschule Wendeschleife",6.11221,50.88071,"de:5334:3782"
"21002091","Beggendorf, Am Ringofen",6.17143,50.92314,"de:5334:2091"
"21002077","Baesweiler, Löffelstr.",6.17878,50.90704,"de:5334:2077"
"21003789","Herzogenrath, Ritzerfeld Siedlung",6.10937,50.87641,"de:5334:3789"
"21003801","Merkstein, Eintrachtstr.",6.12312,50.89376,"de:5334:3801"
"21002119","Oidtweiler, In den Füllen",6.18109,50.89594,"de:5334:2119"
"21002093","Beggendorf, Beggendorf Kirche",6.16486,50.92354,"de:5334:2093"
"21003993","Rurich, Rurich Kirche",6.27084,51.01312,"de:5370:3993"
"21003799","Merkstein, Merkstein Industriegebiet Boscheler Berg",6.12974,50.89811,"de:5334:3799"
"21003671","Merkstein, Herbach Feld",6.10145,50.90322,"de:5334:3671"
"21002131","Setterich, Bahnstr.",6.20091,50.92144,"de:5334:2131"
"21002145","Setterich, Am Sportplatz",6.20844,50.91962,"de:5334:2145"
"21002953","Röhe, Röhe Wasserwerk",6.22662,50.82154,"de:5334:2953"
"21003737","Kohlscheid, Bürgerhaus",6.09413,50.83637,"de:5334:3737"
"21002943","Röhe, Am Römerberg",6.2393,50.82776,"de:5334:2943"
"21003901","Hückelhoven, Porschestr.",6.25796,51.03333,"de:5370:3901"
"21002677","Genfeld, Genfeld",6.2506,51.10267,"de:5370:2677"
"21003903","Hückelhoven, Fa. Wenko",6.26117,51.03834,"de:5370:3903"
"21003899","Hückelhoven, Ottostr.",6.26688,51.03254,"de:5370:3899"
"21003897","Hückelhoven, Baal Damm",6.26419,51.03772,"de:5370:3897"
"21002675","Geneiken, Geneiken",6.26029,51.11066,"de:5370:2675"
"21002975","St. Jöris, St. Jöris Schule",6.21237,50.83538,"de:5334:2975"
"21002089","Beggendorf, Beggendorf",6.16766,50.92668,"de:5334:2089"
"21002679","Genhof, Genhof",6.25665,51.09863,"de:5370:2679"
"21003895","Hückelhoven, Baal Bahnhof (Bus)",6.2732,51.03341,"de:5370:3895"
"21003815","Herzogenrath, Vier Jahreszeiten",6.11265,50.85065,"de:5334:3815"
"21002139","Setterich, Setterich Rathaus",6.20209,50.92407,"de:5334:2139"
"21002947","Röhe, Röhe Kirche",6.23345,50.82131,"de:5334:2947"
"21002143","Setterich, Sparkasse",6.20614,50.9235,"de:5334:2143"
"21003675","Kohlscheid, Waldschänke",6.10393,50.82467,"de:5334:3675"
"21003896","Hückelhoven, Baal Bf",6.27414,51.03346,"de:5370:3896"
"21003861","Hückelhoven, Baal Süd",6.27737,51.03088,"de:5370:3861"
"21003887","Doveren, Abzw. Doverhahn",6.26276,51.05472,"de:5370:3887"
"21002673","Geneiken, Geneiken Dyker Str.",6.26787,51.10754,"de:5370:2673"
"21002137","Setterich, Setterich Ost",6.20989,50.92408,"de:5334:2137"
"21002615","Schwanenberg, Abzw. Hoven",6.26279,51.09214,"de:5370:2615"
"21003735","Kohlscheid, Rolandstr.",6.09821,50.82619,"de:5334:3735"
"21002135","Setterich, Jugendtreff",6.2008,50.92667,"de:5334:2135"
"21002949","Röhe, Röhe Schwan",6.24035,50.82214,"de:5334:2949"
"21003857","Hückelhoven, Baal Kirche",6.27987,51.03438,"de:5370:3857"
"21002116","Loverich, Loverich Kirche",6.18873,50.93017,"de:5334:2116"
"21002114","Loverich, Loverich Bäckerei",6.18976,50.93024,"de:5334:2114"
"21002141","Setterich, Setterich Siedlung",6.20963,50.92667,"de:5334:2141"
"21002951","Röhe, Röhe Villa",6.23857,50.81887,"de:5334:2951"
"21002945","Röhe, Aachener Str.",6.24549,50.82278,"de:5334:2945"
"21002623","Genhof, Genhof Genhofer Mühlenweg",6.26515,51.09613,"de:5370:2623"
"21002133","Setterich, Grünstr.",6.20613,50.92844,"de:5334:2133"
"21002099","Baesweiler, Grengracht",6.17432,50.90818,"de:5334:2099"
"21002113","Loverich, Loverich Schule",6.18875,50.93187,"de:5334:2113"
"21002701","Erkelenz, Rurtalstr.",6.27028,51.05622,"de:5370:2701"
"21003855","Hückelhoven, Am alten Bahnhof",6.28136,51.03808,"de:5370:3855"
"21002115","Loverich, Puffendorfer Str.",6.19249,50.93238,"de:5334:2115"
"21003859","Hückelhoven, Baal Schule",6.28443,51.0359,"de:5370:3859"
"21003817","Herzogenrath, Noppenberg",6.1257,50.86967,"de:5334:3817"
"21002785","Röhe, Werk Aue",6.23781,50.81234,"de:5334:2785"
"21002697","Schwanenberg, Schwanenberg Schule",6.27694,51.10197,"de:5370:2697"
"21002695","Grambusch, Grambusch",6.28855,51.10591,"de:5370:2695"
"21002759","Erkelenz, Matzerath Schule",6.28398,51.07737,"de:5370:2759"
"21002613","Grambusch, Grambusch Abzw.",6.29521,51.10762,"de:5370:2613"
"21002761","Erkelenz, Matzerath Tankstelle",6.28593,51.07713,"de:5370:2761"
"21002699","Granterath, Granterath",6.29288,51.05671,"de:5370:2699"
"21002753","Erkelenz, Lövenich Schule",6.32093,51.03059,"de:5370:2753"
"21002631","Granterath, Granterath Scheidt",6.2963,51.06138,"de:5370:2631"
"21002781","Eschweiler (Rheinl), Aue Auestr.",6.23769,50.80698,"de:5334:2781"
"21002748","Erkelenz, Schweizerstr.",6.32072,51.03194,"de:5370:2748"
"21002751","Erkelenz, Lövenich Post",6.31978,51.03317,"de:5370:2751"
"21002129","Puffendorf, Von Ameln",6.20933,50.93722,"de:5334:2129"
"21002766","Oerath, Abzw. Oerather Mühlenfeld",6.29623,51.08624,"de:5370:2766"
"21002747","Erkelenz, Bruchstr.",6.32326,51.03456,"de:5370:2747"
"21002765","Oerath, Oerath",6.3008,51.0932,"de:5370:2765"
"21002749","Erkelenz, Lövenich Markt",6.3272,51.03269,"de:5370:2749"
"21002653","Erkelenz, Hoogenhof",6.30245,51.08146,"de:5370:2653"
"21002626","Erkelenz, GIPCO",6.30642,51.06364,"de:5370:2626"
"21002731","Kleinbouslar, Kleinbouslar",6.34653,51.02676,"de:5370:2731"
"21002637","Erkelenz, Antwerpener Str.",6.30606,51.0773,"de:5370:2637"
"21002657","Erkelenz, Neumühle",6.30669,51.0741,"de:5370:2657"
"21002967","Stich, Wilhelminenstr.",6.24958,50.80807,"de:5334:2967"
"21002957","Stich, Friedrichstr.",6.2462,50.8061,"de:5334:2957"
"21002661","Erkelenz, Pestalozzischule",6.30649,51.07927,"de:5370:2661"
"21002815","Eschweiler (Rheinl), Pumpe",6.24266,50.80375,"de:5334:2815"
"21002666","Erkelenz, Polizei",6.3083,51.06862,"de:05370:2666"
"21002816","Eschweiler (Rheinl), Stolberger Str.",6.23774,50.79967,"de:5334:2816"
"21002989","Eschweiler (Rheinl), Steinkohlenfeld",6.23413,50.79746,"de:5334:2989"
"21002769","Tenholt, Tenholt",6.31524,51.05444,"de:5370:2769"
"21002965","Stich, Stich Waldschule",6.2497,50.8038,"de:5334:2965"
"21002649","Erkelenz, Gymnasium",6.30798,51.08302,"de:5370:2649"
"21002981","Siedlung Waldschule, Siedlung Waldschule Am Ginsterbusch",6.23535,50.79708,"de:5334:2981"
"21002985","Siedlung Waldschule, Siedlung Waldschule Luisenstraße",6.24236,50.79973,"de:5334:2985"
"21002628","Erkelenz, Sittarder Str.",6.31054,51.06439,"de:05370:2628"
"21002991","Siedlung Waldschule, Waldstr.",6.24009,50.79848,"de:5334:2991"
"21002671","Erkelenz, ZOB-Krefelder Str.",6.31056,51.08121,"de:5370:2671"
"21002643","Erkelenz, Aachener Str.",6.31048,51.07771,"de:5370:2643"
"21002659","Erkelenz, Oerather Mühle",6.31145,51.08445,"de:5370:2659"
"21002629","Katzem, Hötzelberg",6.3426,51.03425,"de:5370:2629"
"21002625","Erkelenz, Gewerbepark Commerden",6.31511,51.06322,"de:5370:2625"
"21002663","Erkelenz, Erkelenz Süd",6.31478,51.06815,"de:5370:2663"
"21002651","Erkelenz, Hagelkreuz",6.31463,51.07152,"de:5370:2651"
"21002645","Erkelenz, Agentur für Arbeit (Arbeitsamt)",6.31443,51.07574,"de:5370:2645"
"21003549","Karken, Sonnenschein",6.06845,51.1049,"de:5370:3549"
"21003533","Karken, Hirtstr.",6.07267,51.10678,"de:5370:3533"
"21002633","Tenholt, Tenholt Wahnenbusch",6.32347,51.05386,"de:5370:2633"
"21002669","Erkelenz, Ziegelweiher",6.31569,51.08518,"de:5370:2669"
"21002715","Katzem, Abzw. Kückhoven",6.34869,51.03511,"de:5370:2715"
"21003535","Karken, Im End",6.07886,51.10832,"de:5370:3535"
"21002639","Erkelenz, Beecker Str.",6.31923,51.09038,"de:5370:2639"
"21002655","Erkelenz, Kölner Tor",6.3178,51.0787,"de:5370:2655"
"21002721","Katzem, Katzem Schule",6.3509,51.03507,"de:5370:2721"
"21003547","Karken, Karken Schmiede",6.07331,51.10156,"de:5370:3547"
"21003537","Karken, Karken Kirche",6.0797,51.10429,"de:5370:3537"
"21002723","Katzem, Katzem Vorstadt",6.35612,51.03272,"de:5370:2723"
"21002719","Katzem, Katzem Kirche",6.3541,51.03464,"de:5370:2719"
"21002647","Erkelenz, Erkelenz Bf",6.32073,51.07611,"de:5370:2647"
"21002665","Erkelenz, Wirth + Co",6.32384,51.07367,"de:5370:2665"
"21003543","Karken, Karken Post",6.0771,51.09873,"de:5370:3543"
"21002635","Erkelenz, Anton-Heinen Str.",6.3244,51.07994,"de:5370:2635"
"21003541","Karken, Mühlenstr.",6.08289,51.10048,"de:5370:3541"
"21002612","Neu-Borschemich, Neu-Borschemich",6.32931,51.09461,"de:5370:2612"
"21002603","Bellinghoven, Bellinghoven",6.3282,51.06456,"de:5370:2603"
"21003539","Karken, Karken Krings",6.07861,51.09695,"de:5370:3539"
"21003481","Kirchhoven, Kirchhoven Vinn",6.05491,51.08642,"de:5370:3481"
"21002641","Erkelenz, Brückstr.",6.32605,51.08386,"de:5370:2641"
"21003480","Kirchhoven, Abzw. Vinn",6.05198,51.0841,"de:5370:3480"
"21002768","Erkelenz, Ludwigstr.",6.3288,51.09092,"de:5370:2768"
"21003545","Karken, Scherrers",6.08445,51.09356,"de:5370:3545"
"21002636","Erkelenz, WestEnergie und Verkehr",6.32679,51.07914,"de:5370:2636"
"21002667","Erkelenz, Erkelenz Ziegelei",6.32852,51.07729,"de:5370:2667"
"21002764","Erkelenz, Sachsenring",6.33137,51.08621,"de:5370:2764"
"21003559","Kirchhoven, Lümbach",6.06148,51.08027,"de:5370:3559"
"21003553","Heinsberg (Rheinl), Kempen Friedhof",6.09739,51.09509,"de:5370:3553"
"21002708","Neu-Immerath, Neu-Immerath",6.33787,51.05857,"de:5370:2708"
"21002763","Mennekrath, Mennekrath",6.33926,51.09037,"de:5370:2763"
"21003471","Heinsberg (Rheinl), Kempen Rurbrücke",6.10495,51.0968,"de:5370:3471"
"21002736","Erkelenz, Pescherkamp",6.34367,51.05918,"de:5370:2736"
"21002734","Kückhoven, Kückhoven Schule",6.34122,51.0635,"de:5370:2734"
"21003555","Heinsberg (Rheinl), Kempen Kirche",6.10162,51.0937,"de:5370:3555"
"21003563","Kirchhoven, Schuttorf",6.06631,51.07783,"de:5370:3563"
"21002773","Mennekrath, Mennekrath Neuhaus",6.34124,51.08578,"de:5370:2773"
"21002735","Kückhoven, Kückhoven Post",6.34549,51.06293,"de:5370:2735"
"21002771","Terheeg, Terheeg Am Grubusch",6.34191,51.08109,"de:5370:2771"
"21002733","Kückhoven, Kückhoven Markt",6.35131,51.06101,"de:5370:2733"
"21002779","Wockerath, Wockerath",6.34526,51.07498,"de:5370:2779"
"21002775","Terheeg, Terheeg Post",6.3468,51.08199,"de:5370:2775"
"21002713","Erkelenz, Immerath Siedlung",6.44458,51.05208,"de:5370:2713"
"21002709","Erkelenz, Immerath Busbf",6.43751,51.05156,"de:5370:2709"
"21002704","Erkelenz, Holzweiler Gärtnerei",6.4155,51.04746,"de:5370:2704"
"21003551","Heinsberg (Rheinl), Kempen Eickener Weg",6.10191,51.08626,"de:5370:3551"
"21002703","Erkelenz, Holzweiler Kirche",6.40477,51.04769,"de:5370:2703"
"21003557","Kirchhoven, Kirchhoven Kirche",6.07361,51.07393,"de:5370:3557"
"21003747","Kohlscheid, Rumpen Schule",6.08993,50.81629,"de:5334:3747"
"21002621","Erkelenz, Weyerhof",6.38133,51.05372,"de:5370:2621"
"21002778","Venrath, Venrath Herrather Str.",6.36948,51.09537,"de:5370:2778"
"21002706","Erkelenz, Niederstr.",6.40454,51.05053,"de:05370:2706"
"21002725","Erkelenz, Kaulhausen",6.36533,51.08201,"de:5370:2725"
"21002777","Venrath, Venrath Kirche",6.37235,51.09072,"de:5370:2777"
"21003745","Kohlscheid, Rumpen Brücke",6.09248,50.82015,"de:5334:3745"
"21002755","Lützerath, Lützerath Umgehung",6.42869,51.05861,"de:5370:2755"
"21003561","Kirchhoven, Kirchhoven Schley",6.07814,51.07118,"de:5370:3561"
"21002726","Erkelenz, Kaulhausener Str.",6.36915,51.08326,"de:5370:2726"
"21003467","Heinsberg (Rheinl), Flutgraf",6.10108,51.07966,"de:5370:3467"
"21002745","Kuckum, Kuckum Mühle",6.38319,51.08385,"de:5370:2745"
"21002605","Berverath, Berverath",6.38942,51.07394,"de:5370:2605"
"21002743","Kuckum, Kuckum Schule",6.39111,51.08264,"de:5370:2743"
"21002741","Kuckum, Kuckum",6.39599,51.08419,"de:5370:2741"
"21002737","Keyenberg, Abzw. Berverath",6.39404,51.07989,"de:5370:2737"
"21003479","Heinsberg (Rheinl), Schwarzmanns",6.09964,51.07593,"de:5370:3479"
"21003517","Lieck, Lieck",6.08407,51.06878,"de:5370:3517"
"21002727","Keyenberg, Keyenberg",6.41099,51.08325,"de:5370:2727"
"21002739","Keyenberg, Abzw. Oberwestrich",6.39889,51.0814,"de:5370:2739"
"21003729","Kohlscheid, Kämpchen",6.09201,50.82523,"de:5334:3729"
"21003730","Kohlscheid, Kämpchen Südstr.",6.09342,50.82698,"de:5334:3730"
"21002729","Keyenberg, Keyenberg Schule",6.40905,51.08234,"de:5370:2729"
"21002730","Keyenberg, Postweg",6.41218,51.07888,"de:05370:2730"
"21003727","Kohlscheid, Forstheider Str.",6.09255,50.82903,"de:5334:3727"
"21003519","Heinsberg (Rheinl), Liecker Str.",6.0891,51.06587,"de:5370:3519"
"21003501","Heinsberg (Rheinl), Kolpingstr.",6.0988,51.06933,"de:5370:3501"
"21002121","Oidtweiler, Oidtweiler Ort",6.1881,50.89403,"de:5334:2121"
"21003731","Kohlscheid, Kircheichstr.",6.08941,50.82762,"de:5334:3731"
"21002081","Baesweiler, Parkstr.",6.18873,50.90731,"de:5334:2081"
"21002053","Alsdorf (b Aachen), Am Höfchen",6.21567,50.85988,"de:5334:2053"
"21003743","Kohlscheid, Pestalozzistr.",6.08989,50.82957,"de:5334:3743"
"21003447","Aphoven, Abzw. Braunsrath",6.05579,51.05351,"de:5370:3447"
"21003455","Aphoven, Aphovener Hof",6.06351,51.05551,"de:5370:3455"
"21003725","Kohlscheid, Am Wacholder",6.09113,50.83077,"de:5334:3725"
"21003779","Merkstein, Anemonenweg",6.11145,50.88451,"de:5334:3779"
"21002921","Kinzweiler, Kinzweiler Kambach",6.23113,50.84104,"de:5334:2921"
"21004243","Merzenhausen, Merzenhausen Denkmal",6.29477,50.93606,"de:5358:4243"
"21003733","Kohlscheid, Gesundheitsamt",6.08805,50.82996,"de:5334:3733"
"21003511","Heinsberg (Rheinl), Busbahnhof",6.09769,51.06549,"de:5370:3511"
"21004245","Merzenhausen, Merzenhausen Kreuz",6.2899,50.93267,"de:5358:4245"
"21003475","Aphoven, Oberlieck",6.07831,51.05792,"de:5370:3475"
"21003523","Heinsberg (Rheinl), Unterbrucher Str.",6.10503,51.06804,"de:5370:3523"
"21003714","Merkstein, Hofstadt Wende",6.09224,50.90044,"de:5334:3714"
"21003525","Heinsberg (Rheinl), Westpromenade",6.0919,51.06254,"de:5370:3525"
"21003755","Kohlscheid, Kircheich",6.07938,50.82543,"de:5334:3755"
"21003713","Merkstein, Hofstadt Anfang",6.09053,50.89992,"de:5334:3713"
"21003508","Heinsberg (Rheinl), Rudolf-Diesel-Str.",6.10242,51.06604,"de:5370:3508"
"21003715","Merkstein, Hofstadt Ende",6.09201,50.89718,"de:5334:3715"
"21003637","Unterbruch, Peters",6.11708,51.07191,"de:5370:3637"
"21003741","Kohlscheid, Kohlscheid Alte Post",6.08698,50.83276,"de:5334:3741"
"21003386","Blens, Blens Blenser Platz",6.48093,50.65983,"de:5358:3386"
"21004013","Raffelsbrand, Raffelsbrand Forsthaus Jägerhaus",6.29765,50.66927,"de:5358:4013"
"21003509","Heinsberg (Rheinl), Ostpromenade",6.09729,51.06221,"de:5370:3509"
"21003759","Kohlscheid, Technologiepark",6.07895,50.82801,"de:5334:3759"
"21003739","Kohlscheid, Kohlscheid Markt",6.08772,50.83505,"de:5334:3739"
"21004231","Koslar, Hasenfelder Str.",6.31743,50.93039,"de:5358:4231"
"21004059","Raffelsbrand, Rote Kaul",6.30165,50.67172,"de:5358:4059"
"21003719","Kohlscheid, Hoheneichstr.",6.09113,50.8391,"de:5334:3719"
"21003631","Unterbruch, Unterbruch Kirche",6.12744,51.07412,"de:5370:3631"
"21003723","Kohlscheid, Nordstr.",6.0874,50.8359,"de:5334:3723"
"21003751","Kohlscheid, Ebertstr.",6.08349,50.83324,"de:5334:3751"
"21003429","Aphoven, Kreutzer",6.07352,51.05174,"de:5370:3429"
"21003505","Heinsberg (Rheinl), AOK",6.09217,51.05817,"de:5370:3505"
"21004233","Koslar, Koslar Bahnhof",6.3225,50.92757,"de:5358:4233"
"21003653","Kohlscheid, Bank Finkenstr.",6.06834,50.82518,"de:5334:3653"
"21003629","Unterbruch, Kempener Weg",6.13574,51.07779,"de:5370:3629"
"21003499","Heinsberg (Rheinl), Industriestr.",6.10694,51.06376,"de:5370:3499"
"21004193","Jülich, Linnicher Str.",6.35335,50.93155,"de:5358:4193"
"21003459","Unterbruch, Boms",6.14205,51.08102,"de:5370:3459"
"21003117","Nachbarheid, Abzw. Nachbarheid",5.98938,51.03345,"de:5370:3117"
"21003495","Heinsberg (Rheinl), Borsigstr.",6.11217,51.06534,"de:5370:3495"
"21003633","Unterbruch, Kirchpfad",6.13334,51.07539,"de:5370:3633"
"21003497","Heinsberg (Rheinl), Geilenkirchener Str.",6.09287,51.05676,"de:5370:3497"
"21003757","Kohlscheid, Weststr.",6.07782,50.8315,"de:5334:3757"
"21004175","Stetternich, Wehrhahnhof",6.40907,50.93452,"de:5358:4175"
"21003849","Merkstein, Wildnis Anfang",6.08985,50.89061,"de:5334:3849"
"21003721","Kohlscheid, Klinkheide",6.08681,50.84102,"de:5334:3721"
"21003521","Heinsberg (Rheinl), Siemensstr.",6.11102,51.06365,"de:5370:3521"
"21003749","Kohlscheid, Kohlscheid Bahnhof (Bus)",6.07508,50.83195,"de:5334:3749"
"21003657","Kohlscheid, Bank",6.06973,50.82867,"de:5334:3657"
"21003750","Kohlscheid, Kohlscheid Bf",6.07451,50.83185,"de:5334:3750"
"21003649","Kohlscheid, Bank Amstelbach",6.07261,50.83064,"de:5334:3649"
"21004057","Raffelsbrand, Ringstr.",6.31622,50.67163,"de:5358:4057"
"21003515","Heinsberg (Rheinl), Gymnasium",6.09794,51.05672,"de:5370:3515"
"21003655","Kohlscheid, Bank Siedlung",6.06701,50.82792,"de:5334:3655"
"21003507","Heinsberg (Rheinl), Agentur für Arbeit (Arbeitsamt)",6.10432,51.05911,"de:5370:3507"
"21003503","Heinsberg (Rheinl), Kreisverwaltung",6.10877,51.0607,"de:5370:3503"
"21003513","Heinsberg (Rheinl), Heinsberg Friedhof",6.09433,51.05449,"de:5370:3513"
"21003627","Unterbruch, Alte Schmiede",6.13516,51.07239,"de:5370:3627"
"21003431","Aphoven, Aphoven Mitte",6.07182,51.04547,"de:5370:3431"
"21003566","Laffeld, Genstr. (Schulbus)",6.05804,51.04061,"de:5370:3566"
"21003763","Merkstein, Merkstein Alt-Merkstein Friedhof",6.09282,50.88123,"de:5334:3763"
"21003753","Kohlscheid, Feldstr.",6.07715,50.8359,"de:5334:3753"
"21003111","Breberen, Bredburplatz",5.98928,51.0272,"de:5370:3111"
"21003567","Laffeld, Laffeld Schule",6.05468,51.03873,"de:5370:3567"
"21003851","Merkstein, Wildnis Ende",6.08547,50.88979,"de:5334:3851"
"21003635","Unterbruch, Küpper",6.13618,51.06923,"de:5370:3635"
"21003717","Kohlscheid, Gut Forensberg",6.08185,50.84079,"de:5334:3717"
"21003433","Aphoven, Aphoven Post",6.06966,51.04166,"de:5370:3433"
"21003691","Herzogenrath, Herzogenrath Brücke",6.09375,50.86708,"de:5334:3691"
"21003710","Herzogenrath, Wiesenstr.",6.09365,50.86569,"de:5334:3710"
"21003113","Breberen, Breberen Post",5.99079,51.02554,"de:5370:3113"
"21003565","Laffeld, Laffeld Mitte",6.06215,51.03887,"de:5370:3565"
"21003651","Kohlscheid, Bank Bachstr.",6.0706,50.83294,"de:5334:3651"
"21003769","Merkstein, Haus Worm",6.08963,50.88003,"de:5334:3769"
"21003607","Heinsberg (Rheinl), Schafhausen Mehrzweckhalle",6.11462,51.05594,"de:5370:3607"
"21003601","Oberbruch, Hartenbauer",6.12283,51.05905,"de:5370:3601"
"21003116","Brüxgen, Breberen Grundschule",5.99099,51.02394,"de:5370:3116"
"21003608","Heinsberg (Rheinl), Schafhausen Kirche",6.1117,51.05311,"de:5370:3608"
"21003687","Herzogenrath, Eygelshovener Str.",6.09206,50.86783,"de:5334:3687"
"21003647","Kohlscheid, Auf´m Schif",6.07087,50.83421,"de:5334:3647"
"21003115","Brüxgen, Brüxgen",5.99412,51.02298,"de:5370:3115"
"21003770","Merkstein, Grenzstr.",6.08742,50.88076,"de:5334:3770"
"21004235","Koslar, Theodor-Heuss-Str.",6.32124,50.92344,"de:5358:4235"
"21003114","Brüxgen, Brüxgen Kindergarten",5.99381,51.02254,"de:5370:3114"
"21003821","Kohlscheid, Forensberger Str.",6.07537,50.83964,"de:5334:3821"
"21003695","Herzogenrath, Burgstr.",6.08918,50.86591,"de:5334:3695"
"21003435","Aphoven, Schelsberg",6.07259,51.03717,"de:5370:3435"
"21003489","Oberbruch, Grebben Schule",6.12774,51.05747,"de:5370:3489"
"21004236","Koslar, Koslar Bürgerhalle",6.32586,50.92451,"de:5358:4236"
"21003645","Kohlscheid, An Speenbruch",6.07068,50.8373,"de:5334:3645"
"21003853","Herzogenrath, Worm Brücke",6.08009,50.88716,"de:5334:3853"
"21003575","Oberbruch, Altstadt",6.14089,51.06272,"de:5370:3575"
"21003137","Harzelt, Harzelt",6.01812,51.0235,"de:5370:3137"
"21003605","Heinsberg (Rheinl), Linderner Str.",6.11303,51.04918,"de:5370:3605"
"21003673","Herzogenrath, Aachener Str.",6.08693,50.86498,"de:5334:3673"
"21003487","Oberbruch, Birkenweg",6.1316,51.05624,"de:5370:3487"
"21003659","Kohlscheid, Mühlenbachstr.",6.07084,50.83931,"de:5334:3659"
"21003959","Ratheim, Abzw. Garsbeck",6.1663,51.07497,"de:5370:3959"
"21003825","Kohlscheid, Pannesheide",6.07553,50.84661,"de:5334:3825"
"21003149","Langbroich, Langbroich Kirche",6.01944,51.02154,"de:5370:3149"
"21003611","Heinsberg (Rheinl), Scheifendahl Mitte",6.07513,51.03321,"de:5370:3611"
"21003159","Schümm, Schümm",6.0002,51.01777,"de:5370:3159"
"21003819","Kohlscheid, Kohlscheid Pannesheide Altes Zollhaus",6.07381,50.8458,"de:5334:3819"
"21003843","Herzogenrath, Pilgramsweg",6.08164,50.86004,"de:5334:3843"
"21003477","Heinsberg (Rheinl), Schleiden Derichs",6.10242,51.04158,"de:5370:3477"
"21002617","Gerderath, Abzw. Vossen",6.21111,51.10601,"de:5370:2617"
"21003587","Oberbruch, Volkspark",6.14228,51.05856,"de:5370:3587"
"21003837","Herzogenrath, Straß",6.07947,50.85619,"de:5334:3837"
"21003581","Oberbruch, Oberbruch Markt",6.14695,51.06034,"de:5370:3581"
"21003841","Herzogenrath, Straß Kohlberg",6.07668,50.85138,"de:5334:3841"
"21003147","Langbroich, Langbroich Kapelle",6.01267,51.01817,"de:5370:3147"
"21003992","Ratheim, Zechenring",6.18059,51.07981,"de:05370:3992"
"21004187","Jülich, Fachhochschule",6.37038,50.93198,"de:5358:4187"
"21003961","Ratheim, Krickelberg Kreuz",6.16698,51.07048,"de:5370:3961"
"21003847","Herzogenrath, Straß Niewstraat / Schummerstraat",6.07517,50.85151,"de:5334:3847"
"21003571","Oberbruch, Grebbener Str.",6.13729,51.05396,"de:5370:3571"
"21003485","Oberbruch, Eschweiler",6.12369,51.04777,"de:5370:3485"
"21003839","Herzogenrath, Im Straßer Feld",6.07814,50.86132,"de:5334:3839"
"21003845","Herzogenrath, Straß Niewstraat / Pricksteenweg",6.07606,50.85571,"de:5334:3845"
"21003577","Oberbruch, Oberbruch Freibad",6.14634,51.05702,"de:5370:3577"
"21003142","Kievelberg, Kievelberg (Schulbus)",5.98286,51.01263,"de:5370:3142"
"21003476","Heinsberg (Rheinl), Schafhausen Schleiden Alte Schule (Schulbus)",6.10542,51.03864,"de:5370:3476"
"21003584","Oberbruch, Parkstraße",6.14902,51.05745,"de:5370:3584"
"21003613","Heinsberg (Rheinl), Scheifendahl Oberdorf",6.07927,51.02946,"de:5370:3613"
"21003573","Oberbruch, Hans Böckler Str.",6.15285,51.0587,"de:5370:3573"
"21003893","Ratheim, Schacht IV",6.18855,51.07994,"de:5370:3893"
"21003889","Altmyhl, Abzw. Myhl",6.19062,51.08139,"de:5370:3889"
"21003483","Waldenrath, Waldenrath Pütt",6.06438,51.0246,"de:5370:3483"
"21002685","Gerderath, Hover Busch",6.21375,51.09988,"de:5370:2685"
"21003585","Oberbruch, Schulzentrum",6.15023,51.05658,"de:5370:3585"
"21003891","Altmyhl, Altmyhl",6.1952,51.08373,"de:5370:3891"
"21003530","Heinsberg (Rheinl), Hülhoven Gangelter Straße",6.13512,51.04829,"de:5370:3530"
"21003140","Gangelt, Hastenrath Beumers Hof (Schulbus)",5.97581,51.00889,"de:5370:3140"
"21003157","Schierwaldenrath, Schierwaldenrath Post",6.0315,51.01562,"de:5370:3157"
"21003979","Ratheim, Ratheim Kirche",6.17722,51.06821,"de:5370:3979"
"21003465","Heinsberg (Rheinl), Erpen",6.0936,51.02993,"de:5370:3465"
"21003155","Schierwaldenrath, Schierwaldenrath Bf",6.03684,51.01526,"de:5370:3155"
"21003985","Ratheim, Myhler Str.",6.1862,51.07374,"de:5370:3985"
"21003491","Oberbruch, Hülhoven Kreuz",6.13788,51.04666,"de:5370:3491"
"21002681","Gerderath, Gerderath Friedhof",6.21327,51.09351,"de:5370:2681"
"21002683","Gerderath, Sparkasse",6.21711,51.0964,"de:5370:2683"
"21003983","Ratheim, Ratheim Markt",6.17771,51.06617,"de:5370:3983"
"21003139","Gangelt, Hastenrath",5.97046,51.00524,"de:5370:3139"
"21003125","Vinteln, Vinteln",6.00537,51.00825,"de:5370:3125"
"21003579","Oberbruch, Kranzes",6.1595,51.05466,"de:5370:3579"
"21003827","Kohlscheid, Pannesheide Schule",6.06936,50.84679,"de:5334:3827"
"21003987","Ratheim, Ratheim Realschule",6.18481,51.0689,"de:5370:3987"
"21003451","Heinsberg (Rheinl), Abzw. Erpen",6.09259,51.02592,"de:5370:3451"
"21003971","Ratheim, Burgstr.",6.17868,51.06403,"de:5370:3971"
"21003449","Heinsberg (Rheinl), Abzw. Dorath",6.09926,51.02769,"de:5370:3449"
"21003109","Birgden, Starzend",6.04637,51.01279,"de:5370:3109"
"21003469","Heinsberg (Rheinl), Hamacher",6.08507,51.02244,"de:5370:3469"
"21003463","Heinsberg (Rheinl), Schleiden Jansen",6.10831,51.02977,"de:5370:3463"
"21004017","Raffelsbrand, Raffelsbrand",6.33937,50.66694,"de:5358:4017"
"21002682","Gerderath, Lauerstr.",6.22432,51.09542,"de:5370:2682"
"21003644","Waldenrath, Waldenrath Am Strauch (Schulbus)",6.07144,51.01754,"de:5370:3644"
"21003445","Dremmen, Sebastianusstr.",6.14403,51.04255,"de:5370:3445"
"21003991","Ratheim, Ziegelweg",6.17931,51.06077,"de:5370:3991"
"21003973","Ratheim, Busch",6.18778,51.06601,"de:5370:3973"
"21003099","Birgden, Birgden Bahnübergang",6.04942,51.01111,"de:5370:3099"
"21003437","Dremmen, Dremmen Bahnhof",6.15115,51.04513,"de:5370:3437"
"21003823","Kohlscheid, Kohlscheid Pannesheide Heydenstraße",6.06616,50.84637,"de:5334:3823"
"21003143","Kreuzrath, Kreuzrath Ringofen",6.02429,51.00587,"de:5370:3143"
"21003639","Waldenrath, Dr. Schmitz",6.07255,51.01592,"de:5370:3639"
"21003829","Kohlscheid, Kohlscheid Pannesheide Stegelstraße",6.06486,50.84847,"de:5334:3829"
"21003975","Ratheim, Buscherbahn",6.19731,51.07085,"de:5370:3975"
"21003641","Waldenrath, Drogerie",6.07335,51.0157,"de:5370:3641"
"21003619","Heinsberg (Rheinl), Straeten Peters",6.08953,51.02001,"de:5370:3619"
"21003443","Dremmen, Sängerheim",6.14918,51.04274,"de:5370:3443"
"21003461","Uetterath, Uetterath Donselen",6.11013,51.02626,"de:5370:3461"
"21003583","Oberbruch, Schanz",6.17367,51.05448,"de:5370:3583"
"21004211","Jülich, Schlehdornweg",6.36878,50.93061,"de:5358:4211"
"21003145","Kreuzrath, Wöllenweber",6.0285,51.00501,"de:5370:3145"
"21003977","Ratheim, Jacobastr.",6.1945,51.06677,"de:5370:3977"
"21003107","Birgden, Pley",6.05276,51.00894,"de:5370:3107"
"21004201","Lich-Steinstraß, Lich-Steinstraß Matthiasplatz",6.37731,50.92994,"de:5358:4201"
"21003643","Waldenrath, Heffels",6.07476,51.01412,"de:5370:3643"
"21002977","Siedlung Waldschule, Siedlung Waldschule Akazienhain",6.24453,50.79623,"de:5334:2977"
"21003441","Dremmen, Dremmen Kirche",6.14662,51.03926,"de:5370:3441"
"21003097","Birgden, Birgden Bf",6.05817,51.00963,"de:5370:3097"
"21003586","Heinsberg (Rheinl), Bleckden",6.16984,51.05039,"de:5370:3586"
"21003103","Birgden, Geilenkirchener Str.",6.05668,51.00858,"de:5370:3103"
"21002687","Gerderhahn, Gerderhahn Friedhof",6.24077,51.10168,"de:5370:2687"
"21003105","Birgden, Birgden Kirche",6.05103,51.00707,"de:5370:3105"
"21002979","Siedlung Waldschule, Siedlung Waldschule Alte Rodung",6.24476,50.7939,"de:5334:2979"
"21002689","Gerderhahn, Gerderhahn Schule",6.23989,51.10002,"de:5370:2689"
"21003101","Birgden, Betkreuz",6.04313,51.00451,"de:5370:3101"
"21003951","Kleingladbach, Ratheimer Str.",6.21675,51.07813,"de:5370:3951"
"21004205","Jülich, Probst-Bechte-Platz",6.35527,50.9256,"de:5358:4205"
"21003141","Kreuzrath, Kreuzrath Coenen",6.03553,51.00279,"de:5370:3141"
"21004142","Jülich, Jülich Schirmerschule",6.35625,50.92547,"de:5358:4142"
"21003439","Dremmen, Falder Str.",6.15412,51.03867,"de:5370:3439"
"21003129","Gangelt, Gangelt Bahnhof",5.99971,50.99531,"de:5370:3129"
"21003617","Heinsberg (Rheinl), Straeten Küppers",6.09154,51.01347,"de:5370:3617"
"21003104","Birgden, Hofer Weg",6.06027,51.0052,"de:5370:3104"
"21003126","Gangelt, Schützengraben (Schulbus)",5.99606,50.99441,"de:5370:3126"
"21003453","Dremmen, Abzw. Herb",6.14891,51.03406,"de:5370:3453"
"21003133","Gangelt, Hastenrather Weg",5.99245,50.99397,"de:5370:3133"
"21003949","Kleingladbach, Kastanienweg",6.21974,51.07558,"de:5370:3949"
"21003130","Gangelt, Gangelt Realschule",6.00132,50.99469,"de:5370:3130"
"21003965","Millich, Jettchenweg",6.19549,51.05819,"de:5370:3965"
"21003131","Gangelt, Gangelt Schulzentrum",6.00249,50.99447,"de:5370:3131"
"21003995","Hückelhoven, Fa. Povel",6.20417,51.06298,"de:5370:3995"
"21003123","Birgden, Hanstr.",6.04696,51.00065,"de:5370:3123"
"21003945","Kleingladbach, Kleingladbach Erkelenzer Straße",6.22474,51.07764,"de:5370:3945"
"21003953","Kleingladbach, Brück",6.22777,51.07976,"de:5370:3953"
"21003473","Dremmen, Herb Ort",6.14686,51.03095,"de:5370:3473"
"21003966","Millich, Rolandstraße",6.19803,51.05799,"de:5370:3966"
"21003127","Gangelt, Amt",5.99888,50.99244,"de:5370:3127"
"21003957","Kleingladbach, Kleingladbach Wassenberger Straße",6.22682,51.07758,"de:5370:3957"
"21003623","Uetterath, Uetterath Nygen",6.12984,51.02309,"de:5370:3623"
"21003955","Kleingladbach, Schellberg",6.23179,51.08142,"de:5370:3955"
"21003132","Gangelt, Mercator Schule",6.00479,50.99248,"de:5370:3132"
"21003963","Millich, Gronewaldstr.",6.19838,51.05634,"de:5370:3963"
"21003590","Heinsberg (Rheinl), Porselen Bendengasse",6.17527,51.04293,"de:5370:3590"
"21003135","Gangelt, Luisenring",6.00571,50.99168,"de:5370:3135"
"21003621","Heinsberg (Rheinl), Winands",6.09428,51.00942,"de:5370:3621"
"21002983","Siedlung Waldschule, Siedlung Waldschule Waldsiedlung",6.24449,50.7919,"de:5334:2983"
"21003997","Hückelhoven, Schaufenberg Schule",6.21202,51.06405,"de:5370:3997"
"21003969","Millich, Schaufenberger Str.",6.20185,51.05721,"de:5370:3969"
"21003128","Gangelt, Am Bongert (Schulbus)",5.99847,50.99041,"de:5370:3128"
"21003967","Millich, Ledigenheim",6.20656,51.05985,"de:5370:3967"
"21003947","Kleingladbach, Eschenbroich",6.22581,51.0734,"de:5370:3947"
"21003173","Gangelt, Tonwerk",6.01348,50.99127,"de:5370:3173"
"21003625","Uetterath, Uetterath",6.13394,51.02113,"de:5370:3625"
"21003917","Hückelhoven, Abzw. Schaufenberg",6.211,51.06111,"de:5370:3917"
"21003134","Gangelt, Franz-Savels-Str.",5.99307,50.98827,"de:5370:3134"
"21003457","Uetterath, Uetterath Blauenstein",6.11619,51.01397,"de:5370:3457"
"21003943","Kleingladbach, Im Siel",6.2273,51.07204,"de:5370:3943"
"21002691","Golkrath, Golkrath Kapelle",6.2415,51.08294,"de:5370:2691"
"21003615","Heinsberg (Rheinl), Straeten Derichs",6.10129,51.00784,"de:5370:3615"
"21003589","Porselen, Porselen",6.17354,51.0366,"de:5370:3589"
"21003175","Stahe, Wirtsberg",6.01516,50.98893,"de:5370:3175"
"21003919","Hückelhoven, Dieks Mühle",6.21894,51.06313,"de:5370:3919"
"21003174","Mindergangelt, Mindergangelt (Schulbus)",5.97664,50.98434,"de:5370:3174"
"21004191","Jülich, Jülich Krankenhaus",6.36495,50.92537,"de:5358:4191"
"21003944","Kleingladbach, Im Siel Brücke",6.22807,51.06823,"de:5370:3944"
"21003163","Stahe, Stahe Kreuzberg",6.02818,50.98934,"de:5370:3163"
"21002693","Golkrath, Terreicken",6.24714,51.08328,"de:5370:2693"
"21003161","Stahe, Stahe Im Kamp",6.02179,50.988,"de:5370:3161"
"21003921","Hückelhoven, Friedrichstr.",6.2222,51.06115,"de:5370:3921"
"21003941","Hückelhoven, Schlee",6.22702,51.06452,"de:5370:3941"
"21003933","Hückelhoven, Zeche",6.21891,51.05753,"de:5370:3933"
"21002987","Eschweiler (Rheinl), Stadtwald",6.24897,50.78934,"de:5334:2987"
"21003165","Stahe, Stahe Krings",6.03639,50.9873,"de:5370:3165"
"21003169","Stahe, Stahe Post",6.036,50.98649,"de:5370:3169"
"21003939","Hückelhoven, Loerbrockstr.",6.22739,51.06134,"de:5370:3939"
"21004261","Stetternich, ehem. Amt",6.40557,50.92689,"de:5358:4261"
"21003171","Stahe, Zaunbrecher",6.04476,50.9858,"de:5370:3171"
"21003931","Hückelhoven, Hückelhoven Rathaus",6.22322,51.05522,"de:5370:3931"
"21003927","Hückelhoven, Hückelhoven Bad",6.22568,51.05638,"de:5370:3927"
"21003923","Hückelhoven, Hückelhoven Gewerbegebiet",6.21826,51.05039,"de:5370:3923"
"21004213","Jülich, Josefschule",6.36755,50.92403,"de:5358:4213"
"21003531","Heinsberg (Rheinl), Horst Bf",6.18226,51.02907,"de:5370:3531"
"21003153","Niederbusch, Dorfstr.",6.03137,50.98073,"de:5370:3153"
"21003167","Stahe, Leyenhaus",6.05195,50.9842,"de:5370:3167"
"21003935","Hückelhoven, Hertie (Karstadt)",6.22391,51.05165,"de:5370:3935"
"21002705","Erkelenz, Blumenstr.",6.2495,51.07011,"de:5370:2705"
"21003925","Hückelhoven, Rheinstr.",6.22154,51.04793,"de:5370:3925"
"21003591","Randerath, Am Hellenkamp",6.17239,51.01996,"de:5370:3591"
"21003151","Niederbusch, Kleiner Weg",6.03609,50.97915,"de:5370:3151"
"21003233","Gillrath, Gerads",6.05971,50.98316,"de:5370:3233"
"21003937","Hückelhoven, Lieberg",6.23319,51.05351,"de:5370:3937"
"21003247","Hatterath, Hatterath Kapelle",6.0923,50.99007,"de:5370:3247"
"21003251","Hatterath, Hattostr.",6.09726,50.99141,"de:5370:3251"
"21003929","Hückelhoven, Hückelhoven Bahnhof",6.22714,51.04859,"de:5370:3929"
"21003237","Gillrath, Schwarzer Weg",6.06774,50.98266,"de:5370:3237"
"21003529","Randerath, Himmerich Waldesruh",6.19382,51.02723,"de:5370:3529"
"21003911","Hilfarth, Rurbrücke",6.22341,51.04376,"de:5370:3911"
"21003599","Randerath, Sandberg",6.1725,51.01606,"de:5370:3599"
"21003249","Hatterath, Salzweg",6.08424,50.98541,"de:5370:3249"
"21003329","Tripsrath, Straetener Weg",6.12455,50.99702,"de:5370:3329"
"21003915","Hilfarth, Hilfarth Tannenstr.",6.21146,51.03551,"de:5370:3915"
"21003909","Hilfarth, Hilfarth Kreuz",6.21952,51.03983,"de:5370:3909"
"21003240","Gillrath, An der Burg",6.06933,50.98102,"de:5370:3240"
"21003527","Randerath, Himmerich",6.1898,51.02292,"de:5370:3527"
"21003235","Gillrath, Gillrath Kirche",6.07435,50.98156,"de:5370:3235"
"21003231","Gillrath, Birgdener Str.",6.07664,50.98199,"de:5370:3231"
"21003331","Tripsrath, Tripsrath Kindergarten",6.12526,50.99559,"de:5370:3331"
"21003597","Randerath, Randerath Kirche",6.17696,51.0158,"de:5370:3597"
"21003913","Hilfarth, Hilfarth Sporthalle",6.21549,51.03515,"de:5370:3913"
"21003905","Hilfarth, Hilfarth Denkmal",6.2179,51.03658,"de:5370:3905"
"21004063","Vossenack, Vossenack Kloster",6.34598,50.67338,"de:5358:4063"
"21003885","Doveren, Doveren Schule",6.24493,51.05199,"de:5370:3885"
"21003593","Randerath, Randerath Bf",6.18182,51.01471,"de:5370:3593"
"21003238","Gillrath, Gillrath Grundschule",6.07472,50.97815,"de:5370:3238"
"21003907","Hilfarth, Hilfarth Friedhof",6.21799,51.03298,"de:5370:3907"
"21003595","Randerath, Heerweg",6.1838,51.0139,"de:5370:3595"
"21003201","Rischden, Rischden",6.11946,50.9889,"de:5370:3201"
"21003877","Doveren, Holzapfelstr.",6.24243,51.04688,"de:5370:3877"
"21003239","Gillrath, Teeuwen",6.08076,50.97776,"de:5370:3239"
"21003301","Niederheid, Zeppelinstr.",6.10074,50.98272,"de:5370:3301"
"21003879","Doveren, Doveren Markt",6.24822,51.05003,"de:5370:3879"
"21003883","Doveren, Provinzialstr.",6.24258,51.04575,"de:5370:3883"
"21003311","Geilenkirchen, Nirm",6.16597,51.0035,"de:5370:3311"
"21003265","Kraudorf, Kraudorf",6.16176,51.00149,"de:5370:3265"
"21003881","Doveren, Mölleberg",6.24711,51.04748,"de:5370:3881"
"21003253","Hochheid, Hochheid",6.13031,50.98833,"de:5370:3253"
"21003290","Niederheid, August-Thyssen-Str.",6.11118,50.98228,"de:05370:3290"
"21003293","Niederheid, Niederheid Gewerbegebiet Fürthenrode",6.11743,50.98392,"de:5370:3293"
"21003291","Niederheid, Niederheid Gewerbegebiet",6.10083,50.97892,"de:5370:3291"
"21003305","Niederheid, Niederheid Kaserne",6.10905,50.98119,"de:5370:3305"
"21003875","Doveren, Doveren Bahnhof",6.24889,51.04399,"de:5370:3875"
"21003295","Niederheid, Hansemannstr.",6.10402,50.97829,"de:5370:3295"
"21003297","Niederheid, Am Forsthaus",6.11413,50.98097,"de:5370:3297"
"21003299","Niederheid, von-Humboldt-Str.",6.10894,50.97901,"de:5370:3299"
"21003303","Niederheid, Kapellenweg",6.11367,50.9801,"de:5370:3303"
"21003289","Niederheid, CSB-SYSTEM AG",6.11832,50.98104,"de:5370:3289"
"21003307","Niederheid, Niederheiderhof",6.10898,50.97828,"de:5370:3307"
"21003180","Flahstraß, Flahstr.",6.17748,51.0019,"de:5370:3180"
"21003287","Niederheid, Auf`m Brunk",6.11793,50.98012,"de:5370:3287"
"21003285","Niederheid, Abzw. Niederheid",6.11945,50.97949,"de:5370:3285"
"21003279","Kogenbroich, Kogenbroich",6.16021,50.99334,"de:5370:3279"
"21003309","Nierstraß, Nierstraß",6.07832,50.96836,"de:5370:3309"
"21003182","Bauchem, Gutenbergstr.",6.09372,50.97166,"de:5370:3182"
"21003189","Bauchem, Niederheider Weg",6.10507,50.97349,"de:5370:3189"
"21003178","Honsdorf, Honsdorf",6.18694,51.00226,"de:5370:3178"
"21003227","Geilenkirchen, Quimperlestr.",6.11127,50.97485,"de:5370:3227"
"21003185","Bauchem, Bauchem Schulzentrum",6.11054,50.97298,"de:5370:3185"
"21003181","Bauchem, Flandernstr.",6.10025,50.96876,"de:5370:3181"
"21003283","Geilenkirchen, Wurmbrücke",6.16703,50.99029,"de:5370:3283"
"21003177","Bauchem, Bauchem Kirche",6.11338,50.97155,"de:5370:3177"
"21003187","Geilenkirchen, Landstr.",6.11949,50.97203,"de:5370:3187"
"21003213","Geilenkirchen, Gerhard-Hauptmann-Str.",6.11641,50.97101,"de:5370:3213"
"21003207","Geilenkirchen, Berliner Ring",6.12144,50.97203,"de:5370:3207"
"21003335","Geilenkirchen, Würm Kirche",6.17872,50.99204,"de:5370:3335"
"21003179","Bauchem, Schützenstr.",6.10452,50.967,"de:5370:3179"
"21003281","Geilenkirchen, Müllendorf",6.16843,50.98753,"de:5370:3281"
"21003337","Geilenkirchen, Prummerner Weg",6.17803,50.9908,"de:5370:3337"
"21003183","Geilenkirchen, Berufsschule",6.11217,50.96823,"de:5370:3183"
"21003267","Leiffarth, Abzw. Beeck",6.18495,50.99256,"de:5370:3267"
"21003269","Leiffarth, Leiffarth Sparkasse",6.1877,50.99359,"de:5370:3269"
"21003205","Geilenkirchen, An der Linde",6.11942,50.96906,"de:5370:3205"
"21003332","Geilenkirchen, Burg Trips",6.13249,50.97286,"de:5370:3332"
"21003317","Süggerath, Mühlenkamp",6.15153,50.97868,"de:5370:3317"
"21003229","Bauchem, Sittarder Str.",6.11195,50.96634,"de:5370:3229"
"21003321","Süggerath, Unterdorf",6.15128,50.97816,"de:5370:3321"
"21003199","Teveren, Fliegerhorst",6.06141,50.95343,"de:5370:3199"
"21003223","Geilenkirchen, Geilenkirchen TÜV",6.10939,50.96393,"de:5370:3223"
"21003315","Süggerath, Süggerath Kirche",6.14954,50.97611,"de:5370:3315"
"21003203","Geilenkirchen, Amtsgericht",6.11615,50.96564,"de:5370:3203"
"21003319","Süggerath, Oberdorf",6.14313,50.9725,"de:5370:3319"
"21003863","Brachelen, Alter Steinweg",6.23169,51.01027,"de:5370:3863"
"21003272","Geilenkirchen, Lindern Bf",6.2075,50.99691,"de:5370:3272"
"21003325","Teveren, Teveren Schule",6.08212,50.95458,"de:5370:3325"
"21003271","Geilenkirchen, Lindern Bahnhof (Bus)",6.2081,50.9967,"de:5370:3271"
"21003873","Brachelen, Unterführung",6.23267,51.00885,"de:5370:3873"
"21003221","Geilenkirchen, Geilenkirchen Markt",6.12158,50.96337,"de:5370:3221"
"21003323","Teveren, Teveren Post",6.08003,50.95278,"de:5370:3323"
"21003215","Geilenkirchen, Evangelische Kirche",6.12579,50.96377,"de:5370:3215"
"21003225","Geilenkirchen, Haihover Str.",6.12127,50.96246,"de:5370:3225"
"21003191","Geilenkirchen, Beeck Kreuz",6.1858,50.9845,"de:5370:3191"
"21003327","Teveren, Waidmühle",6.07772,50.95143,"de:5370:3327"
"21003275","Geilenkirchen, Linnicher Str.",6.21393,50.99708,"de:5370:3275"
"21003217","Geilenkirchen, Geilenkirchen Feuerwehr",6.1141,50.9599,"de:5370:3217"
"21003193","Geilenkirchen, Beeck Unterdorf",6.18937,50.98545,"de:5370:3193"
"21003273","Geilenkirchen, Lindern Kirche",6.21498,50.996,"de:5370:3273"
"21003219","Geilenkirchen, Geilenkirchen Bahnhof (Bus)",6.12399,50.96116,"de:5370:3219"
"21003220","Geilenkirchen, Geilenkirchen Bf",6.12437,50.96111,"de:5370:3220"
"21003867","Brachelen, Neustr.",6.2362,51.00619,"de:5370:3867"
"21003211","Geilenkirchen, Franz-Eifler-Weg",6.10968,50.9566,"de:5370:3211"
"21003868","Brachelen, Neuer Karweg",6.22548,51.00017,"de:5370:3868"
"21003255","Hünshoven, Jülicher Str.",6.13106,50.96209,"de:5370:3255"
"21003257","Hünshoven, Hünshoven",6.13556,50.96061,"de:5370:3257"
"21003869","Brachelen, Brachelen Kirche",6.23945,51.00366,"de:5370:3869"
"21003243","Grotenrath, Eigelshoven",6.07018,50.94436,"de:5370:3243"
"21003259","Geilenkirchen, Loherhof",6.14205,50.96166,"de:5370:3259"
"21004195","Jülich, Römerstr.",6.37249,50.92432,"de:5358:4195"
"21003195","Geilenkirchen, Abzw. Loherhof",6.13413,50.95798,"de:5370:3195"
"21003245","Grotenrath, Grotenrath Post",6.05839,50.93999,"de:5370:3245"
"21003241","Grotenrath, Am Feldkreuz",6.06659,50.94007,"de:5370:3241"
"21003313","Prummern, Prummern Friedhof",6.16769,50.96601,"de:5370:3313"
"21004196","Jülich, Am Wasserwerk",6.37644,50.9245,"de:5358:4196"
"21003870","Brachelen, Schwarzer Weg",6.24732,50.9998,"de:5370:3870"
"21004259","Stetternich, Bebber",6.39893,50.92564,"de:5358:4259"
"21004173","Jülich, Stetternicher Str.",6.38784,50.9251,"de:5358:4173"
"21004267","Stetternich, Stetternich Jägerhof",6.39758,50.92476,"de:5358:4267"
"21004203","Jülich, Neues Rathaus",6.36217,50.92147,"de:5358:4203"
"21004061","Vossenack, Vossenack Gymnasium",6.34961,50.67444,"de:5358:4061"
"21004215","Jülich, Walramplatz",6.35567,50.92044,"de:5358:4215"
"21004209","Jülich, Jülich Rurbrücke",6.35095,50.91956,"de:5358:4209"
"21004194","Jülich, Meyburginsel",6.37517,50.92282,"de:5358:4194"
"21003263","Geilenkirchen, Immendorf Friedhof",6.1677,50.95367,"de:5370:3263"
"21003261","Geilenkirchen, Immendorf Amt",6.1727,50.95119,"de:5370:3261"
"21003333","Waurichen, Waurichen",6.15422,50.94352,"de:5370:3333"
"21004183","Jülich, City",6.36488,50.92147,"de:5358:4183"
"21003681","Herzogenrath, Anna-Klöcker-Straße (Grünstraße)",6.09979,50.8646,"de:5334:3681"
"21004263","Stetternich, Engels",6.40163,50.92317,"de:5358:4263"
"21002057","Baesweiler, Jülicher Str.",6.19133,50.91059,"de:5334:2057"
"21003697","Herzogenrath, Grünstr.",6.10081,50.86447,"de:5334:3697"
"21002111","Floverich, Floverich",6.18513,50.94034,"de:5334:2111"
"21002127","Puffendorf, Van Roy",6.20581,50.93758,"de:5334:2127"
"21002125","Puffendorf, B 57",6.21334,50.93842,"de:5334:2125"
"21003777","Merkstein, Seniorenzentrum",6.10309,50.87882,"de:5334:3777"
"21002096","Baesweiler, CAP Landschaftsader",6.16343,50.91175,"de:5334:2096"
"21004163","Jülich, Neubourheim",6.33405,50.91409,"de:5358:4163"
"21004189","Jülich, Jülich Bahnhof / ZOB",6.36747,50.91976,"de:5358:4189"
"21004188","Jülich, Jülich Bf",6.36815,50.91938,"de:5358:4188"
"21004153","Jülich, Abzw. Bourheim",6.3199,50.90917,"de:5358:4153"
"21004185","Jülich, Dürener Str.",6.3705,50.91852,"de:5358:4185"
"21002107","Oidtweiler, Oidtweiler Kapelle",6.1807,50.89894,"de:5334:2107"
"21004165","Bourheim, Neubourheim Landstr.",6.33682,50.91191,"de:5358:4165"
"21004269","Stetternich, Stetternich Siedlung",6.41209,50.91935,"de:5358:4269"
"21004204","Jülich, Altenheim St.Hildegard",6.36448,50.91562,"de:5358:4204"
"21004027","Vossenack, Waldschlößchen",6.34696,50.68219,"de:5358:4027"
"21004265","Stetternich, Fonger",6.41746,50.9168,"de:5358:4265"
"21004206","Jülich, Heckfeldstraße",6.36078,50.91339,"de:5358:4206"
"21004197","Jülich, Kartaus",6.37501,50.91347,"de:5358:4197"
"21004207","Jülich, Rochusstr.",6.36011,50.91145,"de:5358:4207"
"21004485","Kreuzau (Kr Düren), Thum Schule",6.52078,50.7043,"de:5358:4485"
"21004171","Stetternich, Stallbusch",6.42445,50.91355,"de:5358:4171"
"21004069","Vossenack, Vossenack Sparkasse",6.36,50.6837,"de:5358:4069"
"21004143","Bourheim, Bourheim Akazienstr.",6.33275,50.90423,"de:5358:4143"
"21004021","Vossenack, Abzw. Vossenack",6.35209,50.68611,"de:5358:4021"
"21004145","Bourheim, Bourheim Ortsmitte",6.33079,50.90228,"de:5358:4145"
"21004071","Vossenack, Sportlokal",6.36588,50.68428,"de:5358:4071"
"21004483","Kreuzau (Kr Düren), Thum Mitte",6.51998,50.70685,"de:5358:4483"
"21004223","Jülich, Kirchberg Bahnhof",6.34883,50.90552,"de:5358:4223"
"21004067","Vossenack, Vossenack Kirche",6.37385,50.68537,"de:5358:4067"
"21003661","Herzogenrath, Bierstraß",6.10561,50.86974,"de:5334:3661"
"21004221","Jülich, Vogelsang",6.37953,50.90779,"de:5358:4221"
"21004226","Jülich, Seecasino",6.40646,50.90839,"de:5358:4226"
"21004070","Vossenack, Mestrenger Mühle",6.39505,50.6858,"de:5358:4070"
"21003699","Herzogenrath, Herzogenrath Schulzentrum",6.10561,50.86417,"de:5334:3699"
"21004228","Jülich, Forschungszentrum Strahlenschutz",6.4107,50.90817,"de:5358:4228"
"21004025","Vossenack, Kaulen",6.35572,50.6905,"de:5358:4025"
"21003705","Herzogenrath, Ritzerfeld",6.10615,50.87351,"de:5334:3705"
"21004229","Jülich, Papierfabrik",6.35059,50.90112,"de:5358:4229"
"21004437","Nideggen, Gut Kirschbaum",6.48825,50.70041,"de:5358:4437"
"21004220","Jülich, Feuerwehr",6.40628,50.90561,"de:5358:4220"
"21004072","Vossenack, Panoramastr.",6.38501,50.68917,"de:5358:4072"
"21004230","Jülich, Wache 1",6.41361,50.90501,"de:5358:4230"
"21004208","Jülich, Leo-Brandt-Str.",6.38925,50.90354,"de:5358:4208"
"21003389","Wolfgarten, Kermeter Höhe (Parkplatz Paulushof)",6.43819,50.61498,"de:5358:3389"
"21004225","Jülich, Heinen",6.35349,50.89867,"de:5358:4225"
"21004023","Vossenack, Eifeler Hof",6.35813,50.69456,"de:5358:4023"
"21004224","Jülich, Plasmaphysik",6.41428,50.90283,"de:5358:4224"
"21002798","Dürwiß, Eschweiler (Rheinlan, Dürwiß Blausteinsee",6.26414,50.85228,"de:5334:2798"
"21004222","Jülich, Heizwerk",6.40851,50.90198,"de:5358:4222"
"21004003","Hürtgenwald, Bergstein Ort",6.4267,50.69283,"de:5358:4003"
"21004227","Jülich, Teichstr.",6.35723,50.89648,"de:5358:4227"
"21004210","Jülich, Wilhelm-Johnen-Str.",6.39388,50.90078,"de:5358:4210"
"21004001","Hürtgenwald, Im Siebert",6.43501,50.69601,"de:5358:4001"
"21003999","Hürtgenwald, Bergstein Anfang",6.42699,50.69526,"de:5358:3999"
"21004218","Jülich, Forschungszentrum Bahnhof (Bus)",6.39223,50.89865,"de:5358:4218"
"21004217","Jülich, Forschungszentrum Bf",6.39223,50.89865,"de:5358:4217"
"21002858","Eschweiler (Rheinl), Auerbachstr.",6.25095,50.82402,"de:5334:2858"
"21002843","Röhe, Lederfabrik",6.25075,50.8227,"de:5334:2843"
"21004422","Boich, Boich Schule",6.4944,50.71239,"de:5358:4422"
"21004425","Drove, Am Sandberg",6.51767,50.72523,"de:5358:4425"
"21004219","Jülich, Jülich Süd",6.38928,50.89674,"de:5358:4219"
"21004423","Boich, Boich Knipprath",6.49556,50.71427,"de:5358:4423"
"21003395","Heimbach (Eifel), Kloster Mariawald",6.4797,50.61814,"de:5358:3395"
"21002079","Baesweiler, Maarstr.",6.18255,50.91151,"de:5334:2079"
"21004421","Boich, Boich Im Bend",6.50022,50.71662,"de:5358:4421"
"21004047","Hürtgen, Hürtgen Siedlung",6.35942,50.70156,"de:5358:4047"
"21002925","Kinzweiler, Pannesstr.",6.22877,50.84501,"de:5334:2925"
"21002849","Eschweiler (Rheinl), Odilienstraße/Westbahnhof (Bus)",6.25222,50.81747,"de:5334:2849"
"21004167","Jülich, Plastikwerk",6.36238,50.8922,"de:5358:4167"
"21002835","Eschweiler (Rheinl), Gutenbergstr.",6.25325,50.81891,"de:5334:2835"
"21002828","Röthgen, Eschweiler Hbf",6.25209,50.81381,"de:5334:2828"
"21002827","Röthgen, Eschweiler Hauptbahnhof (Bus)",6.25209,50.81381,"de:5334:2827"
"21002810","Stich, Stich Waldfriedhof",6.25126,50.80678,"de:5334:2810"
"21002823","Eschweiler (Rheinl), Schwimmhalle",6.25468,50.8191,"de:5334:2823"
"21004151","Daubenrath, Daubenrath",6.41669,50.89495,"de:5358:4151"
"21004005","Hürtgenwald, Brandenberg Ende",6.41542,50.69906,"de:5358:4005"
"21004007","Hürtgenwald, Brandenberg Post",6.41155,50.69902,"de:5358:4007"
"21002839","Eschweiler (Rheinl), Kreisaltenheim",6.25432,50.81571,"de:5334:2839"
"21002963","Stich, Sticher Berg",6.25351,50.81142,"de:5334:2963"
"21002857","Eschweiler (Rheinl), Steinstr.",6.25758,50.82155,"de:5334:2857"
"21004429","Drove, Burgweg",6.51565,50.72935,"de:5358:4429"
"21002955","Stich, Am Hang",6.25428,50.80416,"de:5334:2955"
"21002881","Neu-Lohn, Neu-Lohn Wiesenstr.",6.29156,50.86041,"de:5334:2881"
"21002820","Röthgen, Röthgen Ringofen",6.2561,50.81053,"de:5334:2820"
"21002840","Eschweiler (Rheinl), Burgstr.",6.25718,50.81323,"de:5334:2840"
"21002855","Röthgen, Röthgener Str.",6.2577,50.81431,"de:5334:2855"
"21004009","Hürtgenwald, Brandenberg Schule",6.41006,50.70196,"de:5358:4009"
"21003403","Heimbach (Eifel), Hasenfeld Post",6.46275,50.63571,"de:5358:3403"
"21003407","Heimbach (Eifel), WIZE",6.47661,50.63349,"de:5358:3407"
"21004049","Hürtgen, Hürtgen Soldatenfriedhof",6.36224,50.70616,"de:5358:4049"
"21003397","Heimbach (Eifel), Schwammenauel",6.44443,50.63994,"de:5358:3397"
"21003411","Heimbach (Eifel), Volksbank",6.48385,50.63278,"de:5358:3411"
"21004135","Jülich, Altenburg Frey",6.38982,50.89099,"de:5358:4135"
"21004433","Drove, Drove Schule",6.51386,50.73138,"de:5358:4433"
"21003413","Heimbach (Eifel), Hasenfelder Str.",6.47067,50.63681,"de:5358:3413"
"21003415","Heimbach (Eifel), Hilbach",6.49079,50.63183,"de:5358:3415"
"21003401","Heimbach (Eifel), Hasenfeld Kapelle",6.45884,50.63926,"de:5358:3401"
"21003410","Heimbach (Eifel), Heimbach Bahnhof (Bus)",6.47344,50.63642,"de:5358:3410"
"21003409","Heimbach (Eifel), Heimbach Bf",6.47344,50.63642,"de:5358:3409"
"21002961","Stich, Stich Siedlung",6.25757,50.80611,"de:5334:2961"
"21003387","Hergarten, Düttling Abzw.",6.54698,50.60867,"de:5358:3387"
"21003421","Hergarten, Hergarten Waldsiedlung",6.5374,50.61581,"de:5358:3421"
"21002101","Baesweiler, CarlAlexanderPark",6.17304,50.9097,"de:5334:2101"
"21002841","Eschweiler (Rheinl), Langwahn",6.26074,50.81753,"de:5334:2841"
"21003417","Hergarten, Hergarten Amt",6.54268,50.6197,"de:5358:3417"
"21003391","Heimbach (Eifel), Haus Weide",6.50544,50.63667,"de:5358:3391"
"21002829","Eschweiler (Rheinl), Karlstr.",6.26013,50.81528,"de:5334:2829"
"21003419","Hergarten, Hergarten Kirche",6.54583,50.62268,"de:5358:3419"
"21002825","Eschweiler (Rheinl), Eschweilen Bushof",6.26237,50.82025,"de:5334:2825"
"21004137","Jülich, Altenburg Moll",6.39291,50.89016,"de:5358:4137"
"21002842","Eschweiler (Rheinl), Am Burgfeld",6.26047,50.81306,"de:5334:2842"
"21002807","Dürwiß, Dürwiß Kirche",6.27503,50.84015,"de:5334:2807"
"21004257","Selgersdorf, Selgersdorf Post",6.40345,50.8904,"de:5358:4257"
"21002805","Dürwiß, Jülicher Str.",6.27358,50.83813,"de:5334:2805"
"21003402","Heimbach (Eifel), Hausen Friedhof",6.48753,50.65006,"de:5358:3402"
"21002877","Neu-Lohn, Neu-Lohn Kirche",6.29486,50.85809,"de:5334:2877"
"21003398","Heimbach (Eifel), Hausen Kirche",6.49303,50.65127,"de:5358:3398"
"21002803","Dürwiß, Heinrich-Heine-Str.",6.27135,50.83439,"de:5334:2803"
"21002821","Eschweiler (Rheinl), Eschweiler Krankenhaus",6.26315,50.81872,"de:5334:2821"
"21003797","Merkstein, Floeßer Str.",6.12205,50.89583,"de:5334:3797"
"21002959","Röthgen, Röthgen Oberdorf",6.26031,50.80836,"de:5334:2959"
"21003427","Vlatten, Vlatten Volksbank",6.5442,50.64596,"de:5358:3427"
"21003423","Vlatten, Heimbach Post",6.54752,50.6495,"de:5358:3423"
"21003425","Vlatten, Schäfer",6.54767,50.65315,"de:5358:3425"
"21004589","Langerwehe, Schlich Post",6.40329,50.7991,"de:5358:4589"
"21004587","Langerwehe, Schlich Kapelle",6.39837,50.79892,"de:5358:4587"
"21004588","Langerwehe, Schlich Grundschule",6.39763,50.80103,"de:5358:4588"
"21004581","Merode, Merode",6.39231,50.80105,"de:5358:4581"
"21002231","Derichsweiler, Martinusplatz",6.4232,50.79379,"de:5358:2231"
"21002477","Konzendorf, Abzw. Konzendorf",6.41761,50.80636,"de:5358:2477"
"21004514","Langerwehe, Schlicher Str.",6.39892,50.80798,"de:5358:4514"
"21002227","Derichsweiler, Im Reuter",6.42526,50.79219,"de:5358:2227"
"21002233","Derichsweiler, Sparkasse",6.42716,50.79702,"de:5358:2233"
"21004515","Langerwehe, D´horn",6.39665,50.81006,"de:5358:4515"
"21002421","Derichsweiler, Engel des Herrn",6.42629,50.80431,"de:5358:2421"
"21004525","Langerwehe, D´horn Rothaus",6.39824,50.81101,"de:5358:4525"
"21002475","Konzendorf, Konzendorf Nord",6.41877,50.81201,"de:5358:2475"
"21002229","Derichsweiler, Derichsweiler Dampfmühlenstraße",6.43309,50.79916,"de:5358:2229"
"21002457","Gürzenich, Hubertushof",6.42602,50.78428,"de:5358:2457"
"21004583","Obergeich, Obergeich",6.39041,50.81291,"de:5358:4583"
"21002226","Derichsweiler, Auf der Komm",6.43657,50.79994,"de:5358:2226"
"21002429","Gürzenich, Gürzenich Lager",6.41557,50.77811,"de:5358:2429"
"21004562","Langerwehe, Pierer Str.",6.37973,50.80803,"de:5358:4562"
"21004585","Obergeich, Obergeich Kapelle",6.39028,50.81438,"de:5358:4585"
"21002225","Derichsweiler, Derichsweiler Abzw",6.43797,50.80153,"de:5358:2225"
"21002461","Gürzenich, Schillingshof",6.43335,50.78567,"de:5358:2461"
"21004533","Langerwehe, Geich Ort",6.39971,50.81801,"de:5358:4533"
"21002443","Gürzenich, Kallsgasse",6.43775,50.78834,"de:5358:2443"
"21004537","Obergeich, Obergeich Herrengarten",6.39149,50.8174,"de:5358:4537"
"21004535","Langerwehe, Geich Schule",6.39623,50.81859,"de:5358:4535"
"21002451","Gürzenich, Schlagbaum",6.43985,50.78804,"de:5358:2451"
"21002449","Gürzenich, Gürzenich Markt",6.44158,50.79056,"de:5358:2449"
"21002425","Gürzenich, Eichenbruch",6.41842,50.77486,"de:5358:2425"
"21004557","Jüngersdorf, Jüngersdorf Kapelle",6.37531,50.81038,"de:5358:4557"
"21002445","Gürzenich, Gürzenich Kapelle",6.44117,50.78847,"de:5358:2445"
"21002459","Gürzenich, Muschenich",6.44361,50.79221,"de:5358:2459"
"21004550","Jüngersdorf, Jüngersdorf Denkmal",6.37488,50.81134,"de:5358:4550"
"21004558","Jüngersdorf, Hof Geich",6.3734,50.81073,"de:5358:4558"
"21002403","Echtz, Echtz Badesee",6.42818,50.81839,"de:5358:2403"
"21002447","Gürzenich, Gürzenich Kirche",6.44665,50.79467,"de:5358:2447"
"21002453","Gürzenich, Gürzenich Schule",6.44811,50.7956,"de:5358:2453"
"21004555","Jüngersdorf, Holzstr.",6.37318,50.81353,"de:5358:4555"
"21004556","Jüngersdorf, Auf dem Feldchen",6.37187,50.8127,"de:5358:4556"
"21002409","Echtz, Echtz Sportplatz",6.41424,50.82356,"de:5358:2409"
"21002407","Echtz, Echtz Eingang",6.421,50.82243,"de:5358:2407"
"21002515","Mariaweiler, Asternstr.",6.43809,50.8154,"de:5358:2515"
"21002521","Mariaweiler, Mariaweiler Siedlung",6.44009,50.81453,"de:5358:2521"
"21004519","Stütgerloch, Abzw. Jüngersdorf",6.37473,50.81631,"de:5358:4519"
"21002516","Mariaweiler, Tulpenstr.",6.43932,50.81676,"de:5358:2516"
"21002183","Düren (Rheinl), Rotdornweg",6.43681,50.77523,"de:5358:2183"
"21002413","Echtz, Steinbißstr.",6.41601,50.82621,"de:5358:2413"
"21002441","Gürzenich, Fuchs",6.45343,50.79784,"de:5358:2441"
"21002517","Mariaweiler, Mariaweiler Kirche",6.44475,50.81504,"de:5358:2517"
"21002527","Mariaweiler, Schubigsfeld",6.44121,50.81782,"de:5358:2527"
"21002411","Echtz, St.-Michael-Str.",6.42092,50.8273,"de:5358:2411"
"21002181","Düren (Rheinl), Münsterweg",6.44039,50.77345,"de:5358:2181"
"21002523","Mariaweiler, Turaphot",6.44927,50.81416,"de:5358:2523"
"21002415","Echtz, Weidmühlenstr.",6.41713,50.82852,"de:5358:2415"
"21004569","Langerwehe, Langerwehe Markt",6.3655,50.81654,"de:5358:4569"
"21002513","Mariaweiler, Mariaweiler Anne-Frank-Gesamtschule",6.44717,50.81656,"de:5358:2513"
"21004563","Langerwehe, Amt",6.3621,50.81487,"de:5358:4563"
"21004561","Langerwehe, Langerwehe Schulzentrum",6.36505,50.81795,"de:5358:4561"
"21004571","Langerwehe, Lochmühle",6.36238,50.81585,"de:5358:4571"
"21002519","Mariaweiler, Rheinstr.",6.44834,50.81743,"de:5358:2519"
"21002525","Mariaweiler, Wiesenau",6.45407,50.81167,"de:5358:2525"
"21002177","Düren (Rheinl), Bergstr.",6.44484,50.77393,"de:5358:2177"
"21002543","Rölsdorf, Breuershäuschen",6.46144,50.79688,"de:5358:2543"
"21004523","Langerwehe, Rothammer",6.35499,50.81011,"de:5358:4523"
"21002179","Düren (Rheinl), Birgel Burg",6.44583,50.7724,"de:5358:2179"
"21002185","Düren (Rheinl), Daubenvaldersweg",6.45074,50.77514,"de:5358:2185"
"21002419","Gürzenich, Gürzenich Molkerei",6.46218,50.80388,"de:5358:2419"
"21004575","Langerwehe, Pastorat",6.36012,50.81845,"de:5358:4575"
"21004567","Langerwehe, Langerwehe Kirche",6.35924,50.81798,"de:5358:4567"
"21004527","Langerwehe, Schönthal",6.34937,50.80339,"de:5358:4527"
"21004580","Luchem, Lindenhof",6.36775,50.82445,"de:5358:4580"
"21004560","Langerwehe, Pochmühlenweg",6.36164,50.82125,"de:5358:4560"
"21002547","Düren (Rheinl), Ellernbusch",6.466,50.79696,"de:5358:2547"
"21002551","Rölsdorf, Schlagbaum",6.46424,50.7878,"de:5358:2551"
"21002549","Rölsdorf, Rölsdorf Dreieck",6.46548,50.7905,"de:5358:2549"
"21004566","Langerwehe, Langerwehe Bf",6.3551,50.81713,"de:5358:4566"
"21004565","Langerwehe, Langerwehe Bahnhof (Bus)",6.3551,50.81713,"de:5358:4565"
"21002471","Düren (Rheinl), Wechselsaat",6.43574,50.83026,"de:5358:2471"
"21002467","Düren (Rheinl), Sattlerstr.",6.43815,50.8301,"de:5358:2467"
"21002561","Düren (Rheinl), Schulz und Herbrand",6.46741,50.79881,"de:5358:2561"
"21002175","Düren (Rheinl), Alte Post",6.44738,50.76833,"de:5358:2175"
"21004529","Langerwehe, Schönthaler Hof",6.34477,50.7954,"de:5358:4529"
"21002553","Rölsdorf, Rölsdorf Schule",6.4656,50.78641,"de:5358:2553"
"21002545","Rölsdorf, Detombay",6.46991,50.79307,"de:5358:2545"
"21002465","Düren (Rheinl), Hoven Post",6.44003,50.83168,"de:5358:2465"
"21002555","Rölsdorf, Boisdorfer Siedlung 1",6.46686,50.78341,"de:5358:2555"
"21002463","Düren (Rheinl), Am Steinberg",6.43797,50.83259,"de:5358:2463"
"21002469","Düren (Rheinl), Hoven Schule",6.44143,50.83166,"de:5358:2469"
"21002473","Düren (Rheinl), Hoven Mühlhoven",6.44828,50.82889,"de:5358:2473"
"21004578","Luchem, Blumenstr.",6.36725,50.83041,"de:5358:4578"
"21004579","Luchem, Burgstr.",6.36903,50.83162,"de:5358:4579"
"21002309","Düren (Rheinl), Eiswiese",6.47285,50.80086,"de:5358:2309"
"21004564","Langerwehe, Ulhaus",6.34916,50.8195,"de:5358:4564"
"21004577","Luchem, Luchem Mitte",6.36864,50.83238,"de:5358:4577"
"21002197","Birkesdorf, Festhalle",6.45846,50.82426,"de:5358:2197"
"21002431","Merken, Merken Mühle",6.43481,50.83642,"de:5358:2431"
"21002195","Birkesdorf, Birkesdorf Amt",6.46331,50.82124,"de:5358:2195"
"21002305","Düren (Rheinl), Düren Rurbrücke",6.47506,50.79616,"de:5358:2305"
"21002557","Rölsdorf, Boisdorfer Siedlung 2",6.46926,50.77951,"de:5358:2557"
"21002207","Birkesdorf, Weidenpesch",6.46003,50.82438,"de:5358:2207"
"21002191","Birkesdorf, Birkesdorf Berta-Timmermann-Straße",6.46622,50.81882,"de:5358:2191"
"21002560","Rölsdorf, Buchheider Weg",6.46951,50.77912,"de:5358:2560"
"21004547","Heistern, An der Kante",6.33684,50.79461,"de:5358:4547"
"21002199","Birkesdorf, Isolaplatz",6.45681,50.82749,"de:5358:2199"
"21002215","Birkesdorf, Hovener Str.",6.45634,50.82807,"de:5358:2215"
"21002387","Birkesdorf, Walzmühle",6.46953,50.81619,"de:5358:2387"
"21004545","Heistern, Heistern",6.33605,50.79656,"de:5358:4545"
"21002187","Birkesdorf, Abzw. Hoven",6.45697,50.82845,"de:5358:2187"
"21004531","Wenau, Wenau",6.33589,50.79093,"de:5358:4531"
"21002363","Düren (Rheinl), Realschule Bretzelnweg",6.47243,50.81395,"de:5358:2363"
"21002283","Düren (Rheinl), Aachener Str.",6.47797,50.79792,"de:5358:2283"
"21004549","Heistern, Fourné",6.33461,50.80025,"de:5358:4549"
"21002385","Düren (Rheinl), Tivolistr.",6.4775,50.80354,"de:5358:2385"
"21002252","Düren (Rheinl), Annakirmesplatz Bf (Bus)",6.47826,50.79609,"de:5358:2252"
"21002251","Düren (Rheinl), Annakirmesplatz Bf",6.47826,50.79609,"de:5358:2251"
"21002559","Rölsdorf, Boisdorfer Siedlung 3",6.47097,50.77708,"de:5358:2559"
"21002537","Merken, Merken Neffgens Häuser",6.42834,50.84049,"de:5358:2537"
"21004033","Gey, Gey Eingang",6.42139,50.75217,"de:5358:4033"
"21002201","Birkesdorf, Birkesdorf Krankenhaus",6.46639,50.8229,"de:5358:2201"
"21002211","Birkesdorf, Friedensplatz",6.46442,50.82481,"de:5358:2211"
"21002389","Düren (Rheinl), Weierstr.",6.47902,50.79964,"de:5358:2389"
"21002367","Düren (Rheinl), Rütger-von-Scheven-Str.",6.48012,50.79743,"de:5358:2367"
"21002297","Düren (Rheinl), Karlstr.",6.4768,50.81143,"de:5358:2297"
"21002189","Birkesdorf, Akazienstr.",6.4695,50.82179,"de:5358:2189"
"21002533","Merken, Merken Markusstr.",6.42574,50.84297,"de:5358:2533"
"21004552","Heistern, Wenauer Höfchen",6.33116,50.79345,"de:5358:4552"
"21004086","Inden (Kr Düren), Inden/Altdorf An der Waagmühle",6.37073,50.83908,"de:5358:4086"
"21002345","Düren (Rheinl), Landwirtschaftsschule",6.48161,50.7949,"de:5358:2345"
"21002333","Düren (Rheinl), Haas",6.47796,50.81214,"de:5358:2333"
"21002349","Düren (Rheinl), Meckerstr.",6.47731,50.81391,"de:5358:2349"
"21002395","Düren (Rheinl), StadtCenter",6.48105,50.80591,"de:5358:2395"
"21002219","Birkesdorf, Nord Autohaus",6.45821,50.83246,"de:5358:2219"
"21002295","Düren (Rheinl), Kaiserplatz",6.48216,50.80262,"de:5358:2295"
"21002193","Birkesdorf, Eintrachtstr.",6.46818,50.82542,"de:5358:2193"
"21002347","Düren (Rheinl), Lauscherstr.",6.47666,50.81624,"de:5358:2347"
"21002355","Düren (Rheinl), Nippesstr.",6.48298,50.79321,"de:5358:2355"
"21004521","Hamich, Hamich Krichelsmühle",6.33195,50.7839,"de:5358:4521"
"21002205","Birkesdorf, Birkesdorf Schule",6.46501,50.82887,"de:5358:2205"
"21002209","Birkesdorf, Erlenstr.",6.47319,50.82167,"de:5358:2209"
"21002285","Düren (Rheinl), Düren Bahnhof / ZOB (Bus)",6.48163,50.80921,"de:5358:2285"
"21002286","Düren (Rheinl), Düren Bf",6.48163,50.80921,"de:5358:2286"
"21002267","Düren (Rheinl), Bretzelnweg",6.47663,50.81838,"de:5358:2267"
"21004037","Gey, Gey Post",6.42103,50.74837,"de:5358:4037"
"21002171","Berzbuir, Berzbuir Feuerwehrhaus",6.4606,50.76123,"de:5358:2171"
"21002249","Düren (Rheinl), Annakirche",6.48452,50.80148,"de:5358:2249"
"21002357","Düren (Rheinl), Oberstr.",6.48512,50.79965,"de:5358:2357"
"21004092","Inden/Altdorf, Pierer Str.",6.36449,50.83969,"de:5358:4092"
"21002507","Lendersdorf, Pelzer",6.47428,50.77113,"de:5358:2507"
"21002531","Merken, Merken Kirche",6.42287,50.84628,"de:5358:2531"
"21002203","Birkesdorf, Ringstr.",6.46854,50.82847,"de:5358:2203"
"21004109","Lucherberg, Lucherberg See",6.37312,50.84306,"de:5358:4109"
"21002265","Düren (Rheinl), Bonner Str.",6.48645,50.79991,"de:5358:2265"
"21002223","Birkesdorf, Ulmenstr.",6.47579,50.82272,"de:5358:2223"
"21002277","Düren (Rheinl), Düren Kreishaus",6.48571,50.80553,"de:5358:2277"
"21002319","Düren (Rheinl), Friedrichplatz",6.48723,50.79676,"de:5358:2319"
"21002331","Düren (Rheinl), Güterbahnhof",6.48339,50.8133,"de:5358:2331"
"21002535","Merken, Merken Wasserturm",6.41819,50.84807,"de:5358:2535"
"21002173","Berzbuir, St.-Hubert-Str.",6.46306,50.75973,"de:5358:2173"
"21004095","Inden/Altdorf, Indener Str.",6.35802,50.83897,"de:5358:4095"
"21002263","Düren (Rheinl), Bonner Platz",6.48866,50.79985,"de:5358:2263"
"21004551","Heistern, Heistern Friedhof",6.32461,50.78897,"de:5358:4551"
"21002505","Lendersdorf, Lendersdorf Post",6.47588,50.76868,"de:5358:2505"
"21004105","Lucherberg, Hochstr.",6.37462,50.84574,"de:5358:4105"
"21004111","Lucherberg, Lucherberg Siedlung",6.3709,50.84478,"de:5358:4111"
"21002340","Düren (Rheinl), Arena Kreis Düren",6.48956,50.79371,"de:05358:2340"
"21002339","Düren (Rheinl), Arena Kreis Düren (Jesuitenhof)",6.48958,50.79353,"de:5358:2339"
"21002489","Lendersdorf, Hammerstr.",6.47862,50.77044,"de:5358:2489"
"21002901","Weisweiler, Heidesiedlung",6.33354,50.82372,"de:5334:2901"
"21004015","Horm, Horm Ort",6.43767,50.74773,"de:5358:4015"
"21002279","Düren (Rheinl), Dechant-Bohnekamp-Str.",6.48988,50.79094,"de:5358:2279"
"21002323","Düren (Rheinl), Garnbleiche",6.4889,50.78681,"de:5358:2323"
"21004029","Gey, Gey Forsthaus Hubertushöhe",6.41388,50.74396,"de:5358:4029"
"21002381","Düren (Rheinl), St. Angela Schule",6.48932,50.80659,"de:5358:2381"
"21004088","Inden/Altdorf, Am Wehebach",6.36112,50.84222,"de:5358:4088"
"21002393","Düren (Rheinl), Weyerhof",6.48854,50.78338,"de:5358:2393"
"21004097","Inden/Altdorf, Alter Markt",6.35413,50.83977,"de:5358:4097"
"21002499","Lendersdorf, Kino",6.47751,50.76704,"de:5358:2499"
"21002275","Düren (Rheinl), Chlodwigplatz",6.49211,50.79779,"de:5358:2275"
"21002294","Düren (Rheinl), Josefschule",6.49157,50.78957,"de:5358:2294"
"21002426","Birkesdorf, Im Großen Tal (Bus)",6.47291,50.83162,"de:5358:2426"
"21002907","Weisweiler, Weisweiler Hücheln Langerweher Straße",6.33131,50.82409,"de:5334:2907"
"21004096","Inden/Altdorf, Inden / Altdorf Hauptstr.",6.35721,50.84227,"de:5358:4096"
"21002273","Düren (Rheinl), Burgauer Allee",6.49238,50.79044,"de:5358:2273"
"21002274","Düren (Rheinl), Burgau Gymnasium",6.49185,50.78732,"de:5358:2274"
"21004107","Lucherberg, Lucherberg Casino",6.36623,50.84593,"de:5358:4107"
"21002495","Lendersdorf, Am Broich",6.47922,50.76698,"de:5358:2495"
"21002371","Krauthausen (Düren), Schoellershammer",6.48898,50.77939,"de:5358:2371"
"21002391","Düren (Rheinl), Weyerfeld",6.49165,50.78526,"de:5358:2391"
"21002497","Lendersdorf, Lendersdorf Friedhof",6.4751,50.76292,"de:5358:2497"
"21002373","Düren (Rheinl), Schöllerstr.",6.49203,50.80841,"de:5358:2373"
"21002903","Weisweiler, Hücheln Wasserfeld",6.33012,50.82464,"de:5334:2903"
"21002899","Weisweiler, Hermann-Löns-Str.",6.32798,50.82219,"de:5334:2899"
"21002479","Lendersdorf, May + Spieß",6.48355,50.77036,"de:5358:2479"
"21004541","Hamich, Auf´m Kutsch",6.32056,50.78358,"de:5358:4541"
"21002317","Düren (Rheinl), Friedrich-Ebert-Platz",6.49363,50.80555,"de:5358:2317"
"21002255","Düren (Rheinl), Arnoldsweiler Brücke",6.48879,50.81714,"de:5358:2255"
"21002361","Düren (Rheinl), Oststr.",6.49455,50.80081,"de:5358:2361"
"21002427","Birkesdorf, Im Großen Tal Bf",6.47429,50.83303,"de:5358:2427"
"21002351","Grüngürtel, Meiringplatz",6.49266,50.80993,"de:5358:2351"
"21002481","Kufferath, Am Bleiberg",6.46123,50.75289,"de:5358:2481"
"21004539","Hamich, Am Pfuhl",6.31961,50.78441,"de:5358:4539"
"21002321","Grüngürtel, Fröbelstr.",6.49097,50.81427,"de:5358:2321"
"21002253","Düren (Rheinl), Anna-Schoeller-Haus",6.49361,50.80785,"de:5358:2253"
"21002501","Lendersdorf, Lendersdorf Kirche",6.47878,50.76411,"de:5358:2501"
"21002327","Grüngürtel, Grüngürtel",6.49283,50.81152,"de:5358:2327"
"21004011","Hürtgenwald, Brandenberg Kleinhau Raffelspütz",6.40885,50.70413,"de:5358:4011"
"21002365","Grüngürtel, Roonstr.",6.49427,50.80933,"de:5358:2365"
"21002293","Düren (Rheinl), Josefskirche",6.49629,50.79253,"de:5358:2293"
"21002915","Eschweiler (Rheinl), Wilhelmshöhe",6.32418,50.82101,"de:5334:2915"
"21002303","Düren (Rheinl), Römerstr.",6.49663,50.79645,"de:5358:2303"
"21002313","Grüngürtel, Freiheitsplatz",6.49193,50.81566,"de:5358:2313"
"21004065","Hürtgenwald, Straß",6.4306,50.74183,"de:5358:4065"
"21004087","Inden (Kr Düren), Frenz Unterstr.",6.34415,50.83893,"de:5358:4087"
"21004099","Inden/Altdorf, Inden / Altdorf Rathaus",6.35824,50.84593,"de:5358:4099"
"21002337","Düren (Rheinl), Im Jagdfeld",6.48982,50.82039,"de:5358:2337"
"21004103","Inden/Altdorf, Diro Markt",6.35951,50.84669,"de:5358:4103"
"21004516","Hamich, Forsthaus Bovenberg",6.31522,50.79182,"de:5358:4516"
"21002503","Lendersdorf, Lendersdorf Krankenhaus",6.48802,50.77106,"de:5358:2503"
"21002307","Düren (Rheinl), Düren Schulzentrum",6.49778,50.79883,"de:5358:2307"
"21002801","Dürwiß, Dürwiß Friedhof",6.27798,50.84171,"de:5334:2801"
"21004543","Hamich, Hamich Transvaal",6.31769,50.78168,"de:5358:4543"
"21002329","Grüngürtel, Grüngürtelschule",6.49474,50.81274,"de:5358:2329"
"21002485","Krauthausen (Düren), AKZO-Chemie",6.49144,50.77499,"de:5358:2485"
"21002909","Eschweiler (Rheinl), St. Johannes",6.32135,50.81965,"de:5334:2909"
"21002259","Düren (Rheinl), Binsfelder Str.",6.49799,50.80241,"de:5358:2259"
"21002241","Düren (Rheinl), Agnesstr.",6.49867,50.79355,"de:5358:2241"
"21002897","Weisweiler, Am Schildchen",6.32452,50.82467,"de:5334:2897"
"21002859","Eschweiler (Rheinl), Talbahnhof/Raiffeisen-Platz (Bus)",6.26316,50.8149,"de:5334:2859"
"21004085","Inden (Kr Düren), Frenz Kirche",6.33982,50.83818,"de:5358:4085"
"21002301","Grüngürtel, Grüngürtel Krankenhaus",6.49736,50.80887,"de:5358:2301"
"21002369","Düren (Rheinl), Scharnhorststr.",6.49804,50.80659,"de:5358:2369"
"21002913","Weisweiler, Weisweiler Ziegelei",6.32479,50.82547,"de:5334:2913"
"21002483","Kufferath, Kufferath Kirche",6.46467,50.75112,"de:5358:2483"
"21002375","Düren (Rheinl), Schubertweg",6.49881,50.78913,"de:5358:2375"
"21002860","Eschweiler (Rheinl), Talbahnhof Bf",6.26319,50.81476,"de:5334:2860"
"21004076","Schophoven, Viehöfen",6.37906,50.8875,"de:5358:4076"
"21002269","Grüngürtel, Brückenstr.",6.49495,50.81654,"de:5358:2269"
"21002911","Eschweiler (Rheinl), Tannenbergstr.",6.32052,50.82133,"de:5334:2911"
"21002906","Weisweiler, Hücheln Kapelle",6.31858,50.81843,"de:5334:2906"
"21002247","Düren (Rheinl), An der Windmühle",6.50014,50.80022,"de:5358:2247"
"21002210","Düren (Rheinl), Eupener Str.",6.50018,50.8009,"de:5358:2210"
"21002261","Grüngürtel, Blücherstr.",6.49627,50.81453,"de:5358:2261"
"21002377","Düren (Rheinl), August-Bebel-Str.",6.50058,50.79502,"de:5358:2377"
"21002905","Weisweiler, Hüchelner Str.",6.31861,50.81936,"de:5334:2905"
"21004431","Drove, Grünstr.",6.51036,50.73371,"de:5358:4431"
"21002399","Düren (Rheinl), Zülpicher Platz",6.50037,50.79137,"de:5358:2399"
"21003021","Weisweiler, Weißer Weg",6.32184,50.82432,"de:5334:3021"
"21002281","Düren (Rheinl), Düppelstr.",6.50082,50.7927,"de:5358:2281"
"21002401","Düren (Rheinl), Zülpicher Str.",6.50052,50.79032,"de:5358:2401"
"21002291","Düren (Rheinl), Grüner Weg",6.49957,50.78625,"de:5358:2291"
"21002289","Düren (Rheinl), Friedensstr.",6.50051,50.8042,"de:5358:2289"
"21002509","Lendersdorf, Renkerstr. / Krankenhaus Bf",6.49213,50.77081,"de:5358:2509"
"21002508","Lendersdorf, Renkerstraße/ Krankenhaus Bf (Bus)",6.49213,50.77081,"de:5358:2508"
"21003024","Weisweiler, Weisweiler Bahnhof (Bus)",6.32078,50.82466,"de:5334:3024"
"21003020","Weisweiler, Weisweiler Bf",6.32031,50.82417,"de:5334:3020"
"21002383","Düren (Rheinl), St. Bonifatius",6.50097,50.80707,"de:5358:2383"
"21002257","Düren (Rheinl), Berliner Str.",6.50229,50.80191,"de:5358:2257"
"21002315","Düren (Rheinl), Friedhof Ost",6.5021,50.80523,"de:5358:2315"
"21002353","Düren (Rheinl), Neuer Friedhof",6.50161,50.80792,"de:5358:2353"
"21004100","Inden/Altdorf, Inden/Altdorf Grund- und Hauptschule",6.35921,50.85063,"de:5358:4100"
"21002397","Düren (Rheinl), Yorkstr.",6.5016,50.80868,"de:5358:2397"
"21002299","Düren (Rheinl), Düren Kapelle",6.50262,50.78944,"de:5358:2299"
"21004039","Großhau, Großhau",6.39601,50.73584,"de:5358:4039"
"21004101","Lamersdorf, Lamersdorf Markt",6.35363,50.84892,"de:5358:4101"
"21002845","Eschweiler (Rheinl), Liebfrauenstr.",6.26872,50.82505,"de:5334:2845"
"21002379","Düren (Rheinl), Sieben Häuser",6.50393,50.79851,"de:5358:2379"
"21002359","Düren (Rheinl), Wörthsiedlung Odenthalstr.",6.50427,50.79202,"de:5358:2359"
"21003019","Weisweiler, Lindenallee (Schwimmbad)",6.31957,50.82706,"de:5334:3019"
"21002271","Düren (Rheinl), Wörthsiedlung Brüsseler Str.",6.50493,50.79335,"de:5358:2271"
"21002335","Düren (Rheinl), Wörthsiedlung Miesheimer Weg",6.50456,50.7896,"de:5358:2335"
"21002809","Dürwiß, Dürwiß Schule",6.27624,50.83644,"de:5334:2809"
"21004041","Großhau, Großhau Kirche",6.392,50.73452,"de:5358:4041"
"21002539","Düren (Rheinl), Niederau Kirche",6.49313,50.76579,"de:5358:2539"
"21002163","Arnoldsweiler, Bürgerwaldstr.",6.48549,50.83717,"de:5358:2163"
"21002851","Eschweiler (Rheinl), Peter-Paul-Str.",6.26782,50.82243,"de:5334:2851"
"21002540","Düren (Rheinl), Tuchmühle Bf (Bus)",6.49336,50.76316,"de:5358:2540"
"21002541","Düren (Rheinl), Tuchmühle Bf",6.49336,50.76316,"de:5358:2541"
"21003017","Weisweiler, Frankenplatz",6.31617,50.82941,"de:5334:3017"
"21002799","Dürwiß, Dürwiß Freibad",6.28231,50.84346,"de:5334:2799"
"21004413","Langenbroich, Langenbroich",6.45751,50.73982,"de:5358:4413"
"21004255","Selgersdorf, Selgersdorf Kirche",6.40762,50.88804,"de:5358:4255"
"21003013","Weisweiler, Berliner Ring",6.31359,50.82735,"de:5334:3013"
"21002942","Nothberg, Nothberg Am Otterbach",6.30226,50.80491,"de:5334:2942"
"21002235","Distelrath, Distelrath",6.50879,50.81056,"de:5358:2235"
"21002165","Arnoldsweiler, Trierer Str.",6.49035,50.83705,"de:5358:2165"
"21002417","Düren (Rheinl), Distelrather Weg",6.50851,50.81391,"de:5358:2417"
"21004440","Düren (Rheinl), Niederau Am Sandberg",6.49601,50.76175,"de:5358:4440"
"21002311","Düren (Rheinl), Henry-Ford-Str.",6.51086,50.7865,"de:5358:2311"
"21002161","Arnoldsweiler, Arnoldsweiler Mitte",6.49015,50.83814,"de:5358:2161"
"21004457","Kreuzau (Kr Düren), Schneidhausen",6.48799,50.75404,"de:5358:4457"
"21002879","Neu-Lohn, Neu-Lohn Ringstr.",6.29647,50.85596,"de:5334:2879"
"21002831","Eschweiler (Rheinl), Marienstr.",6.26614,50.81737,"de:5334:2831"
"21003023","Weisweiler, Weisweiler Zukunft",6.31007,50.82605,"de:5334:3023"
"21004435","Bogheim, Abzw. Bogheim",6.44576,50.73442,"de:5358:4435"
"21004411","Kreuzau (Kr Düren), Im Weidchen",6.4653,50.74069,"de:5358:4411"
"21002167","Arnoldsweiler, Neußer Str.",6.48804,50.84104,"de:5358:2167"
"21003015","Weisweiler, Elektrowerk",6.30657,50.82376,"de:5334:3015"
"21002439","Düren (Rheinl), Rudolf-Diesel-Str.",6.51078,50.77883,"de:5358:2439"
"21002833","Eschweiler (Rheinl), Grabenstr.",6.26801,50.81938,"de:5334:2833"
"21002887","Weisweiler, RWE Kraftwerk",6.31694,50.83611,"de:5334:2887"
"21004409","Kreuzau (Kr Düren), Auf dem Kamp",6.46749,50.74035,"de:5358:4409"
"21002969","St. Jöris, Am Klosterweiher",6.2119,50.83302,"de:5334:2969"
"21003009","Weisweiler, Auf dem Pesch",6.30841,50.82697,"de:5334:3009"
"21004419","Bogheim, Bogheim Ort",6.44028,50.73181,"de:5358:4419"
"21002941","Nothberg, Nothberg Siedlung",6.29851,50.80628,"de:5334:2941"
"21004444","Kreuzau (Kr Düren), Kreuzau Rathaus",6.48733,50.75094,"de:5358:4444"
"21002073","Baesweiler, Kückstr.",6.17973,50.90948,"de:5334:2073"
"21002437","Düren (Rheinl), Strepp",6.5113,50.81599,"de:5358:2437"
"21002797","Dürwiß, Dürwiß Festhalle",6.28082,50.83959,"de:5334:2797"
"21004459","Leversbach, Leversbach Auf dem Berg",6.46661,50.71588,"de:5358:4459"
"21004445","Kreuzau (Kr Düren), Kreuzau Bf",6.4884,50.75075,"de:5358:4445"
"21002883","Weisweiler, EWV",6.31282,50.83389,"de:5334:2883"
"21002795","Dürwiß, Dürwiß",6.27833,50.83517,"de:5334:2795"
"21004446","Kreuzau (Kr Düren), Kreuzau Bahnhof (Bus)",6.48845,50.75011,"de:5358:4446"
"21004415","Kreuzau (Kr Düren), Bogheimer Weg",6.45455,50.7334,"de:5358:4415"
"21004043","Hürtgen, Braun",6.37446,50.70996,"de:5358:4043"
"21004443","Kreuzau (Kr Düren), Alte Post",6.48726,50.74799,"de:5358:4443"
"21002937","Nothberg, Nothberg Kreuz",6.29551,50.80998,"de:5334:2937"
"21002895","Eschweiler (Rheinl), Scherpenseel",6.29407,50.78942,"de:5334:2895"
"21002435","Düren (Rheinl), Selders",6.51918,50.7971,"de:5358:2435"
"21002169","Arnoldsweiler, Rather Str.",6.49771,50.83904,"de:5358:2169"
"21003022","Eschweiler (Rheinl), Sonderschule Stadtmitte",6.26906,50.8169,"de:5334:3022"
"21004461","Leversbach, Leversbach Boicher Weg",6.47151,50.71836,"de:5358:4461"
"21002239","Distelrath, Wilms",6.51703,50.81358,"de:5358:2239"
"21002873","Eschweiler (Rheinl), Lynenwerk",6.29874,50.82086,"de:5334:2873"
"21004417","Kreuzau (Kr Düren), Bilstein Kapelle",6.45939,50.73305,"de:5358:4417"
"21002885","Weisweiler, In der Krause",6.3051,50.83108,"de:5334:2885"
"21004489","Untermaubach, Am Weißenberg",6.45241,50.73031,"de:5358:4489"
"21002811","Dürwiß, Karl-Arnold-Str.",6.28135,50.8377,"de:5334:2811"
"21004055","Kleinhau, Kleinhau Rönnig",6.39287,50.72458,"de:5358:4055"
"21004447","Kreuzau (Kr Düren), Festhalle",6.48528,50.74386,"de:5358:4447"
"21004439","Kreuzau (Kr Düren), Freizeitbad Rurwelle",6.4845,50.74338,"de:5358:4439"
"21004455","Kreuzau (Kr Düren), Teichstr.",6.48744,50.74502,"de:5358:4455"
"21002433","Düren (Rheinl), Schneiders",6.51693,50.77427,"de:5358:2433"
"21004503","Kreuzau (Kr Düren), Winden Schule",6.48141,50.74078,"de:5358:4503"
"21002889","Eschweiler (Rheinl), Schwarzer Weg",6.28997,50.79232,"de:5334:2889"
"21002933","Nothberg, Nothberg Kirche",6.29093,50.81031,"de:5334:2933"
"21004491","Untermaubach, Im Heidehof",6.4507,50.72804,"de:5358:4491"
"21004451","Kreuzau (Kr Düren), Sägewerk",6.49183,50.74552,"de:5358:4451"
"21004124","Inden (Kr Düren), Pier Krauthausen Industriegebiet",6.42201,50.87148,"de:5358:4124"
"21002793","Dürwiß, Am Hochhaus",6.28019,50.83492,"de:5334:2793"
"21002875","Eschweiler (Rheinl), Wetterschacht",6.29247,50.81994,"de:5334:2875"
"21002067","Baesweiler, Fidelisstr.",6.17915,50.91167,"de:5334:2067"
"21002871","Eschweiler (Rheinl), Königsbenden",6.2914,50.81803,"de:5334:2871"
"21002939","Nothberg, Nothberg Platz",6.28824,50.80987,"de:5334:2939"
"21004497","Untermaubach, Untermaubach Post",6.45486,50.72786,"de:5358:4497"
"21004479","Kreuzau (Kr Düren), Stockheim Sparkasse",6.52951,50.7561,"de:5358:4479"
"21002237","Distelrath, Siedlung Ost",6.52286,50.81572,"de:5358:2237"
"21004499","Kreuzau (Kr Düren), Winden Allmende",6.48131,50.73759,"de:5358:4499"
"21004051","Kleinhau, Abzw. Kleinhau",6.39286,50.72122,"de:5358:4051"
"21004126","Schophoven, Müllenark",6.3981,50.87317,"de:5358:4126"
"21004471","Kreuzau (Kr Düren), Landstr. L327",6.51196,50.75944,"de:5358:4471"
"21004495","Untermaubach, Burgplatz",6.45522,50.72675,"de:5358:4495"
"21004453","Kreuzau (Kr Düren), Stadion",6.49477,50.74444,"de:5358:4453"
"21002853","Eschweiler (Rheinl), Rathaus / City-Center",6.27153,50.81743,"de:5334:2853"
"21002935","Nothberg, Nothberg Kreis",6.28554,50.8107,"de:5334:2935"
"21003005","Nothberg, Knippmühle",6.28421,50.80611,"de:5334:3005"
"21004053","Kleinhau, Kleinhau Landstr.",6.39259,50.71975,"de:5358:4053"
"21002893","Eschweiler (Rheinl), Hastenrath Kirche",6.28327,50.79088,"de:5334:2893"
"21002917","Weisweiler, Weisweiler Carl-Zeiss-Straße (IGP)",6.30383,50.84076,"de:5334:2917"
"21004427","Drove, Drove Anfang",6.50603,50.73655,"de:5358:4427"
"21003683","Herzogenrath, Auf dem Kick",6.10182,50.86301,"de:5334:3683"
"21002891","Eschweiler (Rheinl), Hastenrath Bingen",6.28215,50.79395,"de:5334:2891"
"21003007","Eschweiler (Rheinl), Volkenrath",6.28205,50.79884,"de:5334:3007"
"21004481","Kreuzau (Kr Düren), Stepprath",6.52161,50.76788,"de:5358:4481"
"21002869","Eschweiler (Rheinl), Herz-Jesu-Kirche",6.28711,50.81945,"de:5334:2869"
"21004501","Kreuzau (Kr Düren), Winden Keubgen",6.48033,50.73362,"de:5358:4501"
"21002788","Eschweiler (Rheinl), Grachtstr.",6.26952,50.80967,"de:5334:2788"
"21004473","Kreuzau (Kr Düren), Am Burgholz",6.51884,50.76253,"de:5358:4473"
"21004477","Kreuzau (Kr Düren), Kollweg",6.52002,50.76401,"de:5358:4477"
"21003765","Merkstein, An der Herrenstraß",6.10789,50.88567,"de:5334:3765"
"21002999","Eschweiler (Rheinl), Vöckelsberg",6.27598,50.82585,"de:5334:2999"
"21002423","Arnoldsweiler, Haus Rath",6.51073,50.84169,"de:5358:2423"
"21002997","Eschweiler (Rheinl), Preyerstr.",6.27462,50.82234,"de:5334:2997"
"21002789","Eschweiler (Rheinl), Feldenendstr.",6.28094,50.8095,"de:5334:2789"
"21004125","Schophoven, Schophoven",6.39642,50.87696,"de:5358:4125"
"21002920","Weisweiler, Weisweiler Ernst-Abbe-Straße Nr. 34 (IGP)",6.2975,50.8384,"de:5334:2920"
"21002922","Weisweiler, Weisweiler Hermann-Hollerith-Straße (IGP)",6.2952,50.83593,"de:5334:2922"
"21002919","Weisweiler, Weisweiler Ernst-Abbe-Straße Nr. 13 (IGP)",6.30023,50.84121,"de:5334:2919"
"21002817","Dürwiß, Zum Hagelkreuz",6.29577,50.84877,"de:5334:2817"
"21004469","Kreuzau (Kr Düren), An der Tränke",6.5274,50.7566,"de:5358:4469"
"21003003","Bohl, Bohl",6.27808,50.80203,"de:5334:3003"
"21002867","Eschweiler (Rheinl), Südstr.",6.2825,50.81905,"de:5334:2867"
"21003001","Eschweiler (Rheinl), Bergrath Schule",6.27834,50.80544,"de:5334:3001"
"21003693","Herzogenrath, Herzogenrath Rathaus",6.10193,50.87162,"de:5334:3693"
"21002791","Eschweiler (Rheinl), Hubertusstr.",6.27813,50.8096,"de:5334:2791"
"21002924","Kinzweiler, Kinzweiler Burg",6.22987,50.84536,"de:5334:2924"
"21004128","Schophoven, Zum Roten Acker",6.39522,50.87881,"de:5358:4128"
"21004045","Hürtgen, Hürtgen Post",6.38221,50.71241,"de:5358:4045"
"21004505","Kreuzau (Kr Düren), Winden Üdinger Weg",6.47753,50.7279,"de:5358:4505"
"21002837","Eschweiler (Rheinl), Insel",6.27329,50.81484,"de:5334:2837"
"21002861","Eschweiler (Rheinl), Zechenstr.",6.27361,50.81308,"de:5334:2861"
"21003711","Herzogenrath, Thiergarten",6.10382,50.87644,"de:5334:3711"
"21002085","Baesweiler, Reyplatz",6.17813,50.91081,"de:5334:2085"
"21002095","Baesweiler, Zeche",6.17118,50.91098,"de:5334:2095"
"21004465","Obermaubach, Obermaubach Schule",6.44268,50.71547,"de:5358:4465"
"21002847","Eschweiler (Rheinl), Merkurstr.",6.277,50.81338,"de:5334:2847"
"21003811","Herzogenrath, Häuser Jüd",6.10721,50.85459,"de:5334:3811"
"21002995","Eschweiler (Rheinl), Gartenstr. / GeTeCe",6.28001,50.82189,"de:5334:2995"
"21002993","Eschweiler (Rheinl), Allensteiner Str.",6.27932,50.82346,"de:5334:2993"
"21003663","Herzogenrath, Bierstraß Anfang",6.10288,50.87073,"de:5334:3663"
"21003835","Merkstein, Plitschard Siedlung",6.12123,50.89644,"de:5334:3835"
"21003791","Merkstein, Römerplatz",6.1115,50.88704,"de:5334:3791"
"21004467","Obermaubach, Obermaubach Staumauer",6.44583,50.71699,"de:5358:4467"
"21004475","Kreuzau (Kr Düren), Am Torfberg",6.52293,50.75715,"de:5358:4475"
"21002787","Eschweiler (Rheinl), Bergrath Kapelle",6.27497,50.80929,"de:5334:2787"
"21003669","Herzogenrath, Am Hillenberg",6.10563,50.85827,"de:5334:3669"
"21002865","Eschweiler (Rheinl), Eschweiler Friedhof",6.27724,50.81786,"de:5334:2865"
"21004019","Kleinhau, Kleinhau Spitzberg",6.39874,50.71278,"de:5358:4019"
"21001253","Richterich, Ürsfeld",6.07232,50.82019,"de:5334:1253"
"21001835","Aldenhoven (Kr Düren), Siersdorf Kirche",6.22351,50.89917,"de:5358:1835"
"21001948","Hoengen, Hoengen Industriepark",6.21897,50.88033,"de:5334:1948"
"21001841","Aldenhoven (Kr Düren), Siersdorf Siedlung",6.22905,50.89567,"de:5358:1841"
"21001959","Hoengen, Bendenstr.",6.21202,50.87105,"de:5334:1959"
"21001935","Duffesheide, Reifeld",6.12995,50.85962,"de:5334:1935"
"21001945","Hoengen, Konrad-Zuse-Str.",6.22375,50.87359,"de:5334:1945"
"21001939","Alsdorf (b Aachen), Nordfriedhof",6.14773,50.8877,"de:5334:1939"
"21001946","Hoengen, Otto-Lilienthal-Str.",6.22314,50.8765,"de:5334:1946"
"21001961","Hoengen, Goethestr.",6.21218,50.8678,"de:5334:1961"
"21001927","Alsdorf (b Aachen), Busch Mittelplatz",6.13875,50.8811,"de:5334:1927"
"21001963","Hoengen, Hoengen Kirche",6.21004,50.8728,"de:5334:1963"
"21001837","Aldenhoven (Kr Düren), Siersdorf Post",6.22448,50.89639,"de:5358:1837"
"21001911","Alsdorf (b Aachen), Bettendorf",6.2029,50.88628,"de:5334:1911"
"21002049","Alsdorf (b Aachen), Auf dem Bungart",6.21817,50.85714,"de:5334:2049"
"21001931","Duffesheide, Duffesheide",6.13722,50.85752,"de:5334:1931"
"21001956","Hoengen, Müschekamp",6.20864,50.8621,"de:5334:1956"
"21001909","Begau, Paulstr.",6.20188,50.85317,"de:5334:1909"
"21001971","Hoengen, Schillerstr.",6.20917,50.86579,"de:5334:1971"
"21001949","Ofden, Schleibacher Hof",6.14161,50.85359,"de:5334:1949"
"21001839","Aldenhoven (Kr Düren), Schlösser",6.2311,50.89864,"de:5358:1839"
"21001969","Hoengen, Hoengen Markt",6.20856,50.87113,"de:5334:1969"
"21001907","Begau, Gartenstr.",6.20598,50.85056,"de:5334:1907"
"21001925","Alsdorf (b Aachen), Busch Kirche",6.14045,50.87874,"de:5334:1925"
"21001953","Alsdorf (b Aachen), Warden Feld",6.21553,50.86439,"de:5334:1953"
"21001944","Hoengen, IGA Cinram",6.21768,50.87639,"de:5334:1944"
"21001915","Mariadorf, Begau Bahnübergang",6.19949,50.85267,"de:5334:1915"
"21001933","Zopp, Zopp Ottenfelder Allee",6.13646,50.86342,"de:5334:1933"
"21001997","Mariadorf, Mariadorf Dreieck",6.20433,50.85909,"de:5334:1997"
"21001955","Hoengen, Hans-Böckler-Str.",6.20583,50.86233,"de:5334:1955"
"21001957","Hoengen, Hoengen Altenheim",6.20628,50.87059,"de:5334:1957"
"21001923","Alsdorf (b Aachen), Busch Bahnhof (Bus)",6.14057,50.87676,"de:5334:1923"
"21001924","Alsdorf (b Aachen), Busch Bf",6.14056,50.87657,"de:5334:1924"
"21001991","Begau, Begau Siedlung",6.20126,50.85578,"de:5334:1991"
"21002043","Broicher Siedlung, Siedlung Broich Greifswalder Straße",6.18308,50.84705,"de:5334:2043"
"21001965","Hoengen, Langstr.",6.20565,50.86831,"de:5334:1965"
"21001998","Mariadorf, Mariadorf Altes Rathaus",6.20364,50.85996,"de:5334:1998"
"21001967","Hoengen, Marienstr.",6.20425,50.86924,"de:5334:1967"
"21001973","Hoengen, Wirthstr.",6.20272,50.86846,"de:5334:1973"
"21001918","Mariadorf, Blumenrath Montanstraße / Poststraße Bahnhof (Bus)",6.19758,50.85648,"de:5334:1918"
"21001951","Ofden, Überheide",6.14322,50.86046,"de:5334:1951"
"21002017","Alsdorf (b Aachen), Neuweiler",6.17205,50.88638,"de:5334:2017"
"21001921","Alsdorf (b Aachen), Anna II",6.14492,50.87583,"de:5334:1921"
"21002047","Broicher Siedlung, Siedlung Broich Oststr.",6.18367,50.84969,"de:5334:2047"
"21002001","Hoengen, Jahnstr.",6.20105,50.86254,"de:5334:2001"
"21002004","Mariadorf, Pützdrieschstr.",6.20174,50.86568,"de:5334:2004"
"21001917","Blumenrath, Blumenrath Albert-Schweitzer-Straße",6.19451,50.85505,"de:5334:1917"
"21001943","Alsdorf (b Aachen), Im Haag",6.15368,50.88177,"de:5334:1943"
"21002015","Mariadorf, Südpark (Sportplatz)",6.19953,50.86161,"de:5334:2015"
"21002029","Ofden, Ofden Grundschule",6.14998,50.85531,"de:5334:2029"
"21001993","Mariadorf, Im Boisch",6.19719,50.86015,"de:5334:1993"
"21001995","Mariadorf, Mariadorf Brücke",6.19922,50.86732,"de:5334:1995"
"21001929","Alsdorf (b Aachen), Herzogenrather Str.",6.14928,50.87636,"de:5334:1929"
"21002033","Ofden, Ofden Kiosk",6.14931,50.85902,"de:5334:2033"
"21002025","Ofden, Ofden Ausbildungszentrum",6.15341,50.85608,"de:5334:2025"
"21001851","Alsdorf (b Aachen), Lindenplatz",6.15175,50.87682,"de:5334:1851"
"21001919","Blumenrath, Holbeinstr.",6.19097,50.85716,"de:5334:1919"
"21001848","Alsdorf (b Aachen), Linnicher Straße",6.16769,50.88243,"de:5334:1848"
"21002045","Broicher Siedlung, Randsiedlung",6.18396,50.8539,"de:5334:2045"
"21002005","Mariadorf, Mariadorf Kreuz",6.19381,50.861,"de:5334:2005"
"21001941","Ofden, Alt-Ende",6.15905,50.85452,"de:5334:1941"
"21001857","Alsdorf (b Aachen), Saarstr.",6.15521,50.87788,"de:5334:1857"
"21002027","Ofden, Bergschlößchen",6.15362,50.85812,"de:5334:2027"
"21001875","Alsdorf (b Aachen), Schlosserstr.",6.15753,50.87877,"de:5334:1875"
"21001999","Mariadorf, Düppelerstr.",6.19453,50.86573,"de:5334:1999"
"21002031","Ofden, Ofden Gymnasium",6.15149,50.86103,"de:5334:2031"
"21001853","Alsdorf (b Aachen), Alsdorf Burg",6.16163,50.87991,"de:5334:1853"
"21001847","Alsdorf (b Aachen), Im Brühl",6.16879,50.8813,"de:5334:1847"
"21001845","Alsdorf (b Aachen), Alsdorf Gesamtschule",6.1713,50.88077,"de:5334:1845"
"21001947","Ofden, Ofden Freizeitpark",6.15129,50.86382,"de:5334:1947"
"21001855","Alsdorf (b Aachen), Martinstr.",6.15755,50.87696,"de:5334:1855"
"21002023","Ofden, Alt-Mitte",6.1593,50.85678,"de:5334:2023"
"21002035","Alsdorf (b Aachen), Nordstr.",6.17958,50.87929,"de:5334:2035"
"21002003","Mariadorf, Mariadorf Kirche",6.19085,50.8626,"de:5334:2003"
"21001843","Alsdorf (b Aachen), Im Brühl Kirche",6.16478,50.87912,"de:5334:1843"
"21002007","Mariadorf, Lindenstr.",6.19108,50.86359,"de:5334:2007"
"21002013","Mariadorf, Mariadorf Alter Bahnhof /Hp Mariadorf (Bus)",6.18968,50.8619,"de:5334:2013"
"21001877","Alsdorf (b Aachen), Übacher Weg",6.1588,50.87575,"de:5334:1877"
"21001905","Begau, Auf der Weide",6.20991,50.85325,"de:5334:1905"
"21001979","Kellersberg, Kellersberg Weiher",6.15329,50.86555,"de:5334:1979"
"21001889","Alsdorf (b Aachen), Hagfeld",6.18682,50.87431,"de:5334:1889"
"21001865","Alsdorf (b Aachen), Cäcilienstr.",6.16596,50.87835,"de:5334:1865"
"21001913","Mariadorf, Am Neuen Markt",6.18502,50.85918,"de:5334:1913"
"21001873","Alsdorf (b Aachen), Schaufenberger Str.",6.16647,50.87812,"de:5334:1873"
"21002041","Alsdorf (b Aachen), Ortmanns",6.17605,50.87805,"de:5334:2041"
"21001859","Alsdorf (b Aachen), Sportplatz",6.16943,50.87804,"de:5334:1859"
"21002019","Ofden, Alt-Ofden",6.16021,50.85965,"de:5334:2019"
"21002037","Alsdorf (b Aachen), Am Klött",6.17267,50.87775,"de:5334:2037"
"21002021","Ofden, Alt-Anfang",6.16089,50.85962,"de:5334:2021"
"21002039","Alsdorf (b Aachen), Schaufenberg Kirche",6.17767,50.87678,"de:5334:2039"
"21001986","Alsdorf (b Aachen), Alsdorf Annapark Bf",6.15665,50.87053,"de:5334:1986"
"21001975","Alsdorf (b Aachen), Annapark Bahnhof (Bus)",6.15746,50.87082,"de:5334:1975"
"21002011","Mariadorf, Mariagrube",6.1866,50.86495,"de:5334:2011"
"21001867","Alsdorf (b Aachen), Denkmalplatz",6.16172,50.87416,"de:5334:1867"
"21001883","Alsdorf (b Aachen), Gewerbepark",6.18476,50.87192,"de:5334:1883"
"21001895","Alsdorf (b Aachen), Am Kreuzberg",6.17983,50.875,"de:5334:1895"
"21001863","Alsdorf (b Aachen), Anna I",6.15975,50.87227,"de:5334:1863"
"21001891","Alsdorf (b Aachen), Leidesheimer Weiden",6.17988,50.87456,"de:5334:1891"
"21001985","Kellersberg, Kellersberg Bahnübergang",6.15959,50.86889,"de:5334:1985"
"21001881","Alsdorf (b Aachen), Franzstr.",6.17662,50.87381,"de:5334:1881"
"21001879","Alsdorf (b Aachen), Siedlung Ost Feuerwehrhaus",6.17327,50.87441,"de:5334:1879"
"21001987","Kellersberg, Broicher Str.",6.16079,50.86566,"de:5334:1987"
"21001885","Alsdorf (b Aachen), Alsdorf Rathaus",6.16794,50.87397,"de:5334:1885"
"21001861","Alsdorf (b Aachen), Weinstr.",6.1629,50.87122,"de:5334:1861"
"21001897","Alsdorf (b Aachen), Schaufenberg Polizei",6.17941,50.87198,"de:5334:1897"
"21001887","Alsdorf (b Aachen), Siedlung Ost",6.1806,50.86954,"de:5334:1887"
"21001983","Kellersberg, Husemannstr.",6.16345,50.86679,"de:5334:1983"
"21001893","Alsdorf (b Aachen), Pommernstr.",6.17905,50.87002,"de:5334:1893"
"21001862","Alsdorf (b Aachen), Posener Str.",6.16825,50.8719,"de:5334:1862"
"21001903","Alsdorf (b Aachen), Siedlung Ost Kirche",6.17158,50.871,"de:5334:1903"
"21001982","Kellersberg, Kellersberg Nordring",6.16751,50.86583,"de:5334:1982"
"21001899","Alsdorf (b Aachen), Schweriner Str.",6.16714,50.86805,"de:5334:1899"
"21001898","Kellersberg, Kellersberg Friedensplatz/Bahnhof",6.16736,50.86728,"de:5334:1898"
"21001989","Kellersberg, Kellersberg Friedhof",6.1689,50.86526,"de:5334:1989"
"21001901","Alsdorf (b Aachen), Siedlung Ost Berliner Platz",6.17013,50.86823,"de:5334:1901"
"21001937","Duffesheide, Trafo Radsberg",6.13637,50.85413,"de:5334:1937"
"21001521","Laurensberg, Tittardshang",6.06538,50.80202,"de:5334:1521"
"21001673","Aachen, Continental",6.1312,50.77663,"de:5334:1673"
"21001827","Aldenhoven (Kr Düren), Siersdorfer Str.",6.23788,50.88594,"de:5358:1827"
"21001689","Sief, Sief Schule",6.1469,50.69468,"de:5334:1689"
"21001825","Aldenhoven (Kr Düren), Schleiden Kreuz",6.24252,50.88409,"de:5358:1825"
"21001685","Schmithof, Schmithofer Str.",6.15924,50.6914,"de:5334:1685"
"21001675","Schmithof, Ardennenstr.",6.16401,50.69513,"de:5334:1675"
"21001771","Aachen, Mütschenpfuhl",6.17151,50.70167,"de:5334:1771"
"21001693","Schmithof, Schmithof Vennbahn",6.16426,50.69079,"de:5334:1693"
"21001823","Aldenhoven (Kr Düren), Schleiden Bahnhof",6.24611,50.88347,"de:5358:1823"
"21001687","Sief, Radermacher",6.15594,50.69185,"de:5334:1687"
"21001683","Schmithof, Schmithof Schule",6.16892,50.68881,"de:5334:1683"
"21001679","Sief, Pfeiferweg",6.1502,50.69134,"de:5334:1679"
"21001733","Vaalserquartier, Püngelerstr.",6.02482,50.76902,"de:5334:1733"
"21001727","Vaalserquartier, Keltenstr.",6.02804,50.76895,"de:5334:1727"
"21001691","Sief, Wilbank",6.14672,50.68795,"de:5334:1691"
"21001737","Vaalserquartier, Schmiedgasse",6.0342,50.76877,"de:5334:1737"
"21001767","Aachen, Hasbach",6.16981,50.70394,"de:5334:1767"
"21001761","Friesenrath, Friesenrath",6.18222,50.69832,"de:5334:1761"
"21001757","Aachen, Albert-Einstein-Str.",6.17552,50.70407,"de:5334:1757"
"21001745","Vaalserquartier, Vaals Grenze",6.02576,50.77086,"de:5334:1745"
"21001677","Sief, Magelspfad",6.14716,50.68636,"de:5334:1677"
"21001760","Aachen, Freizeitgelände",6.18131,50.70488,"de:5334:1760"
"21001735","Aachen, Reutershag",6.03964,50.76982,"de:5334:1735"
"21001763","Aachen, Hahn Kirche",6.19778,50.71137,"de:5334:1763"
"21001741","Aachen, Steppenberg",6.04334,50.76958,"de:5334:1741"
"21001725","Aachen, Zweiweiherweg",6.08654,50.7432,"de:5334:1725"
"21001729","Aachen, Kullen",6.03534,50.77352,"de:5334:1729"
"21001711","Aachen, Diepenbenden",6.08788,50.74617,"de:5334:1711"
"21001779","Aachen, Prämienstr.",6.17877,50.70513,"de:5334:1779"
"21001739","Aachen, Steinbergweg",6.03833,50.77476,"de:5334:1739"
"21001719","Aachen, Jahnplatz",6.08687,50.75018,"de:5334:1719"
"21001715","Aachen, Goldbachstr.",6.08581,50.75294,"de:5334:1715"
"21001743","Aachen, Uniklinik",6.04365,50.7756,"de:5334:1743"
"21001721","Aachen, Ronheider Weg",6.08482,50.75757,"de:5334:1721"
"21001713","Aachen, Giselastr.",6.08761,50.75504,"de:5334:1713"
"21001723","Aachen, St. Vither Str.",6.09034,50.75288,"de:5334:1723"
"21001747","Aachen, Verlautenheide Gut-Knapp-Straße",6.15325,50.79833,"de:5334:1747"
"21001807","Freialdenhoven, Abzw. Freialdenhoven",6.24286,50.92647,"de:5358:1807"
"21001817","Freialdenhoven, Lindenend",6.2452,50.92738,"de:5358:1817"
"21001773","Aachen, Sperberweg",6.1725,50.70505,"de:5334:1773"
"21001815","Freialdenhoven, Freialdenhoven Post",6.24943,50.92876,"de:5358:1815"
"21001699","Aachen, Sonnenweg (Rouette)",6.09573,50.80118,"de:5334:1699"
"21001695","Aachen, Eulersweg",6.09861,50.79919,"de:5334:1695"
"21001701","Aachen, Soers",6.08365,50.79791,"de:5334:1701"
"21001765","Aachen, Steinbruch",6.1909,50.70894,"de:5334:1765"
"21001705","Aachen, Soers Schule",6.0815,50.80127,"de:5334:1705"
"21001833","Aldenhoven (Kr Düren), Siersdorf Friedhof",6.22106,50.895,"de:5358:1833"
"21001775","Aachen, Walheim",6.18259,50.70725,"de:5334:1775"
"21001758","Aachen, Niersteiner Höfe",6.04428,50.8104,"de:5334:1758"
"21001681","Schmithof, Schmithof Kirche",6.16196,50.69343,"de:5334:1681"
"21001697","Aachen, Purweider Weg",6.08568,50.79061,"de:5334:1697"
"21001814","Niedermerz, Weiler Hausen",6.26795,50.87258,"de:5358:1814"
"21001707","Aachen, Soerser Au",6.08919,50.78911,"de:5334:1707"
"21001703","Aachen, Soers Kloster",6.08423,50.79212,"de:5334:1703"
"21001770","Aachen, Kirchberg",6.17771,50.70648,"de:5334:1770"
"21001709","Aachen, Soerser Winkel",6.09001,50.79278,"de:5334:1709"
"21001803","Dürboslar, Dürboslar",6.25739,50.90416,"de:5358:1803"
"21001805","Dürboslar, Dürboslar Heerstr.",6.26121,50.905,"de:5358:1805"
"21001753","Richterich, Vetschau Bocholtzer Str.",6.04271,50.81431,"de:5334:1753"
"21001750","Verlautenheide, Kelmesbergweg",6.16352,50.79215,"de:5334:1750"
"21001755","Richterich, Vetschau",6.0418,50.81633,"de:5334:1755"
"21001762","Aachen, Vetschau Schmiede",6.04272,50.819,"de:5334:1762"
"21001748","Verlautenheide, Im Reichswald",6.16592,50.79329,"de:5334:1748"
"21001794","Aldenhoven (Kr Düren), Engelsdorf",6.29893,50.915,"de:5358:1794"
"21001752","Verlautenheide, Waldstr.",6.16127,50.79359,"de:5334:1752"
"21001754","Verlautenheide, Verlautenheide Schwester-Zita-Weg",6.15712,50.79358,"de:5334:1754"
"21001809","Niedermerz, Abzw. Niedermerz",6.2592,50.88825,"de:5358:1809"
"21001777","Aachen, Walheim Friedhof",6.1758,50.71025,"de:5334:1777"
"21001781","Aachen, Schmittchen",6.18539,50.71241,"de:5334:1781"
"21001769","Aachen, Hochhausring",6.17811,50.70953,"de:5334:1769"
"21001746","Verlautenheide, Großheidstr.",6.1633,50.79426,"de:5334:1746"
"21001819","Niedermerz, Am Merzbach",6.26533,50.88056,"de:5358:1819"
"21001811","Aldenhoven (Kr Düren), Gewerbegebiet Ost",6.30962,50.90284,"de:5358:1811"
"21001785","Aldenhoven (Kr Düren), Industriestr.",6.30289,50.90051,"de:5358:1785"
"21001751","Verlautenheide, Quinx",6.16445,50.7949,"de:5334:1751"
"21001791","Aldenhoven (Kr Düren), Aldenhoven Friedhof",6.28053,50.89712,"de:5358:1791"
"21001783","Aldenhoven (Kr Düren), Alter Bahnhof",6.27534,50.89255,"de:5358:1783"
"21001831","Aldenhoven (Kr Düren), Frauenrath",6.22611,50.89726,"de:5358:1831"
"21001802","Niedermerz, Niedermerz Marcel-Breuer-Straße",6.27038,50.88527,"de:5358:1802"
"21001797","Aldenhoven (Kr Düren), Aldenhoven Markt",6.28833,50.89541,"de:5358:1797"
"21001795","Aldenhoven (Kr Düren), Aldenhoven Kirche",6.28275,50.89564,"de:5358:1795"
"21001749","Verlautenheide, Endstr.",6.15556,50.79676,"de:5334:1749"
"21001799","Aldenhoven (Kr Düren), Niedermerzer Str.",6.28284,50.89296,"de:5358:1799"
"21001789","Aldenhoven (Kr Düren), Blumenstr.",6.27924,50.89351,"de:5358:1789"
"21001821","Niedermerz, Niedermerz Ortsmitte",6.26649,50.88391,"de:5358:1821"
"21001787","Aldenhoven (Kr Düren), Jülicher Str.",6.29253,50.89801,"de:5358:1787"
"21001793","Aldenhoven (Kr Düren), Kapelle",6.28258,50.89449,"de:5358:1793"
"21001653","Aachen, Dresdener Str.",6.12233,50.78045,"de:5334:1653"
"21001367","Aachen, Talbot",6.10923,50.78459,"de:5334:1367"
"21001461","Aachen, Hüls Schulzentrum",6.12393,50.79035,"de:5334:1461"
"21001481","Aachen, Danziger Str.",6.14309,50.75495,"de:5334:1481"
"21001527","Aachen, Kreuzerdriesch",6.12512,50.74261,"de:5334:1527"
"21001543","Aachen, Lichtenbusch",6.12338,50.71283,"de:5334:1543"
"21001549","Aachen, Lichtenbusch Zollamt",6.12178,50.71547,"de:5334:1549"
"21001547","Aachen, Lichtenbusch Kirche",6.12429,50.7119,"de:5334:1547"
"21001551","Schleckheim, Nerscheider Weg",6.1499,50.71747,"de:5334:1551"
"21001645","Aachen, Bahnhof Rothe Erde (Bus)",6.11665,50.77059,"de:5334:1645"
"21001548","Aachen, Lichtenbuscher Weg",6.12494,50.71118,"de:5334:1548"
"21001489","Aachen, Königsberger Str.",6.14673,50.75731,"de:5334:1489"
"21001529","Aachen, Lintert",6.1262,50.74654,"de:5334:1529"
"21001544","Aachen, Rasthaus Lichtenbusch",6.12238,50.71743,"de:5334:1544"
"21001581","Aachen, Pumpstation",6.04387,50.73372,"de:5334:1581"
"21001482","Aachen, Sittarder. Str",6.13957,50.7563,"de:5334:1482"
"21001485","Aachen, Glatzer Str.",6.13896,50.75163,"de:5334:1485"
"21001584","Aachen, Montzener Str.",6.04251,50.73799,"de:5334:1584"
"21001531","Aachen, Lintert Friedhof",6.12528,50.74746,"de:5334:1531"
"21001585","Aachen, Preuswald",6.04322,50.73932,"de:5334:1585"
"21001377","Aachen, Tonbrennerstr.",6.12993,50.79595,"de:5334:1377"
"21001375","Aachen, Haaren Markt",6.12587,50.79506,"de:5334:1375"
"21001587","Aachen, Reimser Str.",6.04646,50.73869,"de:5334:1587"
"21001671","Aachen, Rottstr.",6.12797,50.77742,"de:5334:1671"
"21001491","Aachen, Tilsiter Str.",6.1416,50.75746,"de:5334:1491"
"21001590","Aachen, Walhorner Str.",6.04599,50.74017,"de:5334:1590"
"21001583","Aachen, Entenpfuhler Weg",6.04826,50.73815,"de:5334:1583"
"21001533","Aachen, Lintert Schießstand",6.12931,50.75109,"de:5334:1533"
"21001557","Schleckheim, Oberforstbach",6.14598,50.72434,"de:5334:1557"
"21001589","Aachen, Unterer Backertsweg (Maria im Tann)",6.05157,50.73973,"de:5334:1589"
"21001561","Oberforstbach, Pascalstr.",6.1414,50.71248,"de:5334:1561"
"21001487","Aachen, Gut Grauenhof",6.13824,50.74817,"de:5334:1487"
"21001493","Aachen, Trierer Platz",6.13928,50.76059,"de:5334:1493"
"21001539","Schleckheim, Kroitzheider Weg",6.14907,50.72141,"de:5334:1539"
"21001567","Schleckheim, SCHUMAG",6.15444,50.71906,"de:5334:1567"
"21001639","Aachen, Ronheider Berg",6.06853,50.74885,"de:5334:1639"
"21001655","Aachen, Elsassstr.",6.11313,50.77214,"de:5334:1655"
"21001411","Aachen, Horbach",6.0411,50.83594,"de:5334:1411"
"21001453","Aachen, Hüls Elleter Feld",6.13822,50.78994,"de:5334:1453"
"21001565","Schleckheim, Schleckheim Kapelle",6.15436,50.72033,"de:5334:1565"
"21001413","Aachen, Horbach Kirche",6.04507,50.83309,"de:5334:1413"
"21001554","Nütheim, Nütheim Hundskaulweg",6.16338,50.71535,"de:5334:1554"
"21001415","Aachen, Horbach Linde",6.04837,50.83128,"de:5334:1415"
"21001407","Aachen, Forsterheide",6.05125,50.82705,"de:5334:1407"
"21001546","Aachen, Kesselstr.",6.13185,50.71226,"de:5334:1546"
"21001409","Aachen, Forsterheide Kreuz",6.05785,50.82835,"de:5334:1409"
"21001637","Aachen, Ronheide (Jugendherberge)",6.07201,50.75074,"de:5334:1637"
"21001601","Richterich, Lütterbüschgen",6.04865,50.81844,"de:5334:1601"
"21001383","Aachen, Am Friedrich",6.05251,50.76339,"de:5334:1383"
"21001559","Oberforstbach, Oberforstbach Schule",6.1417,50.72186,"de:5334:1559"
"21001563","Schleckheim, Aachener Str.",6.15797,50.72034,"de:5334:1563"
"21001553","Nütheim, Nütheim",6.16569,50.71677,"de:5334:1553"
"21001479","Kornelimünster, Kornelimünster Venwegener Straße",6.18833,50.72715,"de:5334:1479"
"21001603","Richterich, Pfalzgrafenstr.",6.05179,50.81773,"de:5334:1603"
"21001569","Oberforstbach, Tannenallee",6.13778,50.71825,"de:5334:1569"
"21001463","Aachen, Schönebergstr.",6.1407,50.78917,"de:5334:1463"
"21001545","Aachen, Erlenpütz",6.12988,50.71493,"de:5334:1545"
"21001595","Richterich, Gierstr.",6.05467,50.81727,"de:5334:1595"
"21001623","Richterich, Vetschauer Weg",6.05722,50.81764,"de:5334:1623"
"21001593","Richterich, Dellstr.",6.06015,50.81814,"de:5334:1593"
"21001627","Aachen, Brüsseler Ring",6.07055,50.75388,"de:5334:1627"
"21001469","Kornelimünster, Kornelimünster",6.18398,50.72815,"de:5334:1469"
"21001605","Richterich, Richterich Kirche",6.05853,50.81516,"de:5334:1605"
"21001611","Richterich, Roder Weg",6.0654,50.81729,"de:5334:1611"
"21001663","Aachen, Kennedypark",6.11631,50.77373,"de:5334:1663"
"21001475","Kornelimünster, Kornelimünster Napoleonsberg (Eifelsteig)",6.17935,50.73004,"de:5334:1475"
"21001629","Aachen, Colynshof",6.07346,50.75243,"de:5334:1629"
"21001467","Kornelimünster, Auf der Gallich",6.17033,50.73169,"de:5334:1467"
"21001476","Kornelimünster, Steinkaulplatz",6.17865,50.72923,"de:5334:1476"
"21001471","Kornelimünster, Kornelimünster Schulberg",6.17806,50.72895,"de:5334:1471"
"21001477","Kornelimünster, Steinkaulweid",6.17338,50.73073,"de:5334:1477"
"21001473","Kornelimünster, Meischenfeld",6.17338,50.72638,"de:5334:1473"
"21001381","Aachen, Am Backes",6.0553,50.7639,"de:5334:1381"
"21001397","Aachen, Kronenberg",6.05275,50.76583,"de:5334:1397"
"21001537","Oberforstbach, Kohlshof",6.12724,50.72009,"de:5334:1537"
"21001459","Aachen, Hüls Gewerbegebiet",6.13521,50.78132,"de:5334:1459"
"21001451","Aachen, ASEAG",6.13102,50.78516,"de:5334:1451"
"21001501","Laurensberg, Laurensberg",6.06344,50.79682,"de:5334:1501"
"21001659","Aachen, Geschwister-Scholl-Gymnasium",6.11998,50.7762,"de:5334:1659"
"21001519","Laurensberg, Teichwinkel",6.06317,50.79545,"de:5334:1519"
"21001525","Laurensberg, Wildbach",6.06639,50.79339,"de:5334:1525"
"21001401","Aachen, Preusweg",6.06568,50.76076,"de:5334:1401"
"21001523","Laurensberg, Laurensberg Viadukt",6.05634,50.79465,"de:5334:1523"
"21001641","Aachen, Yorckstr.",6.07347,50.75674,"de:5334:1641"
"21001393","Aachen, Hanbruch (Schwimmhalle West)",6.05559,50.76772,"de:5334:1393"
"21001455","Aachen, Hüls",6.13455,50.7857,"de:5334:1455"
"21001635","Aachen, Maria-Theresia-Allee",6.07669,50.75572,"de:5334:1635"
"21001578","Orsbach, Gut Nonnenhof",6.00174,50.7961,"de:5334:1578"
"21001385","Aachen, Am Neuenhof",6.05984,50.76615,"de:5334:1385"
"21001403","Aachen, Venskyhäuschen",6.05619,50.76885,"de:5334:1403"
"21001625","Aachen, Goethestr.",6.07368,50.76193,"de:5334:1625"
"21001633","Aachen, Im Brockenfeld",6.07948,50.75782,"de:5334:1633"
"21001389","Aachen, Couven-Gymnasium",6.07224,50.76325,"de:5334:1389"
"21001391","Aachen, Franziskushospital",6.0704,50.76481,"de:5334:1391"
"21001647","Aachen, Am Rott",6.12467,50.77891,"de:5334:1647"
"21001534","Aachen, Eisenhütte",6.15421,50.70014,"de:5334:1534"
"21001402","Aachen, Lennéstr.",6.0595,50.77082,"de:5334:1402"
"21001399","Aachen, Kuckelkorn",6.06224,50.76986,"de:5334:1399"
"21001640","Aachen, Pius-Gymnasium",6.08587,50.75452,"de:5334:1640"
"21001574","Aachen, Senserbachweg",6.01535,50.77945,"de:5334:1574"
"21001400","Aachen, Weststr.",6.06043,50.77122,"de:5334:1400"
"21001448","Aachen, Worringer Weg",6.04814,50.77591,"de:5334:1448"
"21001535","Oberforstbach, Auf dem Bahnes",6.14431,50.71351,"de:5334:1535"
"21001387","Aachen, Barbarossaplatz",6.07604,50.7645,"de:5334:1387"
"21001395","Aachen, Jüdischer Friedhof",6.07224,50.76682,"de:5334:1395"
"21001443","Aachen, Muffet",6.05731,50.77469,"de:5334:1443"
"21001615","Richterich, Schönauer Friede",6.06601,50.81606,"de:5334:1615"
"21001424","Aachen, Floriansdorf",6.04689,50.78834,"de:5334:1424"
"21001405","Aachen, Welkenrather Str.",6.06454,50.7723,"de:5334:1405"
"21001597","Richterich, Hander Weg",6.05982,50.81288,"de:5334:1597"
"21001576","Aachen, Gaßmühle",6.00818,50.78165,"de:5334:1576"
"21001613","Richterich, Richterich Schloss-Schönau-Straße",6.06234,50.81358,"de:5334:1613"
"21001431","Aachen, Hörn Brücke",6.05209,50.78696,"de:5334:1431"
"21001524","Laurensberg, Seffent",6.04012,50.78911,"de:5334:1524"
"21001379","Aachen, Gartenstr.",6.06923,50.7704,"de:5334:1379"
"21001423","Aachen, Forckenbeckstr.",6.05067,50.78697,"de:5334:1423"
"21001449","Aachen, Wendlingweg",6.05054,50.77744,"de:5334:1449"
"21001575","Orsbach, Lemiers Weiher",5.99628,50.78951,"de:5334:1575"
"21001417","Aachen, Am Hügel",6.06228,50.77495,"de:5334:1417"
"21001439","Aachen, Melatener Str.",6.05865,50.77655,"de:5334:1439"
"21001609","Richterich, Richterich Rathaus",6.06059,50.81118,"de:5334:1609"
"21001541","Oberforstbach, Laschet",6.13187,50.71575,"de:5334:1541"
"21001617","Richterich, Schönauer Hang",6.06823,50.81184,"de:5334:1617"
"21001591","Richterich, Berensberger Str.",6.06062,50.80876,"de:5334:1591"
"21001621","Richterich, Richterich Siedlung Schönau",6.06874,50.81082,"de:5334:1621"
"21001500","Laurensberg, Laurensberg Schulzentrum (Parkplatz)",6.04955,50.80485,"de:5334:1500"
"21001499","Laurensberg, Laurensberg Schulzentrum",6.04767,50.80442,"de:5334:1499"
"21001607","Richterich, Parkstr.",6.06456,50.8085,"de:5334:1607"
"21001598","Richterich, Hasenwaldstr.",6.06984,50.80993,"de:5334:1598"
"21001571","Laurensberg, Gut Ort",6.0185,50.80043,"de:5334:1571"
"21001369","Aachen, Am Haarberg",6.13229,50.80171,"de:5334:1369"
"21001599","Richterich, Landgraben",6.06887,50.80762,"de:5334:1599"
"21001447","Aachen, Stiewistr.",6.05111,50.78015,"de:5334:1447"
"21001580","Orsbach, Ochsenstock",6.00713,50.79865,"de:5334:1580"
"21001509","Laurensberg, Laurentiusstr.",6.05356,50.80268,"de:5334:1509"
"21001503","Laurensberg, Haus Linde",6.06077,50.80416,"de:5334:1503"
"21001505","Laurensberg, Laurensberg Kirche",6.0514,50.8014,"de:5334:1505"
"21001495","Laurensberg, Abzweigung Orsbach",6.0487,50.80071,"de:5334:1495"
"21001619","Richterich, Siebweg",6.07341,50.80766,"de:5334:1619"
"21001516","Laurensberg, Am Beulardstein",6.06726,50.80458,"de:5334:1516"
"21001579","Orsbach, Orsbach Schule",5.9958,50.79709,"de:5334:1579"
"21001515","Laurensberg, Rahe Im Ring",6.06717,50.80325,"de:5334:1515"
"21001419","Aachen, Am Weißenberg",6.06699,50.77588,"de:5334:1419"
"21001427","Aachen, Halifaxstr.",6.058,50.77953,"de:5334:1427"
"21001511","Laurensberg, Pannhauser Str.",6.05428,50.79903,"de:5334:1511"
"21001517","Laurensberg, Rosenhügel",6.06171,50.8006,"de:5334:1517"
"21001513","Laurensberg, Rahe",6.06777,50.80107,"de:5334:1513"
"21001421","Aachen, Auf der Hörn",6.05521,50.78106,"de:5334:1421"
"21001507","Laurensberg, Laurensberg Rathaus",6.06015,50.79791,"de:5334:1507"
"21001497","Laurensberg, Laurensberg Adele-Weidtman-Straße",6.06684,50.79897,"de:5334:1497"
"21001498","Laurensberg, Schloss-Rahe-Str.",6.07232,50.80039,"de:5334:1498"
"21001465","Aachen, Wilmersdorfer Str.",6.1376,50.78641,"de:5334:1465"
"21001457","Aachen, Hüls Friedhof",6.13908,50.78645,"de:5334:1457"
"21001433","Aachen, Hörn Physikzentrum",6.05066,50.78233,"de:5334:1433"
"21001646","Aachen, Rothe Erde Bf",6.11647,50.77019,"de:5334:1646"
"21001429","Aachen, Hörn Kastanienweg",6.05464,50.78553,"de:5334:1429"
"21001649","Eilendorf, Eilendorf Apolloniaweg",6.16845,50.77951,"de:5334:1649"
"21001573","Orsbach, Lemiers",5.9981,50.78717,"de:5334:1573"
"21001373","Aachen, Haaren Denkmal",6.1272,50.79863,"de:5334:1373"
"21001665","Aachen, Mataréstr.",6.1202,50.7712,"de:5334:1665"
"21001435","Aachen, Hörnstieg",6.05768,50.78423,"de:5334:1435"
"21001651","Aachen, Barbarakirche",6.13618,50.77695,"de:5334:1651"
"21001371","Aachen, Birkenweg",6.12964,50.79796,"de:5334:1371"
"21001555","Aachen, Gewerbegebiet",6.1376,50.71083,"de:5334:1555"
"21001661","Aachen, Hohenzollernplatz",6.11216,50.7762,"de:5334:1661"
"21001445","Aachen, Seffenter Weg",6.06463,50.78191,"de:5334:1445"
"21001643","Aachen, Eisenbahnweg",6.12537,50.7726,"de:5334:1643"
"21001560","Oberforstbach, Kiefernweg",6.14117,50.71744,"de:5334:1560"
"21001441","Aachen, Mies-van-der-Rohe-Str.",6.06843,50.78051,"de:5334:1441"
"21001667","Aachen, Philips",6.13021,50.77415,"de:5334:1667"
"21001669","Aachen, Pongs",6.1288,50.77259,"de:5334:1669"
"21001657","Aachen, Fringsgraben",6.13984,50.77672,"de:5334:1657"
"21001006","Aachen, Ritterstr.",6.06513,50.78834,"de:5334:1006"
"21001146","Aachen, Brander Heide",6.16624,50.76018,"de:5334:1146"
"21001338","Aachen, Gut Neuenhof",6.15303,50.75891,"de:5334:1338"
"21001189","Aachen, Krauthausen",6.18669,50.74049,"de:5334:1189"
"21001317","Aachen, Siegel",6.09811,50.7524,"de:5334:1317"
"21001153","Aachen, Kollenbruch",6.16242,50.74263,"de:5334:1153"
"21001327","Aachen, Forster Weg",6.10085,50.7573,"de:5334:1327"
"21001269","Eilendorf, Eilendorf Markt",6.16348,50.7796,"de:5334:1269"
"21001357","Aachen, Liebigstr.",6.11524,50.78883,"de:5334:1357"
"21001353","Aachen, Feldchen",6.10697,50.79733,"de:5334:1353"
"21001203","Aachen, Bildchen Grenze (Wasserwerk)",6.03397,50.72655,"de:5334:1203"
"21001361","Aachen, Polizeipräsidium",6.10553,50.79891,"de:5334:1361"
"21001285","Eilendorf, St. Severin",6.152,50.78004,"de:5334:1285"
"21001149","Aachen, Goertzbrunnstr.",6.1802,50.7526,"de:5334:1149"
"21001221","Aachen, Hitfeld",6.13243,50.73596,"de:5334:1221"
"21001197","Sief, Baumgartsweg",6.14315,50.69644,"de:5334:1197"
"21001265","Eilendorf, Karlstr.",6.14626,50.77722,"de:5334:1265"
"21001273","Eilendorf, Hahnweg",6.15924,50.78298,"de:5334:1273"
"21001205","Aachen, Bildchen Zollamt",6.04073,50.73074,"de:5334:1205"
"21001365","Aachen, Strangenhäuschen",6.11006,50.80359,"de:5334:1365"
"21001363","Aachen, Prager Ring",6.11888,50.79187,"de:5334:1363"
"21001281","Eilendorf, Schubertstr.",6.17403,50.78172,"de:5334:1281"
"21001217","Aachen, Grüne Eiche",6.11571,50.73114,"de:5334:1217"
"21001185","Aachen, Rosenquelle",6.09624,50.76647,"de:5334:1185"
"21001261","Eilendorf, Josefstr.",6.14476,50.77903,"de:5334:1261"
"21001271","Eilendorf, Eilendorf Rathaus",6.15381,50.78077,"de:5334:1271"
"21001159","Aachen, Schagenstr.",6.1505,50.74826,"de:5334:1159"
"21001155","Aachen, Niederforstbach",6.15789,50.74144,"de:5334:1155"
"21001171","Aachen, Hauptstr.",6.08971,50.76568,"de:5334:1171"
"21001263","Eilendorf, Kaiserstr.",6.1477,50.78145,"de:5334:1263"
"21001333","Aachen, Rathenauallee",6.09834,50.75756,"de:5334:1333"
"21001161","Aachen, Steinebrück",6.1737,50.7432,"de:5334:1161"
"21001293","Aachen, Zeppelinstr.",6.1219,50.76827,"de:5334:1293"
"21001326","Aachen, Buschhausen (Karl-Marx-Allee)",6.10226,50.75472,"de:5334:1326"
"21001165","Aachen, Wolferskaul",6.15984,50.74409,"de:5334:1165"
"21001303","Aachen, Hasencleverstr.",6.11878,50.76616,"de:5334:1303"
"21001289","Eilendorf, Stollenweg",6.15598,50.78186,"de:5334:1289"
"21001201","Aachen, Berensberg",6.09205,50.8104,"de:5334:1201"
"21001199","Eilendorf, Eilendorf Bayerhaus",6.17982,50.77801,"de:5334:1199"
"21001169","Aachen, Burtscheid",6.09323,50.76093,"de:5334:1169"
"21001321","Aachen, Bayernallee",6.09527,50.75556,"de:5334:1321"
"21001211","Richterich, Ferberberg",6.08305,50.80908,"de:5334:1211"
"21001258","Eilendorf, Markusstr.",6.15417,50.78332,"de:5334:1258"
"21001267","Eilendorf, Eilendorf Linde",6.15737,50.77736,"de:5334:1267"
"21001257","Laurensberg, Zollhaus",6.04205,50.80066,"de:5334:1257"
"21001349","Aachen, Am Gut Wolf",6.10437,50.78883,"de:5334:1349"
"21001151","Aachen, Heussstr.",6.15543,50.75179,"de:5334:1151"
"21001227","Laurensberg, Kirschbäumchen",6.0279,50.80052,"de:5334:1227"
"21001262","Eilendorf, Nirmer Platz",6.15494,50.78781,"de:5334:1262"
"21001359","Aachen, Lukasstr.",6.10825,50.79199,"de:5334:1359"
"21001183","Aachen, Reumontstr.",6.08164,50.76588,"de:5334:1183"
"21001157","Aachen, Rollefer Berg",6.1655,50.74528,"de:5334:1157"
"21001255","Richterich, Vetschauer Berg",6.04581,50.80724,"de:5334:1255"
"21001187","Aachen, Sebastianstr.",6.08699,50.76184,"de:5334:1187"
"21001179","Aachen, Kapitelstr.",6.0936,50.76743,"de:5334:1179"
"21001356","Aachen, Schwarzer Weg",6.11171,50.79475,"de:5334:1356"
"21001210","Aachen, Eich (Schulbus)",6.14304,50.73267,"de:5334:1210"
"21001337","Aachen, Debyestr.",6.15452,50.76146,"de:5334:1337"
"21001315","Aachen, Tierpark",6.11665,50.76417,"de:5334:1315"
"21001175","Aachen, Habsburgerallee",6.08225,50.7633,"de:5334:1175"
"21001207","Aachen, Broichhausen",6.13098,50.70067,"de:5334:1207"
"21001219","Aachen, Heidbenden",6.13065,50.75374,"de:5334:1219"
"21001345","Aachen, Zentis",6.16024,50.76367,"de:5334:1345"
"21001191","Aachen, Waldschenke",6.06164,50.74551,"de:5334:1191"
"21001277","Eilendorf, Kirchfeld",6.15249,50.77616,"de:5334:1277"
"21001233","Aachen, Krauthausen Siedlung",6.19106,50.74395,"de:5334:1233"
"21001163","Aachen, Vennblick",6.16658,50.74204,"de:5334:1163"
"21001325","Aachen, Buschhausen (Kornelimünsterweg)",6.10395,50.75348,"de:5334:1325"
"21001290","Eilendorf, Freunder Str.",6.16862,50.7772,"de:5334:1290"
"21001279","Eilendorf, Rheingold",6.17122,50.7771,"de:5334:1279"
"21001223","Aachen, Hochgrundhaus",6.06031,50.75022,"de:5334:1223"
"21001305","Aachen, Hickelweg",6.13112,50.76893,"de:5334:1305"
"21001355","Aachen, Grüner Winkel",6.10796,50.79554,"de:5334:1355"
"21001291","Aachen, Neuhaus",6.13216,50.75607,"de:5334:1291"
"21001147","Aachen, Freund",6.18324,50.75324,"de:5334:1147"
"21001215","Aachen, Grundhaus",6.06003,50.75523,"de:5334:1215"
"21001251","Sief, Sief Abzweigung",6.13379,50.69608,"de:5334:1251"
"21001256","Eilendorf, Nirm Am Tunnel",6.16172,50.78747,"de:5334:1256"
"21001167","Aachen, Schillerstr.",6.07814,50.76288,"de:5334:1167"
"21001339","Aachen, Gut Weide",6.15127,50.76348,"de:5334:1339"
"21001341","Aachen, Kellershaustr.",6.16393,50.76593,"de:5334:1341"
"21001351","Aachen, Sportpark Soers",6.10049,50.79386,"de:5334:1351"
"21001295","Aachen, Adenauerallee",6.12687,50.76607,"de:5334:1295"
"21001239","Aachen, Locht Zollmuseum",6.02064,50.84507,"de:5334:1239"
"21001297","Aachen, Drimborn",6.12067,50.7629,"de:5334:1297"
"21001323","Aachen, Bismarckturm",6.103,50.74779,"de:5334:1323"
"21001331","Aachen, Gallwitz-Kaserne",6.10686,50.75198,"de:5334:1331"
"21001292","Eilendorf, Schlackstr.",6.16918,50.77402,"de:5334:1292"
"21001287","Eilendorf, Stapperstr.",6.15222,50.78389,"de:5334:1287"
"21001335","Aachen, Schöntal",6.11472,50.74752,"de:5334:1335"
"21001235","Aachen, Rollefbachweg (Jugendbildungsstätte)",6.17502,50.73928,"de:5334:1235"
"21001301","Aachen, Forster Linde",6.13183,50.76035,"de:5334:1301"
"21001307","Aachen, Meisenweg",6.13768,50.76787,"de:5334:1307"
"21001245","Aachen, Brand Niederforstbach Pützgasse",6.16126,50.73635,"de:5334:1245"
"21001264","Eilendorf, Eilendorf Bahnhof (Wolfsbendenstraße Bus)",6.15212,50.78537,"de:5334:1264"
"21001225","Kornelimünster, Iternberg",6.18665,50.72111,"de:5334:1225"
"21001311","Aachen, Schwalbenweg",6.13495,50.76648,"de:5334:1311"
"21001343","Aachen, Rödgerbach",6.14238,50.76883,"de:5334:1343"
"21001209","Aachen, Eich",6.14062,50.73047,"de:5334:1209"
"21001177","Aachen, Heißberg",6.09451,50.75914,"de:5334:1177"
"21001329","Aachen, Fuchserde (Waldfriedhof Nord)",6.11001,50.75081,"de:5334:1329"
"21001347","Aachen, Zieglerstr.",6.14767,50.76602,"de:5334:1347"
"21001243","Aachen, Niederforstbach Bau",6.16393,50.73406,"de:5334:1243"
"21001299","Aachen, Drosselweg",6.13154,50.76454,"de:5334:1299"
"21001173","Aachen, Gillesbachtal",6.09894,50.76447,"de:5334:1173"
"21001231","Kornelimünster, Kornelimünster Klause",6.17387,50.7343,"de:5334:1231"
"21001249","Kornelimünster, Kornelimünster Schleckheimer Straße",6.16498,50.72357,"de:5334:1249"
"21001283","Eilendorf, Severinstr.",6.15475,50.78454,"de:5334:1283"
"21001313","Aachen, Staudenweg",6.12787,50.7628,"de:5334:1313"
"21001237","Aachen, Linzenzhäuschen",6.09094,50.73694,"de:5334:1237"
"21001181","Aachen, Marienhospital",6.09687,50.7626,"de:5334:1181"
"21001309","Aachen, Schönforst",6.13443,50.76275,"de:5334:1309"
"21001213","Verlautenheide, Verlautenheide Forsthaus",6.17502,50.79104,"de:5334:1213"
"21001241","Aachen, Neu-Linzenzhäuschen",6.08901,50.73998,"de:5334:1241"
"21001247","Friesenrath, Relais Königsberg",6.18082,50.68242,"de:5334:1247"
"21001320","Aachen, Philipp-Neri-Weg",6.03907,50.77071,"de:5334:1320"
"21001193","Aachen, Westfriedhof",6.04954,50.76923,"de:5334:1193"
"21001319","Aachen, Aachen Waldfriedhof",6.10814,50.7458,"de:5334:1319"
"21001195","Aachen, Augustinerweg",6.08975,50.72463,"de:5334:1195"
"21001229","Aachen, Köpfchen Altes Zollamt",6.08995,50.7234,"de:5334:1229"
"21001111","Aachen, Vogelsang",6.10706,50.75721,"de:5334:1111"
"21001135","Aachen, Brand Schulzentrum",6.15527,50.75012,"de:5334:1135"
"21001137","Aachen, Brand Schwimmhalle",6.15768,50.74705,"de:5334:1137"
"21001143","Aachen, Eilendorfer Str.",6.17714,50.75194,"de:5334:1143"
"21001139","Aachen, Brander Feld",6.14802,50.74662,"de:5334:1139"
"21001145","Aachen, Erberichshofstr.",6.17251,50.75768,"de:5334:1145"
"21001141","Aachen, Eckenerstr.",6.15344,50.75432,"de:5334:1141"
"21001140","Aachen, Vennbahnbogen",6.1512,50.74414,"de:5334:1140"
"21001015","Aachen, Schanz (Jakobstr.)",6.07412,50.76914,"de:5334:1015"
"21001049","Aachen, Normaluhr",6.09527,50.76943,"de:5334:1049"
"21001105","Aachen, Scheibenstr.",6.1013,50.7745,"de:5334:1105"
"21001109","Aachen, Viktoriaallee",6.10784,50.77034,"de:5334:1109"
"21001101","Aachen, Frankenberg",6.109,50.76693,"de:5334:1101"
"21001092","Aachen, Gewerbegebiet Schlottfeld",6.05759,50.7912,"de:5334:1092"
"21001115","Aachen, Juttastr.",6.10557,50.75955,"de:5334:1115"
"21001071","Aachen, Europaplatz",6.10958,50.77901,"de:5334:1071"
"21001063","Aachen, Willy-Brandt-Platz",6.09193,50.77576,"de:5334:1063"
"21001133","Aachen, Ringstr.",6.15967,50.75158,"de:5334:1133"
"21001093","Aachen, Süsterau",6.06102,50.78898,"de:5334:1093"
"21001067","Aachen, Blücherplatz",6.10062,50.78006,"de:5334:1067"
"21001083","Aachen, Arbeitsagentur / Bendplatz",6.07398,50.78446,"de:5334:1083"
"21001125","Aachen, Am Tiergarten",6.16929,50.75585,"de:5334:1125"
"21001081","Aachen, Wiesental",6.1059,50.78199,"de:5334:1081"
"21001099","Aachen, Josefskirche (Justizzentrum)",6.10731,50.77438,"de:5334:1099"
"21001055","Aachen, Ponttor",6.07784,50.78171,"de:5334:1055"
"21001127","Aachen, Brand",6.16467,50.74931,"de:5334:1127"
"21001087","Aachen, Europadorf",6.06329,50.78699,"de:5334:1087"
"21001069","Aachen, Elsa-Brändström-Str.",6.09011,50.7853,"de:5334:1069"
"21001095","Aachen, Süsterfeld",6.06796,50.78418,"de:5334:1095"
"21001131","Aachen, Hochstr.",6.16255,50.74623,"de:5334:1131"
"21001079","Aachen, Ungarnplatz",6.09807,50.78189,"de:5334:1079"
"21001119","Aachen, Zwanzigmorgen",6.11082,50.76315,"de:5334:1119"
"21001129","Aachen, Erlöserkirche",6.1635,50.75419,"de:5334:1129"
"21001085","Aachen, Aachen Westbahnhof (Bus)",6.07265,50.78113,"de:5334:1085"
"21001113","Aachen, Beverau",6.11241,50.75863,"de:5334:1113"
"21001061","Aachen, Wallstr.",6.09114,50.77101,"de:5334:1061"
"21001107","Aachen, Schlossstr.",6.10111,50.76949,"de:5334:1107"
"21001103","Aachen, Goerdelerstr.",6.11261,50.77096,"de:5334:1103"
"21001054","Aachen, Kármán-Auditorium (RWTH Aachen)",6.08013,50.77722,"de:5334:1054"
"21001121","Aachen, Hermann-Löns-Str.",6.16953,50.76178,"de:5334:1121"
"21001057","Aachen, Technische Hochschule",6.07802,50.7774,"de:5334:1057"
"21001075","Aachen, Ludwig Forum",6.10316,50.78141,"de:5334:1075"
"21001134","Aachen, Brahmsstr.",6.16364,50.75676,"de:5334:1134"
"21001051","Aachen, Paulusstr.",6.07894,50.77406,"de:5334:1051"
"21001077","Aachen, Tivoli",6.09676,50.79043,"de:5334:1077"
"21001089","Aachen, Jupp-Müller-Str.",6.07033,50.78685,"de:5334:1089"
"21001086","Aachen, Aachen West Bf",6.07073,50.78036,"de:5334:1086"
"21001073","Aachen, Carolus Thermen",6.09853,50.78405,"de:5334:1073"
"21001059","Aachen, Turmstr.",6.07214,50.77506,"de:5334:1059"
"21001065","Aachen, Rolandstr.",6.09611,50.78689,"de:5334:1065"
"21001117","Aachen, Wilhelm-Pitz-Weg",6.10074,50.76164,"de:5334:1117"
"21001123","Aachen, Kolpingstr.",6.17166,50.75075,"de:5334:1123"
"21001074","Aachen, Lombardenstr.",6.09903,50.78451,"de:5334:1074"
"21001091","Laurensberg, Kackertstr.",6.06189,50.79091,"de:5334:1091"
"21001025","Aachen, Bastei",6.08933,50.78266,"de:5334:1025"
"21001043","Aachen, Lochnerstr.",6.07247,50.7728,"de:5334:1043"
"21001047","Aachen, Minoritenstr.",6.08565,50.77847,"de:5334:1047"
"21001045","Aachen, Luisenhospital",6.07751,50.76843,"de:5334:1045"
"21001021","Aachen, Audimax",6.07534,50.78023,"de:5334:1021"
"21001031","Aachen, Eurogress / Spielcasino",6.0907,50.78077,"de:5334:1031"
"21001039","Aachen, Karlsgraben",6.07718,50.77273,"de:5334:1039"
"21001033","Aachen, Hansemannplatz",6.09438,50.77786,"de:5334:1033"
"21001041","Aachen, Königstr.",6.07569,50.77552,"de:5334:1041"
"21001037","Aachen, Judengasse / Markt",6.0815,50.77539,"de:5334:1037"
"21001035","Aachen, Jakobsplatz",6.07522,50.77062,"de:5334:1035"
"21001019","Aachen, Annastraße (Hans-Stercken-Platz)",6.08024,50.77246,"de:5334:1019"
"21001026","Aachen, Karolingerstr.",6.09328,50.78704,"de:5334:1026"
"21001027","Aachen, Driescher Gässchen (RWTH Aachen)",6.08214,50.77928,"de:5334:1027"
"21001029","Aachen, Elisenbrunnen",6.08751,50.77416,"de:5334:1029"
"21001011","Aachen, Kaiserplatz",6.09559,50.7757,"de:5334:1011"
"21001017","Aachen, Theater",6.08848,50.77201,"de:5334:1017"
"21001023","Aachen, Augustastraße (Suermondt-Ludwig-Museum)",6.09583,50.77269,"de:5334:1023"
"21001016","Aachen, Schanz Bf",6.07368,50.76994,"de:5334:1016"
"21001014","Aachen, Schanz (Vaalser Str.)",6.07375,50.77073,"de:5334:1014"
"21001009","Aachen, Alter Posthof",6.08467,50.77204,"de:5334:1009"
"21001008","Aachen, Aachen Hbf",6.09149,50.76781,"de:5334:1008"
"21001007","Aachen, Aachen Hauptbahnhof (Bus)",6.09063,50.76875,"de:5334:1007"
"21001005","Aachen, Misereor (Finanzamt)",6.08391,50.76854,"de:5334:1005"
"21001004","Aachen, STAWAG",6.10005,50.78311,"de:5334:1004"
"21001003","Aachen, Ehrenmal / Lousberg",6.08333,50.78227,"de:5334:1003"
"21001002","Aachen, Kaiser-Friedrich-Park",6.07547,50.75914,"de:5334:1002"
"21001001","Aachen, Aachen Bushof",6.09013,50.77684,"de:5334:1001"
