"stop_id","stop_name","stop_lon","stop_lat","stop_code"
"33002947","Welzow, Goetheschule",14.1704936391,51.5856636784,""
"33002949","Welzow, Kulturhaus",14.1728912669,51.5727103823,""
"33002951","Welzow, Aue",14.1784549876,51.5701979799,""
"33002960","Proschim, Ortsmitte",14.1896600443,51.5518214566,""
"33002961","Proschim, Mühlenweg",14.1987062855,51.551031898,""
"33002962","Karlsfeld (b Spremberg), Karlsfeld bei Spremberg",14.2058190604,51.5508174017,""
"33006861","Klein Partwitz, Siedlung Wendeschleife",14.177635688,51.5195571484,""
"33002906","Schwarze Pumpe, Märzschäfereiweg",14.3472404623,51.551289925800006,""
"33006865","Bluno, Gasthaus",14.2235681355,51.5253741794,""
"33002905","Schwarze Pumpe, Kinderheim",14.3447044896,51.547403148499995,""
"33006860","Klein Partwitz, Klein Partwitz",14.1888936913,51.5172439112,""
"33006866","Bluno, Schule",14.2300590337,51.524019303,""
"33006869","Sabrodt b Hoyersw., Siebanlage",14.2514653448,51.5220998666,""
"33002964","Terpe, Kindergarten",14.3086549571,51.5311099575,""
"33006864","Bluno, Ausbau",14.2675285249,51.5211429943,""
"33006867","Sabrodt b Hoyersw., Gasthaus",14.286382934699999,51.524426591499996,""
"33002919","Schwarze Pumpe, Schäfereiweg",14.3312193254,51.5335131802,""
"33002904","Schwarze Pumpe, Nord",14.3413552866,51.5352529782,""
"33006868","Sabrodt b Hoyersw., Abzw Terpe",14.2950223508,51.5237093969,""
"33006859","Geierswalde, Geierswalde",14.123397072600001,51.494428610899995,""
"33002903","Schwarze Pumpe, Gasthaus",14.3369570833,51.527906187899994,""
"33002909","Schwarze Pumpe, Franz-Mehring-Straße",14.3309272998,51.524133664,""
"33006857","Tätzschwitz, Tätzschwitz",14.1071897302,51.4855608005,""
"33002902","Schwarze Pumpe, Mitte",14.334571593500002,51.5238184189,""
"33002907","Schwarze Pumpe, Schule",14.3286549566,51.5214009846,""
"33006855","Elsterheide, Kortitzmühle",14.145575882300001,51.488927611499996,""
"33002900","Schwarze Pumpe, Süd",14.332507960300001,51.5203804526,""
"33006887","Zerre, Gasthaus",14.384086721600001,51.531236334800006,""
"33002910","Schwarze Pumpe, Vattenfall SP Straße D3",14.343400968100001,51.521484693400005,""
"33006891","Spreetal (Kamenz), Wohnlager II",14.327211869900001,51.5111902795,""
"33006898","Sabrodt b Hoyersw., Werksiedlung",14.3247954449,51.5098538046,""
"33006897","Sabrodt b Hoyersw., Schwarzlugk",14.319052582000001,51.505706412,""
"33006885","Spreewitz, Siedlung",14.391923790200002,51.5212687471,""
"33006893","Spreetal (Kamenz), Spreetal",14.3363697559,51.5051826995,""
"33006894","Spreetal (Kamenz), Werk Wendeschleife",14.3406507436,51.5004585374,""
"33006890","Spreetal (Kamenz), Werk",14.339626151300001,51.499858697499995,""
"33006884","Spreewitz, Ortsausgang",14.3988494165,51.512389050399996,""
"33006883","Spreewitz, Gasthaus",14.399617006000001,51.5083548544,""
"33006882","Spreewitz, Bahnbrücke",14.387586568700002,51.5008962077,""
"33006876","Burgneudorf, Schule",14.3780934165,51.4956233692,""
"33006878","Burgneudorf, Spremberger Straße",14.371630997599999,51.4909896894,""
"33006875","Burgneudorf, Neustädter Straße",14.371984575,51.490865664999994,""
"33006881","Neustadt (Spree), Betonwerk",14.4639909721,51.5012655967,""
"33006873","Burghammer, Bernsteinstraße",14.3661122026,51.4784165238,""
"33006880","Neustadt (Spree), Neustadt (Spree)",14.454436285600002,51.4888531211,""
"33009819","Tisá, rozc. Sneznik",14.0316818189,50.7846571086,""
"33009816","Tisá, rozc Antoninov",14.009026813699998,50.782514485200004,""
"33009818","Tisá, kulturni dum",14.0256894458,50.7867752384,""
"33009817","Tisá, statek",14.0154785365,50.7861251184,""
"33009804","Jílové (Decín), restaurace Hranicar",14.087408127299998,50.791476208300004,""
"33009815","Petrovice (Ústí nad Labem), rozc. Kr. Les",13.978599401199999,50.7869996561,""
"33009805","Jílové (Decín), Sneznik lesni sprava",14.0832258421,50.79725993940001,""
"33009814","Petrovice (Ústí nad Labem), skola",13.975742067799999,50.7902037169,""
"33009920","Teplice, hlavni nadrazi (Bahnhof)",13.82976567,50.64620706589999,""
"33009813","Petrovice (Ústí nad Labem), u Marvanu",13.977102567400001,50.7958894924,""
"33009806","Jílové (Decín), celnice",14.0842085614,50.807545382399994,""
"33009812","Petrovice (Ústí nad Labem), zavod",13.975448115,50.799711442900005,""
"33001837","Müglitz, Abzweig Fürstenau",13.860396429900002,50.7453614186,""
"33001835","Gottgetreu, Gottgetreu",13.8558495434,50.7414602274,""
"33001822","Fürstenwalde (Kr PIR), Oberdorf",13.873504357400002,50.7581603215,""
"33009811","Petrovice (Ústí nad Labem), u dubu",13.9795566986,50.804280742699994,""
"33001821","Fürstenwalde (Kr PIR), Erbgericht",13.863904811,50.7594829657,""
"33001830","Fürstenau (Kr PIR), Wendeplatz",13.8344371263,50.733384398800005,""
"33003552","Rosenthal-Bielatal, Fußweg zum Schneeberg",14.075079885700001,50.8221467712,""
"33009810","Petrovice (Ústí nad Labem), Konecna",13.9819968537,50.81500065550001,""
"33009910","Dubí, posta (Post)",13.798998738500002,50.662140749500004,""
"33003260","Bad Gottleuba-Bergg., Bahratal Grenzübergang",13.9817307415,50.8154187315,""
"33001831","Fürstenau (Kr PIR), Mitte",13.8309680406,50.7395972641,""
"33001820","Fürstenwalde (Kr PIR), Kratzhammer",13.853706336399998,50.761803266899996,""
"33001832","Fürstenau (Kr PIR), Niederdorf",13.8313724639,50.74487715870001,""
"33003220","Oelsen (b Pirna), Wendeplatz",13.9251656284,50.8057579567,""
"33009909","Dubí, mestsky urad",13.790951786499999,50.675921002500004,""
"33003221","Oelsen (b Pirna), Ortsmitte",13.929839456,50.808656453299996,""
"33009908","Dubí, kostel (Kirche)",13.787714754900001,50.682326845199995,""
"33003222","Oelsen (b Pirna), Ortsanfang",13.932126539,50.81250235380001,""
"33003551","Rosenthal-Bielatal, Zollhäuser",14.067703265899999,50.8325088435,""
"33003263","Hellendorf/Gottleuba, Siedlung",13.958131483799999,50.820851988,""
"33003262","Hellendorf/Gottleuba, Grenzlandstraße",13.9676933865,50.824808553,""
"33001819","Liebenau b Dippoldis, Oberdorf",13.8604197802,50.7841718175,""
"33003261","Hellendorf/Gottleuba, Dorfplatz",13.9736660042,50.828438566500004,""
"33001818","Liebenau b Dippoldis, Höhe",13.850683016600001,50.7792923001,""
"33003553","Rosenthal-Bielatal, Mühlsteig",14.065844344599999,50.8379899395,""
"33003548","Rosenthal-Bielatal, Oberdorf",14.066183366499999,50.839557242400005,""
"33003205","Breitenau (b Pirna), Wendeplatz",13.8945730964,50.8067265881,""
"33001808","Löwenhain, Unterdorf",13.824972658,50.763209673300004,""
"33001817","Liebenau b Dippoldis, Dorfplatz",13.8559956157,50.7866876708,""
"33003264","Hellendorf/Gottleuba, Kretzschmarmühle",13.9783314162,50.833025447800004,""
"33003270","Markersbach/Gottleu., Kindertagesstätte",13.9830046808,50.8361016491,""
"33001807","Löwenhain, Feuerwehr (Schule)",13.8162560544,50.760307148,""
"33003204","Breitenau (b Pirna), Viehanlage",13.8866410008,50.808464456500005,""
"33003271","Markersbach/Gottleu., Erbgericht",13.9857313091,50.8394625558,""
"33001816","Liebenau b Dippoldis, Linde",13.848476819199998,50.7898637949,""
"33001806","Löwenhain, Abzweig Fürstenau",13.805828544,50.7552728541,""
"33003547","Rosenthal-Bielatal, Dorfplatz",14.061975672800001,50.8465273013,""
"33003550","Rosenthal-Bielatal, Am Berg",14.050241682100001,50.846428511300005,""
"33003252","Bad Gottleuba, Hellendorfer Straße",13.9461540878,50.8324790872,""
"33003272","Markersbach/Gottleu., Wendeplatz",13.9906430232,50.8431097699,""
"33001876","Lauenstein (Sachs), Teplitzer Straße",13.832077354699999,50.7821484029,""
"33003273","Markersbach/Gottleu., Gasthaus Zur Linde",13.994013451199999,50.8445625512,""
"33003549","Rosenthal-Bielatal, Schweizermühle",14.0437400385,50.8494015483,""
"33009906","Dubí, zel. st. (Bahnhof)",13.763274213799999,50.698854797799996,""
"33003546","Rosenthal-Bielatal, Schule",14.055814666200002,50.8504479658,""
"33001799","Geising, Leitenhof",13.7971003703,50.7553268514,""
"33003248","Bad Gottleuba, An der Rodelbahn",13.9589090233,50.841453525400006,""
"33003247","Bad Gottleuba, Abzweig Talsperre",13.9445986083,50.8380879564,""
"33001815","Liebenau b Dippoldis, Alter Schulweg",13.8409033273,50.794200021200005,""
"33001874","Lauenstein (Sachs), Schützenhaus",13.8255386761,50.7839321434,""
"33001804","Geising, Siedlung",13.7890657188,50.7512700368,""
"33003202","Börnersdorf, Abzweig Walddörfchen",13.8795125811,50.817156210700006,""
"33001872","Lauenstein (Sachs), Schule",13.823917204499999,50.7856296931,""
"33001805","Geising, Poststraße",13.792407326100001,50.7578714145,""
"33003250","Bad Gottleuba, Ortsteil Augustusberg",13.953814398399999,50.8428785329,""
"33003545","Rosenthal-Bielatal, Am Poststeig",14.047118850799999,50.855860254300005,""
"33009902","Dubí, Ceske pomezi",13.765398237900001,50.7252448231,""
"33003555","Rosenthal-Bielatal, Kreuzung",14.028073713,50.855896309900004,""
"33009900","Dubí, clo",13.76833972,50.7330216751,""
"33001801","Geising, Teplitzer Straße",13.7790565725,50.748168817199996,""
"33003246","Bad Gottleuba, Friedhof",13.9453713892,50.8440355715,""
"33001871","Lauenstein (Sachs), Talstraße",13.8163289108,50.785235734000004,""
"33003259","Bad Gottleuba, Hartmannsbach Lindenhof",13.914722593799999,50.835912235399995,""
"33003203","Börnersdorf, Oberdorf",13.879567952099999,50.8227741691,""
"33001800","Geising, Bahnhof",13.786429694,50.7609389295,""
"33001814","Liebenau b Dippoldis, Bauernmuseum",13.8315162481,50.798627181200004,""
"33001762","Zinnwald-Georgenfeld, Geisingstraße",13.7710757391,50.7432109343,""
"33001870","Lauenstein (Sachs), Bahnhof",13.8142067166,50.78646446929999,""
"33003542","Bielatal, Brausenstein",14.0409242331,50.8597177697,""
"33003258","Bad Gottleuba, Hartmannsbach Bergbaude",13.923685097099998,50.8408441866,""
"33003201","Börnersdorf, Mitte",13.879259980299999,50.8260605395,""
"33001802","Geising, Sandermühle",13.791378351199999,50.7695204894,""
"33003245","Bad Gottleuba, Schule",13.9428373812,50.847979557600006,""
"33003243","Bad Gottleuba, Bährmühle",13.9361396436,50.847758305700005,""
"33003532","Bahra (b Pirna), An der Brücke",13.998010022799999,50.8599933287,""
"33003244","Bad Gottleuba, Hackebeilstraße",13.9411187009,50.850021978099996,""
"33003557","Rosenthal-Bielatal, Am Harthenberg",14.037100156300001,50.865511428699996,""
"33001803","Geising, Hartmannmühle",13.7922758612,50.77853279040001,""
"33003219","Hennersbach, Hennersbach",13.8614109121,50.8237396916,""
"33003242","Bad Gottleuba, Gesundheitspark",13.9444011583,50.852799207699995,""
"33003200","Börnersdorf, Unterdorf",13.8764266033,50.831149640300005,""
"33001863","Bärenstein (Kr PIR), Huthaus",13.810676755800001,50.795671305099994,""
"33003541","Bielatal, Neidberg",14.043803667999999,50.8674169687,""
"33003179","Waltersdorf (Liebst), Wendeplatz",13.8436897203,50.8166942818,""
"33001774","Altenberg (Erzgeb), Siedlung",13.7712106046,50.7621691039,""
"33003241","Bad Gottleuba, Kolibri",13.9462118315,50.8580822048,""
"33003531","Bahra (b Pirna), Gasthaus",14.000248632700002,50.868154048499996,""
"33003535","Bahra (b Pirna), Weitblick",14.004447100200002,50.868657348300005,""
"33001861","Bärenstein (Kr PIR), Kalkberg",13.8063999975,50.7991628851,""
"33003538","Bielatal, Raumstraße",14.042427525899999,50.8716844819,""
"33003530","Bahra (b Pirna), Abzw nach Raum",14.0043977065,50.86916165,""
"33003543","Bielatal, Gasthaus Hermsdorf",14.042062660900001,50.872113412800005,""
"33003178","Waltersdorf (Liebst), Ortsmitte",13.838115409599999,50.820378338299996,""
"33003533","Bahra (b Pirna), Waldstraße",13.9990934449,50.86937854279999,""
"33003240","Bad Gottleuba, Giesenstein",13.9443252985,50.862240159600006,""
"33001860","Bärenstein (Kr PIR), Markt",13.799144563599999,50.8008393547,""
"33003540","Bielatal, Gemeindeamt",14.043004460499999,50.877077527299996,""
"33003544","Bielatal, Reichstein",14.0469016151,50.8778093389,""
"33003176","Döbra (b Pirna), Abzweig Waltersdorf",13.838054847599999,50.82786805719999,""
"33003603","Kleingießhübel, Forstmühle",14.143309293,50.872679351,""
"33003526","Langenhennersdorf, Schleife",13.9832483384,50.874305957000004,""
"33003359","Wingendorf(Bahretal), Wingendorf",13.8934476888,50.853250978800006,""
"33003539","Bielatal, Talstraße",14.047087583000001,50.881078531,""
"33003155","Liebstadt, Waldhäusel",13.8766149678,50.848578472999996,""
"33003175","Döbra (b Pirna), Mitte",13.8407629733,50.8332014231,""
"33001918","Börnchen b Bärnstein, Wendeplatz",13.8117861273,50.8177427727,""
"33003527","Langenhennersdorf, Abzweig Labyrinth",14.0303405418,50.8819106367,""
"33001868","Bärenstein (Kr PIR), Bahnhofstraße",13.794060594200001,50.806995003800004,""
"33003602","Kleingießhübel, Wendeplatz",14.160503431899999,50.8742501152,""
"33003584","Cunnersdorf b Königs, Querweg",14.133861420199999,50.8786064138,""
"33001865","Bärenstein (Kr PIR), Bahnhof",13.7947702804,50.80922261439999,""
"33003601","Kleingießhübel, Rölligmühle",14.153588574099999,50.8768233797,""
"33003357","Göppersdorf b Pirna, Brücke",13.897387537499998,50.8610892734,""
"33003282","Berggießhübel, Untere Siedlung",13.959978073499999,50.876767022,""
"33003281","Berggießhübel, Torbogenhaus",13.9520199885,50.8753901184,""
"33003286","Berggießhübel, Cafe Kühn",13.9458872992,50.874162040499996,""
"33003284","Berggießhübel, Zwiesel",13.968709285500001,50.8786068186,""
"33003174","Döbra (b Pirna), Unterdorf",13.839913488,50.8386718191,""
"33003280","Berggießhübel, Kurhaus",13.9469321273,50.8750256416,""
"33003354","Göppersdorf b Pirna, Alte Schule",13.8929531248,50.8606758595,""
"33003589","Cunnersdorf b Königs, Deutsches Haus",14.1208554645,50.8835365757,""
"33003283","Berggießhübel, An der Ladengalerie",13.9560052993,50.877247254100006,""
"33003588","Cunnersdorf b Königs, Erbgericht",14.119064153199998,50.885088498,""
"33003587","Cunnersdorf b Königs, Schmiede",14.1137588496,50.8859399407,""
"33003355","Göppersdorf b Pirna, Mini-Markt",13.8870573674,50.8606545242,""
"33003524","Langenhennersdorf, Gasthaus",14.009084938600001,50.8863062738,""
"33003585","Cunnersdorf b Königs, Friedhof",14.113069133,50.886401953,""
"33003525","Langenhennersdorf, Zwieselbrücke",13.9821567663,50.8837372403,""
"33003600","Kleingießhübel, Krippenstraße",14.1589898315,50.8808501212,""
"33003356","Göppersdorf b Pirna, Oberdorf",13.8800049904,50.8615415599,""
"33003290","Berggießhübel, Ladenberg",13.9556221645,50.8820094728,""
"33001912","Dittersdorf (Kr PIR), Schule",13.8059035534,50.8274803881,""
"33003522","Langenhennersdorf, Teich",14.0010796741,50.8898691347,""
"33003529","Langenhennersdorf, Bahnberg",13.9899858898,50.8887013839,""
"33003521","Langenhennersdorf, Waldburg",13.9895237029,50.888862100299995,""
"33001866","Bärenstein (Kr PIR), Bärenklau",13.7827964737,50.815222893000005,""
"33003583","Cunnersdorf b Königs, Abzweig zum Pfaffenstein",14.1029230233,50.8933819777,""
"33003153","Liebstadt, Schule",13.8511866633,50.8548104384,""
"33003157","Liebstadt, Abzweig Berthelsdorf",13.846599558000001,50.8541010176,""
"33003523","Langenhennersdorf, Forsthaus",14.0079769214,50.894578358,""
"33003353","Gersdorf (b Pirna), Gasthaus",13.914359897,50.8787112876,""
"33001911","Dittersdorf (Kr PIR), Mitte",13.8054481837,50.834805356900006,""
"33003156","Liebstadt, Abzweig Freibad",13.851182022500002,50.8575614772,""
"33003351","Gersdorf (b Pirna), Wendeplatz",13.9069379782,50.8796509519,""
"33003158","Liebstadt, Am Gänsehals",13.8513669557,50.86079497000001,""
"33001910","Dittersdorf (Kr PIR), Wendeplatz",13.8029428629,50.83720850340001,""
"33003577","Papstdorf, Erblehngericht",14.130491789599999,50.8963160629,""
"33003152","Liebstadt, Markt",13.8564026913,50.863124271299995,""
"33003576","Papstdorf, Ortsanfang",14.1244414985,50.897064712100004,""
"33003160","Berthelsdorf/Liebst., Berthelsdorf bei Liebstadt",13.8384297348,50.856180927,""
"33003599","Schöna (b Pirna), Fährstelle",14.2347701358,50.875332192500004,""
"33009802","Hrensko, Fährstelle",14.236347251,50.875032249600004,""
"33003598","Schöna (b Pirna), Bahnhof",14.234644935099999,50.8756852204,""
"33003578","Papstdorf, Schule",14.1323854391,50.8979356871,""
"33003350","Gersdorf (b Pirna), Abzweig Borna",13.904692962499999,50.8817463638,""
"33003506","Königstein (Sächs.Schw.), Straße nach Cunnersdorf",14.0611415423,50.9026234455,""
"33003579","Papstdorf, Gasthaus Hoffnung",14.134330519699999,50.8991228039,""
"33003575","Papstdorf, Papststein",14.116060839400001,50.901289639299996,""
"33003597","Schöna (b Pirna), Dorfplatz",14.214523509800001,50.883764818799996,""
"33003492","Leupoldishain, Abzweig",14.006992658200002,50.901769468,""
"33003592","Reinhardtsdorf (PIR), Ehrenmal",14.1996567866,50.8882716191,""
"33003596","Schöna (b Pirna), Schulweg",14.211216923,50.885967274500004,""
"33003499","Königstein (Sächs.Schw.), Nikolsdorf (Sächs. Schweiz)",14.034184854600001,50.9049035994,""
"33001921","Bärenhecke, Abzweig Johnsbach",13.7724973951,50.82579938040001,""
"33003520","Langenhennersdorf, Preßwerk",13.9931482601,50.9021776174,""
"33003595","Schöna (b Pirna), Hirschgrund",14.206869174800001,50.8887017909,""
"33003491","Leupoldishain, Dorfplatz",14.028434036399998,50.9057319315,""
"33003493","Leupoldishain, Gemeindezentrum",14.0261370554,50.9058797263,""
"33003349","Borna (b Pirna), Borna (b Pirna)",13.8878905892,50.88197454629999,""
"33003513","Pfaffendorf b Pirna, Vereinshaus",14.0809773938,50.9071350571,""
"33003591","Reinhardtsdorf (PIR), Bächelweg",14.1918361668,50.893651252,""
"33003590","Reinhardtsdorf (PIR), Am Krippenberg",14.186586047799999,50.8956737252,""
"33001920","Bärenhecke, Bahnhof",13.7706003638,50.828929764799994,""
"33003300","Cotta b Pirna, Heidekrug",13.945837389400001,50.8981935193,""
"33003301","Cotta b Pirna, Wendeplatz",13.953488547000001,50.899620951100005,""
"33003505","Königstein (Sächs.Schw.), Papierfabrik",14.0529479936,50.908989152699995,""
"33003308","Cotta b Pirna, Zum Spitzberg",13.9786058399,50.903899534299995,""
"33003302","Cotta b Pirna, Gasthaus",13.962055145399999,50.9021832294,""
"33003573","Gohrisch, Hotel Albrechtshof",14.1095889992,50.9081405811,""
"33003514","Pfaffendorf b Pirna, Ortsmitte",14.0765446836,50.9100909183,""
"33003613","Krippen, Krippengrund",14.16834619,50.901156676700005,""
"33003307","Cotta b Pirna, Pilzleite",13.9804584601,50.9056751222,""
"33003163","Seitenhain b Pirna, Rotes Vorwerk",13.8385230362,50.8682980583,""
"33003346","Ottendorf b Pirna, Am Heideberg",13.9261486032,50.8971717209,""
"33003572","Gohrisch, Schandauer Straße",14.1093966649,50.9101758653,""
"33003580","Kleinhennersdorf, Hauptstraße",14.144963751099999,50.906524626599996,""
"33003571","Gohrisch, Parkplatz",14.1083286023,50.910455889,""
"33003303","Cotta b Pirna, Spitzbergweg",13.968148792600001,50.905757560400005,""
"33003612","Krippen, Zum Kohlbornstein",14.164750744900001,50.9039475298,""
"33003503","Königstein (Sächs.Schw.), Bielatalstraße",14.067911864000001,50.9126266591,""
"33003645","Schmilka, Hp Hirschmühle",14.228629286499999,50.8898704097,""
"33001922","Bärenhecke, Bahnbrücke",13.7698743469,50.8352517902,""
"33003344","Ottendorf b Pirna, Teich",13.9190597574,50.8972885408,""
"33003504","Königstein (Sächs.Schw.), Abzweig Nikolsdorf",14.0536580832,50.9134897501,""
"33003644","Schmilka, Fährstelle am Haltepunkt",14.2284458652,50.8904942559,""
"33003570","Gohrisch, Pfaffendorfer Straße",14.1056163327,50.912114130800006,""
"33003581","Kleinhennersdorf, Wendeplatz",14.1406844697,50.9087069615,""
"33003309","Pirna, Neundorf Wiesenhof",13.9830569518,50.909271997,""
"33003649","Schmilka, Fährstelle im Ort",14.2297522691,50.8913593478,""
"33003648","Schmilka, Grenzübergang",14.2298692404,50.892022406200006,""
"33003164","Seitenhain b Pirna, Ortsmitte",13.8382641919,50.8736332366,""
"33003345","Friedrichswalde(PIR), Friedrichswalde-Ottendorf",13.9136417967,50.898285534100005,""
"33003490","Leupoldishain, Gewerbegebiet",14.02679387,50.914777604099996,""
"33003151","Liebstadt, Abzweig nach Seitenhain",13.848732112199999,50.8782055608,""
"33001943","Glashütte (Sachs), Abzweig Dittersdorf",13.791417293199999,50.852839995,""
"33001944","Glashütte (Sachs), Abzweig Rückenhain",13.794407421299999,50.854520115099994,""
"33003150","Liebstadt, Schneckenmühle",13.857061368499998,50.8825503069,""
"33003611","Krippen, Alte Schule",14.166377400199998,50.9089699216,""
"33003342","Friedrichswalde(PIR), Ortsmitte",13.9077774284,50.8994963466,""
"33003341","Friedrichswalde(PIR), Oberdorf",13.8974785272,50.897245969900005,""
"33003647","Schmilka, Ortsanfang",14.224890595799998,50.8970172666,""
"33001945","Glashütte (Sachs), Berufsschule",13.772798082000001,50.84459296799999,""
"33001940","Glashütte (Sachs), Bahnhof/Busbahnhof",13.7820354382,50.8507541941,""
"33003501","Königstein (Sächs.Schw.), Reißigerplatz/Bahnhof",14.073391915,50.9191372337,""
"33003367","Dohma, Am Tunnel",13.9464655196,50.909159974800005,""
"33003511","Königstein (Sächs.Schw.), Fährstelle",14.0753110453,50.9194357545,""
"33003500","Königstein (Sächs.Schw.), Bahnhof",14.0785382611,50.919405281100005,""
"33001942","Glashütte (Sachs), Turnhalle",13.785369038199999,50.854002549,""
"33003610","Krippen, Bahnhof",14.1602698633,50.9131108476,""
"33003512","Königstein (Sächs.Schw.), Fährstelle Halbestadt",14.0760085676,50.9207269312,""
"33003478","Struppen, Siedlung",14.0169241037,50.9197044341,""
"33003477","Struppen, Hohe Straße",14.0170218138,50.9199904307,""
"33001950","Schlottwitz, Bf Oberschlottwitz",13.814399895,50.8704917717,""
"33003614","Krippen, Bornfähre",14.151687823300001,50.9151214424,""
"33003616","Krippen, Fährstelle im Ort",14.169202582,50.9125405449,""
"33003409","Pirna, Neundorf Wendeplatz",13.9783957186,50.917046687,""
"33003641","Postelwitz, Steinbruch",14.1968236781,50.9077982469,""
"33003642","Postelwitz, Abzweig Ostrau",14.184925365200002,50.9106019229,""
"33003643","Postelwitz, Fährstelle",14.1695761879,50.913540518699996,""
"33003628","Postelwitz, Postelwitz",14.1729039662,50.9132358503,""
"33003509","Königstein (Sächs.Schw.), Am Königstein (zur Festung)",14.0479344474,50.9233717017,""
"33003322","Bahretal, Halde",13.8611487687,50.8916819883,""
"33003621","Bad Schandau, Elbkai",14.1494487151,50.91776092,""
"33003620","Bad Schandau, Nationalparkbahnhof",14.1380974688,50.919273076900005,""
"33001951","Schlottwitz, Neue Mittelstraße",13.8152034278,50.873985379299995,""
"33003627","Bad Schandau, Personenaufzug",14.160570946500002,50.9165395856,""
"33003626","Bad Schandau, Markt",14.1528470567,50.9177432176,""
"33001948","Glashütte (Sachs), M-Großmann-Platz",13.7727062352,50.852280826199994,""
"33003502","Königstein (Sächs.Schw.), Mittelweg",14.0926366099,50.9236034622,""
"33003328","Nentmannsdorf, Gasthaus",13.881248520800002,50.8994686361,""
"33003408","Pirna, Am Lohmgrund",13.9658692587,50.918804705,""
"33003517","Königstein (Sächs.Schw.), Ebenheit Wendeplatz",14.074459135400001,50.9258609417,""
"33003489","Thürmsdorf, Vogelstein/Festung",14.048053251799999,50.9260756675,""
"33003619","Bad Schandau, Elbbrücke",14.1402992805,50.9220017264,""
"33003321","Bahretal, Talstraße",13.8641973392,50.897189160799996,""
"33003622","Bad Schandau, Kurpark",14.1574174216,50.920616620699995,""
"33003429","Krietzschwitz, Abzw Rosenthal",13.9905346465,50.9242211429,""
"33003650","Rathmannsdorf (PIR), Brücke",14.1319242904,50.92486112940001,""
"33003373","Pirna, Rottwerndorf Am Schäferberg",13.963358016699999,50.921651902099995,""
"33003640","Postelwitz, Schrammsteinbaude",14.187231479400001,50.9167171248,""
"33003327","Nentmannsdorf, Kindertagesstätte",13.879188897899999,50.9033945194,""
"33003325","Nentmannsdorf, Abzweig Biensdorf",13.8641988149,50.8990051248,""
"33003651","Rathmannsdorf (PIR), Prossener Straße",14.131680297199999,50.925746636499994,""
"33003637","Ostrau (Bad Schandau), Zur Falkensteinklinik",14.175039420600001,50.9196871032,""
"33003653","Rathmannsdorf (PIR), Bahnhof",14.131640621199999,50.9267452845,""
"33003660","Prossen, Forstweg",14.1232291221,50.9278965654,""
"33003654","Rathmannsdorf (PIR), Mitte",14.131139538,50.9276085155,""
"33003407","Pirna, Altrottwerndorf",13.961739158699999,50.9240794883,""
"33001952","Schlottwitz, Platz des Friedens",13.813007929700001,50.882578015099995,""
"33003661","Prossen, Hafen",14.1150168132,50.93031125540001,""
"33003172","Biensdorf b Pirna, Lochau",13.855093246200001,50.8998964336,""
"33003362","Dohma, Wendeplatz",13.930065453800001,50.920031726000005,""
"33003488","Thürmsdorf, Gasthaus",14.045721014700002,50.9325715374,""
"33003662","Prossen, Wendeplatz",14.113055294,50.9309761106,""
"33003363","Dohma, Mitte",13.9280847344,50.920972468900004,""
"33003623","Bad Schandau, Botanischer Garten",14.1660858277,50.9259581099,""
"33003428","Krietzschwitz, Abzw Neundorf",13.978116732099998,50.929242027399994,""
"33003618","Waltersdorf (Sächs.Schw.), Parkplatz am Lilienstein",14.080386701,50.934053396399996,""
"33003663","Rathmannsdorf (PIR), Am Turm",14.1438344465,50.9292819137,""
"33003639","Ostrau (Bad Schandau), Wenzelweg",14.192029279700002,50.92166169870001,""
"33003638","Ostrau (Bad Schandau), Ortsanfang",14.1874515353,50.922619675700005,""
"33003414","Pirna, Sportplatz Pirna Süd",13.957334170800001,50.9268954406,""
"33003479","Struppen, Landschlachthof",14.0182574356,50.9334183531,""
"33003366","Dohma, Dohmaer Weg",13.934257787599998,50.9233785372,""
"33003476","Struppen, Post",14.015254840899999,50.93373095890001,""
"33003329","Niederseidewitz, Viehanlage",13.893970435599998,50.91448297349999,""
"33003487","Thürmsdorf, Mitte",14.0395260138,50.935026412199996,""
"33003629","Bad Schandau, Kiefricht",14.162473041,50.92780520670001,""
"33001987","Cunnersdorf b Glash., Oberdorf",13.7789456635,50.8706872497,""
"33003624","Bad Schandau, Waldhäusel",14.1787123649,50.925237552199995,""
"33003486","Thürmsdorf, Abzw Weißig",14.028095011700001,50.9352076533,""
"33003167","Großröhrsdorf (PIR), Wendeplatz",13.8257073365,50.8929791824,""
"33003361","Dohma, Siedlung",13.9256824994,50.9227292409,""
"33003168","Großröhrsdorf (PIR), Denkmal",13.834568270700002,50.8967328557,""
"33001958","Schlottwitz, Cunnersdorfer Straße",13.8112292434,50.8872804455,""
"33003475","Struppen, Mitte",14.0109173941,50.9350913738,""
"33003996","Rathmannsdorf (PIR), Höhe Ortsanfang",14.1490910152,50.931288953099994,""
"33001985","Cunnersdorf b Glash., Cunnersdorf (bei Glashütte)",13.7813109791,50.874220178899996,""
"33003998","Altendorf (Sebnitz), Alte Ziegelei",14.1657097826,50.929498292699996,""
"33003326","Nentmannsdorf, Mühle",13.8733858544,50.9114799815,""
"33003170","Biensdorf b Pirna, Teich",13.8465155862,50.9029992093,""
"33001953","Schlottwitz, Hp Niederschlottwitz",13.8111913546,50.8896004529,""
"33003655","Rathmannsdorf (PIR), Plan",14.1296964795,50.9355642972,""
"33003406","Pirna, Johann-Sebastian-Bach-Straße",13.951009675400002,50.9304265768,""
"33003474","Struppen, Südstraße",14.0031814289,50.936833656900006,""
"33003364","Dohma, Weinleite",13.9259783077,50.9264462465,""
"33003171","Biensdorf b Pirna, Neubau",13.847848906400001,50.9057919739,""
"33003330","Niederseidewitz, Niederseidewitz",13.901861344999999,50.921762424,""
"33001986","Cunnersdorf b Glash., Am Gründel",13.7803054648,50.8776607128,""
"33003360","Dohma, Brücke",13.9166657742,50.9255207692,""
"33003473","Struppen, Sportplatz",13.998099411899998,50.9384311223,""
"33003646","Waltersdorf (Sächs.Schw.), Am Lottersteig",14.092373881699999,50.9405637743,""
"33003656","Rathmannsdorf (PIR), Lachsbach",14.1298623169,50.9382583552,""
"33003625","Ostrau (Bad Schandau), Ostrauer Mühle (Zeltplatz)",14.1916263798,50.9303359855,""
"33003405","Pirna, Franz-Schubert-Straße",13.947864339999999,50.9337964604,""
"33003657","Waltersdorf (Sächs.Schw.), Am Prossener Grund",14.097540173299999,50.942799501900005,""
"33003988","Mittelndorf, Mittelndorfer Mühle",14.201415593699998,50.9297651265,""
"33003396","Pirna, Zehista Abzweig nach Dohma",13.9268259647,50.9314666875,""
"33003659","Porschdorf, Einkehr",14.1284013613,50.9411618989,""
"33003471","Ebenheit bei Pirna, Kleinebenheit",13.966473136,50.938177197099996,""
"33003984","Lichtenhain (Sebnitz), Nasser Grund",14.222911994099999,50.9267953249,""
"33003987","Mittelndorf, Forsthaus",14.2059888753,50.9311082278,""
"33003999","Altendorf (Sebnitz), Erbgericht",14.1827555494,50.9356357512,""
"33003404","Pirna, Albrecht-Dürer-Straße",13.9456206704,50.93730405709999,""
"33001954","Schlottwitz, Firma Graf",13.811980224200001,50.9000345698,""
"33003143","Burkhardswalde (PIR), Am Kanitz",13.8580003366,50.917560506499996,""
"33003398","Pirna, Zuschendorf Lindental",13.913456443600001,50.9322350634,""
"33003320","Bahretal, Eulmühle",13.8982871455,50.9289946721,""
"33003399","Pirna, Zuschendorf Am Landschloss",13.9134191269,50.932712147500006,""
"33003670","Kohlmühle (Hohnstn.), Bahnhof Goßdorf-Kohlmühle",14.1649973344,50.9411090351,""
"33003397","Pirna, Zuschendorf Gärtnerei",13.9172983946,50.9343296157,""
"33003983","Lichtenhain (Sebnitz), Beuthenfall",14.236958055199999,50.926616793,""
"33003403","Pirna, Südvorstadt Schule",13.9441565033,50.941086305999995,""
"33003410","Pirna, Zehista Schule",13.9211531428,50.9370711153,""
"33003148","Burkhardswalde (PIR), Dorfplatz",13.857518965799999,50.9215417509,""
"33003395","Pirna, Zehista Hotel Zur Post",13.9248123349,50.9385121579,""
"33003989","Mittelndorf, Gasthaus",14.2039308145,50.9378269667,""
"33003121","Meusegast, Ahornallee",13.8767569182,50.92846189709999,""
"33003982","Lichtenhain (Sebnitz), Lichtenhainer Wasserfall",14.2436305052,50.9289970132,""
"33003402","Pirna, Geibeltbad/Freizeitzentrum",13.9434034351,50.9438408174,""
"33003146","Burkhardswalde (PIR), An der Siedlung",13.8575218501,50.924112844,""
"33003393","Pirna, An der Seidewitz",13.927712936799999,50.9425907128,""
"33003119","Meusegast, Niedermeusegast",13.8892612331,50.9344362681,""
"33003120","Meusegast, Am Kaiserberg",13.879319629200001,50.9320436277,""
"33003142","Mühlbach (b Pirna), Siedlung",13.8268677907,50.9160832715,""
"33003145","Mühlbach (b Pirna), Wendeplatz",13.817298355700002,50.9132030822,""
"33003144","Mühlbach (b Pirna), Bahnhof",13.817793262,50.913860630900004,""
"33001961","Reinhardtsgrimma, Buschhaus",13.7789556654,50.8978008475,""
"33003394","Pirna, Lindigt",13.9297034683,50.945299780400006,""
"33003118","Krebs (Kr PIR), Krebs",13.8917752864,50.9378387163,""
"33001983","Hausdorf b Dippoldis, Ziegeleigut",13.784577973400001,50.9020751128,""
"33003975","Ottendorf (Sebnitz), Felsenmühle",14.276069845799999,50.9255816992,""
"33003974","Ottendorf (Sebnitz), Neumannmühle",14.2851765749,50.9236056003,""
"33003147","Burkhardswalde (PIR), Bahnhof",13.839059366299999,50.925555988,""
"33003133","Weesenstein, Müglitzbrücke",13.8496826054,50.9290829677,""
"33003149","Burkhardswalde (PIR), Talstraße (Bf)",13.8387786022,50.925650312200005,""
"33001980","Hausdorf b Dippoldis, Wendeplatz",13.786358670999999,50.906623747199994,""
"33003132","Weesenstein, Gemeindeamt",13.862669330500001,50.9343962539,""
"33003973","Ottendorf (Sebnitz), Buschmühle",14.2886469508,50.9253356792,""
"33003978","Ottendorf (Sebnitz), Abzw Ottendorf",14.2882574123,50.9255141387,""
"33003130","Weesenstein, Bahnhof",13.8622732425,50.9358769327,""
"33003981","Lichtenhain (Sebnitz), Lichtenhainer Mühle",14.259969640200001,50.9359010253,""
"33003116","Köttewitz, Alte Poststraße",13.8739177176,50.93957421179999,""
"33003115","Köttewitz, Steinbank",13.873223856500001,50.9396572709,""
"33001981","Hausdorf b Dippoldis, Niederdorf",13.788327747899999,50.9105132001,""
"33003977","Ottendorf (Sebnitz), Tiefer Hahn",14.2670171047,50.935701388,""
"33003131","Weesenstein, Abzweig nach Maxen",13.860363769600001,50.9390089303,""
"33003976","Ottendorf (Sebnitz), Zum Thorwald",14.3007765695,50.926400750700004,""
"33003134","Falkenhain (b Pirna), Ortsanfang",13.851868589699999,50.9382720135,""
"33003141","Maxen, Maxener Straße",13.803832480299999,50.9242539064,""
"33003136","Crotta, Abzweig nach Crotta",13.8287808077,50.9336736344,""
"33003113","Köttewitz, Haltepunkt",13.8643598296,50.9446448073,""
"33003135","Falkenhain (b Pirna), Oberdorf",13.845100618,50.9391073983,""
"33003138","Schmorsdorf, Schmorsdorf",13.8204069382,50.931997579,""
"33003140","Maxen, Dorfplatz",13.8001202209,50.9249944661,""
"33003979","Saupsdorf, Sturmbauers Eck",14.3141309341,50.9286270292,""
"33003139","Maxen, An der Naturbühne",13.8011306561,50.9268487811,""
"33003993","Saupsdorf, Räumichtmühle",14.3264671945,50.928957105799995,""
"33001017","Lungkwitz, Abzw Steinbruch",13.7788627171,50.9225785227,""
"33003994","Saupsdorf, Räumicht",14.3409394471,50.9264919329,""
"33003964","Hinterhermsdorf, Zeltplatz",14.3509262197,50.92311746399999,""
"33003960","Hinterhermsdorf, Hoffnung",14.3557751369,50.9228038861,""
"33003089","Tronitz (b Pirna), Am Brunnen",13.8214652149,50.9452412237,""
"33003093","Tronitz (b Pirna), Mitte",13.817075061099999,50.9439611678,""
"33001016","Lungkwitz, Bad",13.77679943,50.9300176426,""
"33003992","Saupsdorf, Niederdorf",14.3274959592,50.9381608773,""
"33003961","Hinterhermsdorf, Erbgericht",14.359443301999999,50.925579780700005,""
"33001019","Wittgensdorf/Freital, Gasthof",13.795126315,50.9397339533,""
"33001015","Lungkwitz, Wittgensdorfer Str.",13.7723785678,50.9349663824,""
"33007848","Ruhethal b Bautzen, Ruhethal b Bautzen",14.5420080366,51.3332441136,""
"33007846","Lieske b Bautzen, Brücke",14.531494696200001,51.330235477799995,""
"33007845","Lieske b Bautzen, Muskauer Straße",14.5303602806,51.3283990143,""
"33008415","Lippen (Kr BZ), Denkmal",14.4641815383,51.378735763600005,""
"33007842","Neudorf (Spree), Lindengasse",14.545372199200001,51.31314948440001,""
"33006983","Driewitz, Driewitz",14.4340065637,51.3564061723,""
"33006984","Driewitz, Abzw Driewitz",14.431955928,51.3607910284,""
"33007840","Halbendorf (Spree), Geißlitzer Straße",14.5556953719,51.298602786400004,""
"33007755","Wessel (Sachsen), Wessel",14.455769891900001,51.3149922756,""
"33007828","Commerau b Klix, Gasthaus",14.5096488357,51.2933782108,""
"33006993","Litschen, Abzw Litschen",14.417542663199999,51.368227711699994,""
"33007760","Milkel, Teicha",14.4574197648,51.304798674400004,""
"33007750","Lippitsch, Lippitsch",14.440624723700001,51.3102026873,""
"33006994","Litschen, Litschen",14.4087690661,51.368534417599996,""
"33007762","Milkel, Schule",14.456049934400001,51.2979498981,""
"33007761","Milkel, Milkel",14.4530727706,51.2975178899,""
"33006986","Lohsa, Staumeisterei",14.404823138500001,51.3721666202,""
"33007820","Neusärchen, Gasthof",14.504256373399999,51.2807184921,""
"33006990","Lohsa, Ziegelteich",14.406854511899999,51.3848728031,""
"33007826","Spreewiese, Lindenstraße",14.5367083684,51.277546953,""
"33006989","Lohsa, Sparkasse",14.4058417368,51.3861072757,""
"33006988","Lohsa, Schule",14.4041352159,51.386169297200006,""
"33007822","Särchen, Abzw nach Särchen",14.516456828099999,51.2762851616,""
"33006995","Friedersdorf b HY, Am Silbersee",14.397919175799998,51.369512314999994,""
"33006987","Lohsa, Bahnhof",14.4004725488,51.3793310867,""
"33006999","Hermsdorf/Spree, Königswarthaer Straße",14.407672122400001,51.3254583665,""
"33006979","Friedersdorf b HY, Ort",14.393657903100001,51.360789245300005,""
"33006978","Dreiweibern, Wendeschleife",14.4157519674,51.4070298838,""
"33006977","Friedersdorf b HY, Campingplatz Silbersee",14.3901856566,51.3699401583,""
"33006996","Friedersdorf b HY, Friedersdorf b Lohsa",14.3875801256,51.3612729618,""
"33007836","Lömischau, Lömischau",14.570957700100001,51.2730142757,""
"33007747","Oppitz, Schlosserei",14.4175497554,51.303201850300006,""
"33006991","Lohsa, Siedlung",14.397612939899998,51.3952481281,""
"33007837","Wartha b Bautzen, b Bautzen",14.584261374999999,51.2743394106,""
"33007765","Droben, Abzw nach Droben",14.4416833977,51.2869228858,""
"33007764","Droben, Droben",14.434482818400001,51.2887541113,""
"33006998","Weißig b Hoyerswerda, Am Eichberg",14.389189243999999,51.3312222219,""
"33007824","Klix, Eichenweg",14.5250149793,51.2663731553,""
"33007823","Sdier, Feuerwehr",14.4932412793,51.267648071400004,""
"33007746","Oppitz, Gemeindeamt",14.4088030478,51.3026899921,""
"33007819","Sdier, Am Bahndamm",14.4952150426,51.2665181539,""
"33007745","Oppitz, Grüner Wald",14.401083901800002,51.3034509836,""
"33007814","Crosta, Dorf",14.4535794557,51.273413368,""
"33006980","Weißkollm, Grundschule",14.3949283495,51.4109726799,""
"33007815","Brehmen (Kr Bautzen), Brehmen",14.4721110742,51.266730005,""
"33007835","Guttau, Schule",14.5603927764,51.260875147700006,""
"33007818","Sdier, Kartoffellager",14.491473180499998,51.2601338552,""
"33007812","Crosta, Abzw nach Adolfshütte",14.456379585599999,51.268140241,""
"33007833","Guttau, Hauptstraße",14.5613460993,51.258435843700006,""
"33007832","Guttau, Abzw nach Brösa",14.5533369124,51.256633060999995,""
"33006981","Weißkollm, Gaststätte",14.391812740799999,51.4162775259,""
"33007839","Kleinsaubernitz, Kleinsaubernitz",14.598934138,51.2643585432,""
"33006982","Weißkollm, Kindergarten",14.389268936999999,51.4157450978,""
"33007834","Guttau, Anbau",14.572807798800001,51.257905581900005,""
"33007768","Lomske b Luppa, Lustiger Jäger",14.4319649634,51.2731275061,""
"33007813","Crosta, Adolfshütte",14.4469964637,51.2668624919,""
"33007699","Lomske b Neschwitz, Lomske b Neschwitz",14.425202535399999,51.272359879999996,""
"33007817","Zschillichau, Bautzener Straße",14.4876467706,51.2529600863,""
"33007831","Guttau, Gewerbegebiet",14.5435045903,51.249565038099995,""
"33007810","Großdubrau, Crostaer Straße",14.4599836909,51.2570064369,""
"33007809","Großdubrau, Sächsischer Jäger",14.462183575,51.2547395431,""
"33007816","Zschillichau, Jörcksberg",14.4871055504,51.247181808099995,""
"33007798","Camina, Grünbusch",14.428023276800001,51.2617108582,""
"33007796","Camina, Abzw Camina",14.4273232143,51.2563132534,""
"33007808","Großdubrau, Abzw Kleindubrau",14.4578696689,51.2463883717,""
"33007857","Malschwitz, Schule",14.5218139496,51.237493111300005,""
"33007785","Luppa b Bautzen, Sägewerk",14.394449813000001,51.27161787240001,""
"33007875","Buchwalde, Buchwalde",14.5789881019,51.240336905300005,""
"33007788","Luppedubrau, Dorf",14.3853510608,51.2760830769,""
"33007851","Briesing, Abzw Briesing",14.4834625475,51.2380620836,""
"33007784","Luppa b Bautzen, Gasthof",14.398491125700001,51.2658352962,""
"33007782","Neu-Brohna, Neu Brohna",14.4018469096,51.2609386974,""
"33007873","Dubrauke, Dubrauke",14.6093351266,51.2400323408,""
"33007856","Pließkowitz, Dorfplatz",14.5051363235,51.228402640199995,""
"33007871","Baruth b Bautzen, Arztpraxis",14.590598760599999,51.2323484288,""
"33007804","Jeschütz, Dorfplatz",14.461842911100002,51.2338891615,""
"33007855","Pließkowitz, Bautzener Straße",14.5063756747,51.2274950234,""
"33007792","Luttowitz, Luttowitz/Merka",14.4259594113,51.2423886542,""
"33007805","Quatitz, Dorfplatz",14.4493631584,51.232955493700004,""
"33007850","Niedergurig, Gasthaus",14.4789194738,51.226821620100004,""
"33007862","Preititz, Malschwitzer Straße",14.541536583700001,51.2229781009,""
"33007780","Brohna, Abzw Brohna",14.401357326400001,51.2493513609,""
"33007870","Baruth b Bautzen, Hauptstraße",14.5924052645,51.226275743399995,""
"33007853","Doberschütz(Malschw), Am Schafberg",14.496856573699999,51.2217290353,""
"33007863","Preititz, Im Winkel",14.545294474599999,51.219210267,""
"33007777","Radibor, Dorfplatz",14.398425824899999,51.2447725519,""
"33007861","Kleinbautzen, Agrar GmbH",14.5358741735,51.2166009308,""
"33007852","Niedergurig, Gewerbepark",14.4739127907,51.2210389556,""
"33007776","Radibor, Schule",14.395725930600001,51.2421577876,""
"33007791","Bornitz (b. Bautzen), Bornitz (b Bautzen)",14.410796282200002,51.2342693293,""
"33007867","Rackel, Baruther Straße",14.5832822201,51.2147360063,""
"33007790","Neu-Bornitz, Neubornitz",14.415831151399999,51.225139194200004,""
"33007662","Cölln (Radibor), Dorfplatz",14.3899941532,51.2266410393,""
"33007661","Cölln (Radibor), Goldene Höhe",14.3873957161,51.2234666185,""
"33007348","Cunewalde, ehem. Gemeindeamt",14.542331172599999,51.0939374463,""
"33007346","Cunewalde, Bielebohstraße",14.523623204000002,51.096995324999995,""
"33007350","Cunewalde, Abzw nach Kalkofen",14.5464569429,51.0967875193,""
"33007343","Cunewalde, Erlebnisbad",14.5132123043,51.097219764200005,""
"33007344","Cunewalde, Blaue Kugel",14.5184169425,51.100506120800006,""
"33007342","Cunewalde, ehem. Postamt",14.5067277929,51.0971792769,""
"33007345","Cunewalde, Schule",14.5192425202,51.102295428400005,""
"33007340","Cunewalde, Kirche",14.5018598943,51.098254611499996,""
"33007320","Wurbis, Gasthof",14.484506387400002,51.081920521200004,""
"33007341","Cunewalde, Deutsches Haus",14.497385035699999,51.0989437362,""
"33007321","Wurbis, Drei Linden",14.4749384857,51.0804963488,""
"33007337","Weigsdorf-Köblitz, Schule",14.4828625201,51.0970595971,""
"33007289","Taubenheim (Spree), Gastst. Grüner Baum",14.485239557,51.0564615889,""
"33007355","Halbau (Kr BZ), Gasthaus",14.5742871932,51.104529875,""
"33007338","Weigsdorf-Köblitz, A-Schweitzer-Siedlung",14.474633237099999,51.0940245883,""
"33007335","Weigsdorf-Köblitz, Busplatz",14.4764071452,51.097295513199995,""
"33007319","Carlsberg b Bautzen, Carlsberg b Bautzen",14.4675322627,51.090174012,""
"33007285","Taubenheim (Spree), Oberes Schloß",14.4821795746,51.0477967987,""
"33007325","Halbendorf (Gebirge), Halbendorf (Gebirge)",14.469491095499999,51.0977296119,""
"33007326","Halbendorf (Gebirge), Parkstraße",14.468329058999998,51.09735858730001,""
"33007328","Crostau, Bäcker",14.456125472299998,51.082089185300006,""
"33007324","Crostau, Alte Schmiede",14.4563657198,51.085006052000004,""
"33007288","Taubenheim (Spree), Hp",14.480814987,51.042548312600005,""
"33007287","Taubenheim (Spree), Busbahnhof",14.480645965199999,51.04258786570001,""
"33007322","Crostau, Gasthaus Grüne Aue",14.4541149156,51.0885956225,""
"33007327","Crostau, Schule",14.450097769,51.0833575674,""
"33007286","Taubenheim (Spree), Am Niederen Schloß",14.4662847551,51.0444654124,""
"33007332","Eulowitz, Neu Eulowitz",14.458585968200001,51.106671415799994,""
"33007316","Bederwitz, Bederwitz (Dorfstraße)",14.452769460899999,51.1006621597,""
"33007318","Callenberg b Bautzen, Oberdorf",14.4440236704,51.087000098000004,""
"33007980","Wuischke b Hochkirch, Wuischke b Hochkirch",14.5495611829,51.1324215424,""
"33007280","Sohland a d Spree, Weg nach Ellersdorf",14.4482574172,51.0563526563,""
"33007376","Großkunitz, Großkunitz",14.4852306194,51.1278827011,""
"33007269","Sohland a d Spree, Botanischer Garten",14.4543456733,51.046317273199996,""
"33007375","Cosul, Cosul",14.471641785,51.122776634,""
"33007317","Callenberg b Bautzen, Abzweig Ringstraße",14.4389506164,51.089066054,""
"33007330","Eulowitz, Erbgericht",14.4543419447,51.112280806,""
"33007311","Rodewitz/Spree, Erbgericht",14.4452780384,51.102922973999995,""
"33007279","Sohland a d Spree, Frühlingsbergschule",14.4438539851,51.0553570293,""
"33007943","Rachlau b Bautzen, Rachlau b Bautzen",14.5134339384,51.1373398586,""
"33007970","Sornßig, Sornßig",14.580706134,51.1302723571,""
"33007374","Cosul, Cosuler Siedlung",14.457034746000001,51.1175375821,""
"33007270","Sohland a d Spree, Taubenheimer Straße",14.4423126572,51.05344731700001,""
"33007942","Döhlen b Bautzen, Döhlen b Bautzen",14.496099708400001,51.1360211931,""
"33007292","Schirgiswalde, Markt",14.4311278715,51.076282821300005,""
"33007305","Kirschau, Siedlung",14.4346309471,51.0975982187,""
"33007978","Jauernick b Hochkir., Abzw Kinderheim",14.6066098868,51.1206077792,""
"33007940","Pielitz, Pielitz",14.489546558,51.136664455500004,""
"33007293","Schirgiswalde, Post",14.4293023344,51.080663208,""
"33007944","Rachlau b Bautzen, Abzw Weißig",14.5107727615,51.1417574724,""
"33007291","Schirgiswalde, Süd",14.429229629,51.067565572499994,""
"33007301","Kirschau, Spreebrücke",14.4300699493,51.0923078913,""
"33007294","Schirgiswalde, König-Albert-Eiche",14.427540463,51.079180445,""
"33007267","Sohland a d Spree, Weg zum Bahnhof",14.4340360341,51.0555620651,""
"33007290","Schirgiswalde, Petersbach",14.430874228699999,51.061103143,""
"33007982","Meschwitz, Meschwitz",14.5373871132,51.143628055,""
"33007298","Schirgiswalde, Marienplatz",14.426456424400001,51.0767395762,""
"33007303","Kirschau, Sparkasse",14.4286472826,51.0921306959,""
"33007295","Schirgiswalde, Bahnhof",14.4263201798,51.0806802377,""
"33007302","Kirschau, Post",14.4278403852,51.0925340584,""
"33007360","Großpostwitz, Niederdorf",14.4430596041,51.115277336,""
"33007300","Kirschau, Ärztehaus",14.4260172333,51.086889958300006,""
"33007363","Großpostwitz, Lessing-Schule",14.4462918629,51.1185991107,""
"33007975","Lehn b Hochkirch, Am Gestüt",14.6005528885,51.1287444568,""
"33007268","Sohland a d Spree, Bahnhof",14.4313559842,51.0539636353,""
"33007266","Sohland a d Spree, Kreuzstraße",14.4279114827,51.0557434932,""
"33007273","Sohland a d Spree, Schluckenauer Straße",14.4319113984,51.0485038126,""
"33007299","Schirgiswalde, Bauernstraße",14.4209662499,51.0762781058,""
"33007304","Kirschau, Vegro",14.422281660800001,51.0929820983,""
"33007272","Sohland a d Spree, Rathaus",14.4298381759,51.048951541799994,""
"33007271","Sohland a d Spree, Schule",14.427116258100002,51.050905144,""
"33007379","Mehltheuer b Bautzen, Mehltheuer b Bautzen",14.4766325336,51.140750827,""
"33007364","Großpostwitz, Bahnhofstraße",14.4402079761,51.1210638452,""
"33007362","Großpostwitz, Pilgerschänke",14.4403952511,51.1216353226,""
"33007973","Plotzen, An der Molkerei",14.5951867965,51.137261041,""
"33007941","Soritz, Meschwitzer Straße",14.5220704504,51.150270973800005,""
"33007972","Plotzen, Gasthof",14.596089549,51.1380681285,""
"33007974","Lehn b Hochkirch, Zur Windmühle",14.6060008744,51.1338916139,""
"33007967","Neukuppritz, Neukuppritz",14.5831715679,51.143461087999995,""
"33007945","Soritz, Soritz",14.512591733399999,51.150771832,""
"33007365","Berge (OL), Berge (OL)",14.4301373435,51.1169942789,""
"33007964","Hochkirch, August-Bebel-Platz",14.5714093456,51.148098927199996,""
"33007963","Hochkirch, Schlüssel",14.5526858595,51.1517550067,""
"33007961","Steindörfel, Schmiede",14.5435122979,51.1536452454,""
"33007946","Blösa, Ortsmitte",14.5016913801,51.1519496754,""
"33007296","Neuschirgiswalde, Fuchsberg",14.409948633600001,51.0743572199,""
"33007965","Hochkirch, Schule",14.5716749897,51.150304770700004,""
"33007367","Rascha, Zum Drohmberg",14.441250766,51.1316238146,""
"33007968","Kuppritz, Kuppritz",14.5825396356,51.149291989599995,""
"33007954","Scheckwitz, Scheckwitz",14.515197074,51.1558313937,""
"33007377","Binnewitz b Bautzen, Binnewitz b Bautzen",14.4604337181,51.143853071600006,""
"33007958","Jenkwitz, Abzw Jenkwitz Waldsiedlung",14.492185195800001,51.153807023999995,""
"33007265","Sohland a d Spree, Pilzdörfel",14.4093560944,51.054716261299994,""
"33007955","Waditz, Abzw nach Waditz",14.5248548596,51.1585900244,""
"33007274","Sohland a d Spree, Konservenfabrik",14.417158179800001,51.0407366285,""
"33007947","Rieschen, Rieschen",14.4831752199,51.1537380815,""
"33007397","Lehn b Obergurig, Lehn b Obergurig",14.422229268199999,51.123101157499995,""
"33007956","Waditz, Waditz",14.531775757299998,51.1609576559,""
"33007370","Ebendörfel, B96",14.4415389456,51.139520383599994,""
"33007400","Wilthen, Vorwerkstraße",14.4023337231,51.0986983656,""
"33007995","Breitendorf (Sachs), Bahnhof",14.6219735684,51.1388747657,""
"33007938","Daranitz, Daranitz",14.4781559561,51.1553100623,""
"33007297","Neuschirgiswalde, Frische Quelle",14.396840324200001,51.0739346732,""
"33007939","Grubditz, Grubditz",14.4564979615,51.149671767600005,""
"33007985","Pommritz, Bahnhof",14.575334314500001,51.159025989300005,""
"33007996","Breitendorf (Sachs), Breitendorf Bus",14.6235935033,51.1407264518,""
"33007993","Kohlwesa, Kohlwesa",14.596725275699999,51.15371571000001,""
"33007263","Wehrsdorf (Sachs), Eltwerk",14.3993947659,51.054354940900005,""
"33007951","Kubschütz, Kubschütz B6",14.5068045509,51.1634648267,""
"33007380","Mönchswalde, Wendeplatz",14.4142799739,51.125171640299996,""
"33007401","Wilthen, Schule",14.3969277314,51.1001849384,""
"33007275","Sohland a d Spree, Pachterhof",14.408858009500001,51.03688039320001,""
"33007402","Wilthen, Mönchswalder Straße",14.3975546661,51.102365735099994,""
"33007398","Großdöbschütz, Großdöbschütz",14.4196257877,51.130958775500005,""
"33007278","Sohland a d Spree, Tännicht",14.4006362928,51.0469212696,""
"33007950","Kubschütz, Bahnhof",14.5086942878,51.165087522200004,""
"33007937","Grubditz, Jeßnitz/Gebirge",14.4630118906,51.1552256189,""
"33007371","Ebendörfel, Gewerbepark",14.439384116,51.146353150399996,""
"33007404","Wilthen, Handelszentrum",14.392203053800001,51.0966226804,""
"33007952","Kubschütz, Einkaufszentrum",14.504290848099998,51.1658922009,""
"33007960","Rabitz, Ortsmitte",14.474713400699999,51.1604356398,""
"33007407","Wilthen, Bahnhof",14.3904199911,51.093611428399996,""
"33007936","Soculahora, Soculahora",14.4588409405,51.156635036000004,""
"33007411","Wilthen, Bahnhofstraße",14.3886767205,51.0946899737,""
"33007953","Kubschütz, Niederdorf",14.5049811188,51.1686015259,""
"33007519","Bautzen, Zwei Linden",14.4370759874,51.149476025400006,""
"33007382","Obergurig, Gemeindeamt",14.408343587400001,51.1294207347,""
"33007403","Wilthen, Haus Bergland",14.3870375847,51.0980679082,""
"33007935","Rabitz, Rabitz",14.4723417148,51.163407726100004,""
"33007406","Wilthen, Kunststoffwerk",14.385991118000002,51.095769761,""
"33007381","Obergurig, Schule",14.4080114807,51.1310008974,""
"33007276","Sohland a d Spree, Oberdorf",14.400605991599999,51.029516287599996,""
"33007277","Wehrsdorf (Sachs), Grundschule",14.383394735900001,51.055563628,""
"33007948","Jenkwitz, An der B6",14.484768405899999,51.1695454134,""
"33007384","Obergurig, Fortschrittstraße",14.4074461515,51.1346896141,""
"33007419","Irgersdorf, Irgersdorf",14.3864740581,51.10929943439999,""
"33007261","Wehrsdorf (Sachs), Erbgericht",14.383117670499999,51.0537801817,""
"33007383","Obergurig, Siedlung",14.403520205300001,51.1320103806,""
"33007900","Zschorna b Bautzen, Zschorna b Bautzen",14.622071268700001,51.1572315478,""
"33007987","Rodewitz b Hochkirch, Kulturhaus",14.5859332122,51.169580687300005,""
"33007949","Jenkwitz, Dorf",14.488655733,51.1724205721,""
"33007518","Bautzen, Oberkainaer Straße",14.432892153000001,51.155263107399996,""
"33007929","Baschütz, Schule",14.5005893089,51.175968856,""
"33007524","Bautzen, Thrombergsiedlung",14.4470986081,51.16275221749999,""
"33007901","Spittel, Spittel",14.640811388900001,51.150417198,""
"33007988","Rodewitz b Hochkirch, Abzw Niethen",14.593791403,51.1702157206,""
"33007957","Canitz-Christina, Canitz-Christina",14.5248204311,51.178369893500005,""
"33007934","Auritz, Auritz",14.467409766500001,51.1703896235,""
"33007927","Baschütz, Baschütz Hauptstraße",14.4976021477,51.1765361859,""
"33007393","Singwitz, Mittelstraße",14.404913539599999,51.140396709399994,""
"33007394","Singwitz, Kaufhalle",14.403268057899998,51.1403586367,""
"33007516","Bautzen, Abzw nach Boblitz",14.413968970099999,51.1490565446,""
"33007883","Drehsa, Kumschützer Straße",14.5621162662,51.178493383299994,""
"33007526","Bautzen, Abzw Naturpark",14.450249856400001,51.16717241240001,""
"33007391","Singwitz, Dorf",14.4018999695,51.141258828800005,""
"33007385","Schwarznaußlitz, Dorfplatz",14.3923918296,51.1331647473,""
"33007527","Bautzen, Gneisenau-/Yorckstraße",14.4512788288,51.1687781012,""
"33007523","Bautzen, Privatweg",14.441499414299999,51.165296717100006,""
"33007933","Auritz, Abzw Auritz",14.467877019400001,51.174317564700004,""
"33007392","Singwitz, Siedlung",14.405589041299999,51.146514239800005,""
"33007959","Kumschütz, Kumschütz",14.539636505599999,51.1827509755,""
"33007525","Bautzen, Czornebohstraße",14.444735715,51.1680880186,""
"33007884","Drehsa, Am Haik",14.570197740700001,51.1808063537,""
"33007569","Bautzen, Andritzkistraße",14.4590062393,51.1737133558,""
"33007928","Baschütz, Abzw Baschütz",14.4976277174,51.1822985231,""
"33007568","Bautzen, Carolagarten",14.4617648533,51.1755612586,""
"33007586","Bautzen, Thrombergstraße",14.4403789739,51.1684487716,""
"33007528","Bautzen, Spittelwiesenweg",14.4461658001,51.171330603200005,""
"33007517","Bautzen, Fleischwerk",14.4281718019,51.1639201148,""
"33007925","Zieschütz, Abzw Zieschütz",14.4849162554,51.1815984559,""
"33007522","Bautzen, Dr-P-Jordan-Straße",14.438711907299998,51.168834189600005,""
"33007930","Neupurschwitz, Flugplatz",14.506830566400001,51.1847627111,""
"33007533","Bautzen, E-Weinert-Str/Hochhaus",14.4536472759,51.1751385656,""
"33007567","Bautzen, E-Weinert-Str/B6",14.457730187800001,51.1771475561,""
"33007508","Bautzen, Abzw Preuschwitz",14.4196441124,51.162173020400004,""
"33007521","Bautzen, Husarenhof",14.435830299700001,51.170323745400005,""
"33007918","Lauske b Weißenberg, Lauske b Weißenberg",14.6189386528,51.1738535882,""
"33007529","Bautzen, Goethestraße/Autohof",14.4444664683,51.174620673599996,""
"33007931","Neupurschwitz, Az Kumschütz",14.5202551601,51.1888074703,""
"33007468","Preuschwitz, Preuschwitz",14.4080928003,51.1586356287,""
"33007513","Bautzen, Gewerbepark Wilthener Straße",14.4222830444,51.166964169399996,""
"33007520","Bautzen, Karl-Liebknecht-Straße",14.4367308577,51.1732987718,""
"33007531","Bautzen, P-Neck-Straße/Bäckerei",14.4462525577,51.1770197045,""
"33007512","Bautzen, Zeppelinstraße",14.4250594197,51.168641742000005,""
"33007530","Bautzen, E-Pfaff-Straße",14.4408100414,51.175254483,""
"33007467","Doberschau, Karl-Liebknecht-Straße",14.398447322100001,51.1537723921,""
"33007466","Doberschau, Blumenstraße",14.4019333719,51.1562091102,""
"33007465","Doberschau, Karl-Marx-Straße",14.396108944300002,51.1527864652,""
"33007532","Bautzen, Mozartstraße",14.44746737,51.178351824399996,""
"33007514","Bautzen, Preuschwitzer Straße",14.416948122900001,51.166121626300004,""
"33007473","Doberschau, Fabrikstraße",14.395382819399998,51.153394712300006,""
"33007463","Schlungwitz, Gnaschwitzer Straße",14.386594905,51.1479285592,""
"33007500","Bautzen, Bahnhof",14.4286975541,51.1731063424,""
"33007510","Bautzen, Bahnhof/Taucherstraße",14.4299958137,51.173861523,""
"33007534","Bautzen, Löbauer/Hegelstraße",14.4454360584,51.179967653400006,""
"33007504","Bautzen, Neusalzaer Straße",14.424132121600001,51.171681738900006,""
"33007511","Bautzen, Bahnhof/Tzschirnerstraße",14.4290510399,51.1738451978,""
"33007880","Belgern b Bautzen, Abzw nach Belgern",14.5528594167,51.1929369177,""
"33007886","Wurschen, Schloßweg",14.579404964999998,51.1901964859,""
"33007501","Bautzen, August-Bebel-Platz (ZOB)",14.4341433961,51.1771196468,""
"33007882","Drehsa, Abzw Drehsa",14.564931462999999,51.1926097412,""
"33007509","Bautzen, Packhofstraße",14.423804715400001,51.1738911664,""
"33007557","Bautzen, Postplatz",14.4290748887,51.1770183007,""
"33007555","Bautzen, Taucherstraße/Friedhof",14.437441866899999,51.1805391798,""
"33007538","Bautzen, Niederkaina ehem Herrenh",14.476061312299999,51.191190328000005,""
"33007913","Nostitz, Stall",14.667746701199999,51.159146795800005,""
"33007556","Bautzen, Wall-/Weigangstraße",14.4337877746,51.1795994023,""
"33007535","Bautzen, Thomas-Müntzer-Straße",14.4474566782,51.184357624,""
"33007920","Kreckwitz, Abzw nach Kreckwitz",14.4963383213,51.1946969169,""
"33007537","Bautzen, Niederkaina ehem. Gasthof",14.4664896153,51.1901160255,""
"33007897","Kotitz, Ort",14.617601628600001,51.184582397499994,""
"33007915","Särka, Anbau",14.654846266000002,51.169033652100005,""
"33007922","Litten (Kubschütz), Litten",14.5091594643,51.1973443429,""
"33007916","Särka, Dorf",14.634834278800001,51.17871992170001,""
"33007898","Kotitz, Abzw nach Oberkotitz",14.6195278515,51.1847460323,""
"33007553","Bautzen, Ziegelwall",14.435654276000001,51.1827161459,""
"33007912","Nostitz, Abzw nach Grube",14.6727907899,51.159588971800005,""
"33007558","Bautzen, Kornmarkt",14.427707483999999,51.1803911202,""
"33007502","Bautzen, Lauengraben",14.425956105,51.1797262312,""
"33007591","Bautzen, Dieselstraße",14.415166087,51.174977994799995,""
"33007536","Bautzen, Marktkauf",14.4557285625,51.1900728547,""
"33007579","Bautzen, Muskauer Straße",14.434432283900001,51.1836855879,""
"33007560","Bautzen, Reichenturm",14.4279709105,51.1813206461,""
"33007575","Bautzen, Bautzen List-/Muskauer Straße",14.4377455351,51.185207838500006,""
"33007593","Bautzen, Abzw Waggonbau",14.407509215500001,51.1726815807,""
"33007552","Bautzen, Max-Planck-Str.",14.4399816109,51.186374888399996,""
"33007592","Bautzen, Spreebad",14.410707224000001,51.1744946525,""
"33007450","Grubschütz, Abzw Doberschau",14.386822164,51.1606362468,""
"33007451","Grubschütz, Spreetal",14.389675851700002,51.162735616199996,""
"33007561","Bautzen, Stadtwall",14.4303470053,51.1837975616,""
"33007545","Bautzen, Gesundbrunnenring",14.4512255266,51.1906798095,""
"33007551","Bautzen, Schäfferstraße",14.4343126363,51.185486151400006,""
"33007889","Nechern, Dorf",14.5985233457,51.1940795693,""
"33007590","Bautzen, Albert-Schweitzer-Straße",14.4165058815,51.178717259900004,""
"33007562","Bautzen, Vor dem Schülertor",14.4266902995,51.183082374799994,""
"33007549","Bautzen, Jan-Skala-Straße",14.4500936847,51.191189015800006,""
"33007596","Bautzen, Sorbisches Schulzentrum",14.434680046,51.1864854204,""
"33007594","Bautzen, Uhlandstraße",14.4026850115,51.1725920424,""
"33007503","Bautzen, W-Fiebiger-Straße",14.4140027605,51.1792634459,""
"33007923","Purschwitz, Dorfmitte",14.5232420832,51.2034065027,""
"33007563","Bautzen, Gerberstraße",14.4237857362,51.184158541799995,""
"33007507","Bautzen, Fiedlerstraße",14.4151504397,51.1806961751,""
"33007546","Bautzen, Kaufland",14.4464464807,51.1925600079,""
"33007911","Nostitz, Kirche",14.676610792400002,51.1648150787,""
"33007550","Bautzen, Gareisstraße",14.4366507298,51.1896719006,""
"33007587","Bautzen, Schützenplatz",14.424783870099999,51.1854594238,""
"33007548","Bautzen, Förderschule",14.437442696100002,51.190581398099994,""
"33007540","Bautzen, Burker Straße",14.4629907137,51.1977417198,""
"33007924","Purschwitz, Zur Autobahn",14.529666952200001,51.205218599,""
"33007566","Bautzen, Breitscheidstraße",14.4310833336,51.1888168491,""
"33007595","Bautzen, Neukircher Straße",14.3917565048,51.1706135335,""
"33007547","Bautzen, Albert-Einstein-Straße",14.441555369500001,51.1925993242,""
"33007565","Bautzen, Am Kupferhammer",14.426154224100001,51.188397806299996,""
"33007899","Kotitz, Niederkotitz",14.6377721095,51.1875813909,""
"33007544","Bautzen, Schullandheim",14.461009043099999,51.1989522,""
"33007564","Bautzen, Spreegasse",14.4216135643,51.1869276311,""
"33007588","Bautzen, Fichteschule",14.414950232299999,51.184799903800005,""
"33007541","Bautzen, Ferienpark",14.465392963600001,51.2017277705,""
"33007505","Bautzen, Umspannwerk",14.400954199900001,51.1797389513,""
"33007574","Bautzen, Salzenforster Straße",14.4144247989,51.186788629400006,""
"33007865","Cannewitz b Bautzen, Rackeler Straße",14.569493706100001,51.2069663416,""
"33007573","Bautzen, Abzw Teichnitz",14.418922003599999,51.1887994013,""
"33007860","Kleinbautzen, Schmiede",14.529714411599999,51.2110433964,""
"33007580","Bautzen, Stiebitz Gasthof",14.3939357054,51.1795502485,""
"33007895","Weicha, Abzw nach Weicha",14.623404297199999,51.197830375100004,""
"33007506","Bautzen, Pflegeheim",14.4051048075,51.1852815711,""
"33007570","Bautzen, Oehna",14.444290601099999,51.199941235100006,""
"33007578","Bautzen, Abzw Seidau",14.4121553531,51.191816116199995,""
"33007543","Bautzen, Burk Talsperre",14.471536588600001,51.209024119999995,""
"33007572","Bautzen, Teichnitz",14.4195325856,51.1949900936,""
"33007582","Bautzen, Rattwitz",14.3908905452,51.18289402959999,""
"33007878","Brießnitz, Abzw Brießnitz",14.6062897661,51.2077072415,""
"33007893","Gröditz b Bautzen, An der Skala",14.6228902869,51.2033891211,""
"33007571","Bautzen, Abzw Neumalsitz",14.428056077499999,51.200621143300005,""
"33007902","Weißenberg b Bautzen, ehem. Bahnhof",14.6522708599,51.193915415,""
"33007896","Weicha, Weicha",14.637656484999999,51.199829267,""
"33007908","Maltitz b Löbau, Siedlung",14.684017091300001,51.179075379100006,""
"33007907","Maltitz b Löbau, Dorfmitte",14.6790002083,51.1823462198,""
"33007598","Bautzen, Kornblumenweg",14.4152812528,51.19796389019999,""
"33007891","Cortnitz, Abzw nach Cortnitz",14.6125087079,51.208593370500004,""
"33007577","Bautzen, Hoyerswerdaer Straße",14.4094266221,51.196277638,""
"33007906","Maltitz b Löbau, Sägewerk",14.674900627,51.18565878530001,""
"33007892","Gröditz b Bautzen, Am Wasserhaus",14.6204147856,51.2076792101,""
"33007659","Bautzen, Neumalsitz",14.4350910668,51.2062106693,""
"33007877","Brießnitz, Am Berg",14.6058997982,51.2116987622,""
"33007903","Weißenberg b Bautzen, Markt",14.6587227247,51.19712237940001,""
"33007904","Weißenberg b Bautzen, Schützenhaus",14.6625169001,51.1964156695,""
"33007599","Bautzen, Industriegebiet Nord",14.4152192277,51.204707905099994,""
"33007657","Temritz, Temritz",14.393109176000001,51.195893552,""
"33007656","Kleinseidau, Kleinseidau",14.393423495799999,51.207196890599995,""
"33007658","Lubachau, Gasthof",14.4118666257,51.2147653294,""
"33007654","Kleinwelka, Großdubrauer Straße",14.3988684014,51.21089718620001,""
"33007653","Kleinwelka, Hauptstraße",14.3931877434,51.211481084700004,""
"33007652","Kleinwelka, Gasthof",14.3931460396,51.2128844198,""
"33006165","Zeisholz, Feuerwehr",13.8970504109,51.3711205064,""
"33006160","Cosel, Kirche",13.937902477,51.37806560600001,""
"33006115","Schwepnitz, Industriegebiet",13.9487192768,51.3331003908,""
"33006140","Grüngräbchen, Gärtnerei",13.964990437700001,51.3471397377,""
"33006141","Grüngräbchen, Grüner Weg",13.973403944600001,51.356194513800006,""
"33006113","Schwepnitz, Industriestraße",13.944608171699999,51.323783683399995,""
"33006114","Schwepnitz, Kirche",13.9587258896,51.3315220183,""
"33006142","Grüngräbchen, Bernsdorfer Straße",13.9756994795,51.3594909155,""
"33006116","Schwepnitz, Heideweg",13.964272990300001,51.3283546372,""
"33005319","Naundorf b Ortrand, Naundorf bei Ortrand",13.826856309799998,51.357242432199996,""
"33006117","Schwepnitz, Schule",13.9669013914,51.327744157800005,""
"33006112","Schmorkau b Königsbr, Gasthaus",13.9146313358,51.29920608489999,""
"33005315","Lüttichau, Dorf",13.8121188657,51.335618316200005,""
"33006111","Schmorkau b Königsbr, Weißbacher Straße",13.9184245978,51.2949188756,""
"33006199","Gottschdorf, Neukircher Straße",13.968256256599998,51.30711727,""
"33006131","Bulleritz, Hauptstraße",14.008881995600001,51.3348791237,""
"33006121","Großgrabe, Dresdner Straße",14.0154944391,51.3485375271,""
"33006122","Großgrabe, Lindengarten",14.016766494,51.3480841197,""
"33005316","Lüttichau, Anbau",13.8060917475,51.325769209,""
"33005305","Böhla bei Ortrand, bei Ortrand",13.7879562748,51.3582114894,""
"33006130","Bulleritz, Abzw Gottschdorf",14.014708725399998,51.327686176899995,""
"33006150","Röhrsdorf (b Kamenz), Park",13.8293325675,51.2965072893,""
"33006902","Wiednitz, Agrargenossenschaft",14.023952816000001,51.389950405200004,""
"33006119","Königsbrück, Neues Lager",13.899371089099999,51.27899456949999,""
"33006196","Neukirch b Königsbr., Mühle",13.977172871399999,51.2920082543,""
"33006109","Weißbach b Königsbr., Dorfstraße",13.9272702572,51.2794912567,""
"33006903","Wiednitz, Mitte",14.0312437295,51.3871722516,""
"33006920","Bernsdorf (OL), Waldhof",14.0391746335,51.358420557,""
"33006151","Röhrsdorf (b Kamenz), Ortseingang",13.8220342899,51.2943378282,""
"33005310","Ponickau, Kirche",13.7715746557,51.3414886773,""
"33005311","Ponickau, Schule",13.7693269287,51.344614996100006,""
"33006907","Wiednitz, Lessingstraße",14.0295011549,51.3990866486,""
"33006120","Königsbrück, Turnhalle",13.9083031581,51.2717924266,""
"33006319","Schönbach (b Kamenz), Schönbach",14.028630714499998,51.3147703187,""
"33006195","Neukirch b Königsbr., Kamenzer Straße",13.9799920297,51.2832226643,""
"33006108","Königsbrück, Am Lindenberg",13.912343243199999,51.2700364224,""
"33006905","Wiednitz, Bahnhof",14.038677552,51.3931200186,""
"33005300","Kraußnitz, Am Bahnübergang",13.761413173400001,51.3684301064,""
"33005497","Stölpchen, Stölpchen",13.784880008400002,51.308996787400005,""
"33005302","Kraußnitz, Grenzweg",13.761194538,51.370590821,""
"33006921","Bernsdorf (OL), Bahnhof",14.0519749247,51.3633929125,""
"33006107","Königsbrück, Bergstraße",13.9065200309,51.2671469183,""
"33005301","Kraußnitz, Dorfstraße",13.758312847700001,51.3632269647,""
"33006336","Rohrbach b Kamenz, Rohrbach b Kamenz",14.007164975699999,51.291632498700004,""
"33006098","Königsbrück, Stenz Schule",13.885999199399999,51.2664277349,""
"33006100","Königsbrück, Weißbacher Straße",13.9055740282,51.264717165200004,""
"33006104","Königsbrück, Hohenthalstraße",13.909932818100001,51.264439329300004,""
"33006105","Königsbrück, Schule",13.909206599200001,51.263857869999995,""
"33006191","Koitzsch, Ort",13.966769749400001,51.270680381300004,""
"33006106","Königsbrück, Abzw Reichenau",13.9424615681,51.2638138784,""
"33006097","Glauschnitz, Glauschnitz",13.8464763608,51.26779530380001,""
"33006102","Königsbrück, Feierabendheim",13.8965943931,51.2603053649,""
"33006101","Königsbrück, Bahnhof",13.899655835299999,51.2601927675,""
"33006332","Brauna, Weg nach Petershain",14.014365155199998,51.2864565789,""
"33005492","Sacka, Stölpchener Straße",13.791785516500001,51.289294368700006,""
"33006182","Reichenau a d Pulsn., Siedlung",13.9471537353,51.260922125700006,""
"33006314","Cunnersdorf b Kamenz, Gärtnerei",14.0472776468,51.307334784700004,""
"33006313","Cunnersdorf b Kamenz, Kindergarten",14.0522145491,51.311581347200004,""
"33005491","Sacka, Gasthof",13.792525348700002,51.28399725720001,""
"33006183","Reichenau a d Pulsn., Wendeplatz",13.9499267533,51.2587364064,""
"33006335","Petershain b Kamenz, Petershain b Kamenz",14.0149582251,51.279047860599995,""
"33005490","Sacka, Radeburger Straße",13.7922615368,51.277223266700005,""
"33006181","Reichenau a d Pulsn., Gasthof",13.957534402099999,51.2546898704,""
"33006099","Gräfenhain (Königsbrück), Gräfenhain",13.930540086699999,51.2501402264,""
"33006334","Liebenau (Kr Kamenz), Agrargenossenschaft",14.0516831161,51.297422904099996,""
"33006180","Reichenau a d Pulsn., Bergstraße",13.9634698867,51.2547971619,""
"33005485","Welxande, Stölpchener Straße",13.7549906534,51.2988593254,""
"33006090","Laußnitz (Sachs), Bahnhof",13.8790487038,51.247796340899995,""
"33006329","Brauna, Schule",14.0351800562,51.280280059,""
"33005476","Tauscha b Großenhain, Dorf",13.804448267600002,51.2652597749,""
"33006338","Brauna, Abzw Liebenau",14.045468945,51.286986765799995,""
"33006091","Laußnitz (Sachs), Schule",13.8804016189,51.2469026127,""
"33006330","Brauna, Königsbrücker Straße",14.0392433912,51.280110424600004,""
"33005475","Tauscha b Großenhain, Abzw Dobra",13.7919463844,51.268022904599995,""
"33006331","Schwosdorf, Schwosdorf Ort",14.0243970988,51.269113124,""
"33005477","Tauscha b Großenhain, Anbau",13.8035606583,51.257596453400005,""
"33006339","Schwosdorf, Landstraße",14.0199845738,51.2616290451,""
"33006172","Reichenbach (Kr BZ), Berggäßchen",13.9780139785,51.24686597230001,""
"33006171","Reichenbach (Kr BZ), Gaststätte",13.9798856748,51.2450903084,""
"33006174","Reichenbach (Kr BZ), Häslicher Weg",13.9806404295,51.24432239710001,""
"33006170","Reichenbach (Kr BZ), Sägewerk",13.988198859399999,51.2399150724,""
"33005466","Dobra (b Großenhain), Dobra",13.7736953721,51.2588531097,""
"33006342","Häslich, Bergstraße",14.007044701700002,51.24548149140001,""
"33006341","Häslich, Dorfstraße",14.0164436713,51.2442410786,""
"33005474","Kleinnaundorf/Kr MEI, Gasthof",13.7899640252,51.245408793200006,""
"33006080","Höckendorf (Kr BZ), Wendeplatz",13.9071484812,51.2241843394,""
"33005465","Kleinnaundorf/Kr MEI, Feldmühle",13.7804966372,51.249113102799996,""
"33006065","Oberlichtenau/Lausi., Uferweg",13.9901142313,51.2338593924,""
"33006081","Höckendorf (Kr BZ), Kirche",13.9189417148,51.2223822935,""
"33005473","Kleinnaundorf/Kr MEI, Kurzer Weg",13.7850508629,51.2446568368,""
"33006348","Bischheim (Sachs), Niederdorf",14.025154969999999,51.2423555633,""
"33006064","Oberlichtenau/Lausi., Pulsnitztal",13.990227057099998,51.229839067700006,""
"33005470","Würschnitz, Würschnitz",13.7941151327,51.2354118157,""
"33005460","Zschorna b Großenh., Freibad",13.752615704999998,51.2530759631,""
"33006347","Bischheim (Sachs), Schulstraße",14.0320103346,51.238020476799996,""
"33006346","Bischheim (Sachs), Am Park",14.037174941,51.238874566099994,""
"33006063","Oberlichtenau/Lausi., Lindengasthof",13.9908460748,51.220299418900005,""
"33006345","Bischheim (Sachs), Oberdorf",14.042991325600001,51.235365994999995,""
"33006061","Oberlichtenau/Lausi., An der Pulsnitz",13.9928313189,51.2178743367,""
"33006060","Oberlichtenau/Lausi., Weißbacher Straße",13.999268431800001,51.2151304735,""
"33006367","Gersdorf (b Kamenz), Viadukt",14.0483376792,51.2309663808,""
"33006361","Gersdorf (b Kamenz), Bahnhof",14.046110132299999,51.228524189,""
"33006366","Gersdorf (b Kamenz), Siedlung",14.0464446778,51.227996927899994,""
"33006267","Steina b Pulsnitz, Weißbach bei Pulsnitz",14.0329516212,51.2142261561,""
"33006947","Saalau, Saalau",14.2334631001,51.3617165222,""
"33006945","Sollschwitz (b Kamenz), Sollschwitz (b Hoyerswerda)",14.2155305932,51.348689361699996,""
"33006383","Liebegast, Liebegast",14.197100462,51.3625394159,""
"33006949","Kotten (Sachs), ehem Schule",14.2441748312,51.354068066100005,""
"33006948","Kotten (Sachs), Kotten Dorf",14.2465084723,51.350706040000006,""
"33006940","Dubring, Abzw Dubring/Liebegast",14.19203027,51.370932032599995,""
"33006934","Wittichenau, Bad",14.217051233300001,51.380763246600004,""
"33006933","Wittichenau, An der Tankstelle",14.225364971700001,51.3818641125,""
"33006932","Wittichenau, Siedlung",14.2322868364,51.38299093329999,""
"33006935","Wittichenau, Zum alten Bahnhof",14.2386974964,51.381879663300005,""
"33006381","Oßling, Abzw Scheckthal",14.1762886513,51.365175569099996,""
"33006385","Trado, Trado",14.202863132400001,51.33360973279999,""
"33006384","Skaska, Skaska",14.1792419539,51.345415016000004,""
"33006941","Dubring, Dubring",14.1835190904,51.3785975247,""
"33006937","Wittichenau, Vorstadt",14.255384435099998,51.377073496399994,""
"33006942","Hoske, Hoske",14.2645735838,51.36476877810001,""
"33006936","Wittichenau, Brauerei-Gasthaus",14.2500575007,51.3818057582,""
"33006930","Wittichenau, Markt",14.2436187657,51.3852735279,""
"33006931","Wittichenau, Schule",14.241801084799999,51.38629722299999,""
"33006380","Oßling, Oßling",14.167056384699999,51.3600428536,""
"33006938","Keula, Keula",14.2434158305,51.3908151529,""
"33006955","Brischko, Brischko",14.262823637699999,51.3822789365,""
"33006475","Schönau b Kamenz, Wittichenauer Straße",14.2265878023,51.323298922199996,""
"33006476","Schönau b Kamenz, Reichenstraße",14.227194578899999,51.3227929329,""
"33006946","Rachlau (Kr BZ), Brücke",14.2777376795,51.3571506674,""
"33006382","Scheckthal, Abzw Dubring",14.1647244646,51.3781823661,""
"33006474","Cunnewitz, Cunnewitz",14.235941586800001,51.3226890831,""
"33006943","Rachlau (Kr BZ), Gasthaus",14.279688714999999,51.3545146029,""
"33006386","Döbra (b Kamenz), Döbra",14.1720136907,51.3334131238,""
"33006944","Rachlau (Kr BZ), Am Spielplatz",14.2814300007,51.3551729054,""
"33006395","Lieske b Oßling, Lieske (b Oßling)",14.1442366579,51.3550601839,""
"33006929","Zeißholz, Grube-Clara-Straße",14.1472845162,51.3812273673,""
"33006388","Milstrich, Mittelstraße",14.158357793699999,51.3252962273,""
"33007725","Commerau (Königsw.), Ausbau",14.293124841,51.3386546108,""
"33006928","Zeißholz, Dorf",14.1415363991,51.3784199684,""
"33006389","Milstrich, Forsthaus",14.153032663400001,51.327704682,""
"33007728","Truppen, Truppen",14.2864290615,51.326397425699994,""
"33008137","Bröthen/Michalken, Dubringer Moor",14.1997390472,51.413066339699995,""
"33007727","Commerau (Königsw.), Abzw Truppen",14.296554940200002,51.334919453299996,""
"33006950","Spohla, Spohla",14.2699168295,51.4057040712,""
"33006392","Weißig (Oßling), Steinbruch",14.1309399434,51.3442006429,""
"33006927","Zeißholz, Siedlung",14.1334676638,51.3803651996,""
"33008136","Bröthen/Michalken, Am Anger",14.1973181826,51.4150445749,""
"33006464","Schmerlitz, Schmerlitz",14.214985430699999,51.302266967200005,""
"33006959","Dörgenhausen/Hoyersw, Dorf",14.2289260911,51.416398114,""
"33007726","Commerau (Königsw.), Dorfplatz",14.3008399242,51.3342239814,""
"33006967","Groß Särchen, Cafe",14.3102032895,51.3654415251,""
"33006466","Laske, Laske",14.228900004400002,51.301157707200005,""
"33006966","Groß Särchen, Schule",14.3126839333,51.369923486000005,""
"33006471","Ralbitz, Schule",14.2495738494,51.302506146400006,""
"33006470","Ralbitz, Hauptstraße",14.2483180485,51.301460476900004,""
"33006390","Weißig (Oßling), Ort",14.120769183,51.3505522953,""
"33008135","Bröthen/Michalken, Am Friedhof",14.194906178900002,51.4196116336,""
"33006953","Maukendorf, Ort",14.2958786158,51.3985904312,""
"33008124","Bröthen/Michalken, Alte Ziegelei",14.190172647599999,51.4204463861,""
"33006952","Maukendorf, Maukendorf B96",14.2965666526,51.3999883531,""
"33006958","Dörgenhausen/Hoyersw, Moorweg",14.203901851300001,51.4227958896,""
"33008120","Bröthen/Michalken, Neue Straße",14.1941510148,51.4218552336,""
"33008130","Hoyerswerda, Abzweig Wittichenau",14.2274274285,51.4234206647,""
"33008005","Hoyerswerda, Adler",14.2152872964,51.4239295768,""
"33008131","Hoyerswerda, Kamenzer Bogen",14.227810288,51.424492155299994,""
"33006965","Groß Särchen, Koblenzer Straße",14.3208854487,51.371352415699995,""
"33008004","Hoyerswerda, Schule Am Adler",14.2243886803,51.425986553600005,""
"33008125","Bröthen/Michalken, Krabatring",14.1905962296,51.4238905163,""
"33008140","Schwarzkollm, Auerhahn",14.143905650299999,51.407584128900005,""
"33006375","Schiedel (Kr Kamenz), Schiedel",14.1377164409,51.3137006542,""
"33008003","Hoyerswerda, Dresdener Straße",14.227983261599999,51.4274554868,""
"33006969","Wartha b Hoyerswerda, Wartha bei Hoyerswerda (B 96)",14.3263180598,51.3504597597,""
"33008109","Knappenrode, Feriensiedlung (AST)",14.3167163733,51.3891901241,""
"33008009","Hoyerswerda, An der Jenschwitz",14.2386461154,51.4270094656,""
"33008007","Hoyerswerda, Globus",14.2365096235,51.4277245106,""
"33008121","Bröthen/Michalken, Badesee",14.186155946500001,51.426059084200006,""
"33007730","Königswartha, Entenschenke",14.3080423745,51.3173338033,""
"33008112","Zeißig, Waldbad",14.2817818642,51.4185357589,""
"33008002","Hoyerswerda, Geschwister-Scholl-Straße",14.2328846557,51.4303557496,""
"33006963","Koblenz/Hoyerswerda, Koblenz bei Hoyerswerda",14.3285281271,51.3784555683,""
"33008122","Bröthen/Michalken, Hauptstraße",14.1830334569,51.427825361400004,""
"33008115","Zeißig, Feuerwehr (AST)",14.275058036899999,51.4223973364,""
"33006460","Rosenthal (Lausitz), Gh Erbgericht",14.227347012400001,51.2874506591,""
"33008103","Knappenrode, Abzw Knappensee",14.320994942,51.3925305617,""
"33007710","Eutrich, Eutrich",14.288620899100001,51.302126563,""
"33008111","Zeißig, Ort",14.2765580318,51.423357073400005,""
"33006926","Zeißholz, Abzw Saxonia",14.110595557899998,51.389364817,""
"33008000","Hoyerswerda, Bahnhof",14.2310580831,51.4333032349,""
"33008110","Zeißig, Bautzener Straße",14.276634922400001,51.42461415540001,""
"33008114","Zeißig, Rosenweg (AST)",14.274426346499999,51.425600993299994,""
"33006472","Naußlitz (b Kamenz), Naußlitz",14.2521673056,51.2875239278,""
"33008113","Zeißig, Eibenweg",14.2832752055,51.4228217826,""
"33008060","Hoyerswerda, Hp Neustadt",14.265531979199999,51.4292254489,""
"33008001","Hoyerswerda, August-Bebel-Straße",14.2367481883,51.4343723833,""
"33008123","Bröthen/Michalken, Nordstraße",14.184396744599999,51.432285806299994,""
"33008008","Hoyerswerda, Lausitzbad",14.2529361751,51.4324799646,""
"33008020","Hoyerswerda, Am Bahnhofsvorplatz",14.232875687200002,51.435183421599994,""
"33006461","Rosenthal (Lausitz), Abzw Zerna",14.229365674399999,51.2835465364,""
"33008011","Hoyerswerda, Dillinger Straße",14.2444949216,51.434260168399994,""
"33008101","Knappenrode, Sportplatz (AST)",14.3172690565,51.4046688256,""
"33008022","Hoyerswerda, Heinrich-Heine-Straße",14.2384608298,51.435571267,""
"33008102","Knappenrode, Schule",14.3199062579,51.4033849952,""
"33007731","Königswartha, Mechanische Werkstätten",14.3126545092,51.3092056709,""
"33008010","Hoyerswerda, Behördenpark",14.245977670499999,51.4351666856,""
"33008050","Hoyerswerda, Doktor-Wilhelm-Külz-Straße",14.255637952699999,51.433605633300004,""
"33008012","Hoyerswerda, Neues Rathaus",14.244328881000001,51.4355668667,""
"33008061","Hoyerswerda, Ziolkowskistraße",14.2737158649,51.4292466753,""
"33006468","Piskowitz (b Kamenz), Piskowitz (b Kamenz)",14.1882218871,51.283819817,""
"33008019","Hoyerswerda, Steinstraße",14.2310826052,51.4370514954,""
"33006481","Deutschbaselitz, Abzw Piskowitz/Schmerlitz",14.1665521433,51.2878909434,""
"33006455","Zerna, Zerna",14.2358800131,51.2816062583,""
"33008052","Hoyerswerda, Hufelandstraße",14.2628081063,51.433179673800005,""
"33008023","Hoyerswerda, Straße am Lessinghaus",14.245023534500001,51.436533441099996,""
"33008056","Hoyerswerda, Rosarium",14.2672603924,51.4324732875,""
"33008016","Hoyerswerda, Alte Post",14.2410103849,51.437410371700004,""
"33008105","Knappenrode, Energiefabrik",14.3264580592,51.4007917825,""
"33008017","Hoyerswerda, Grundschule am Park",14.2392730504,51.4377672256,""
"33008018","Hoyerswerda, Schulstraße",14.233360911699998,51.4383475554,""
"33008104","Knappenrode, August-Bebel-Platz",14.324431282599999,51.403052540800005,""
"33008013","Hoyerswerda, Burgplatz",14.246234040300001,51.4371664895,""
"33008047","Hoyerswerda, Straße des Friedens",14.2589827425,51.4349345973,""
"33008062","Hoyerswerda, Autopark",14.2801468937,51.4295891382,""
"33008055","Hoyerswerda, Tereschkowastraße",14.2737945619,51.4316993684,""
"33008015","Hoyerswerda, Kirchstraße",14.2429901279,51.4384782235,""
"33006370","Zschornau, Zschornau",14.1262474856,51.3033016378,""
"33006450","Zerna, Kreuzung Zerna/Gränze",14.2453270539,51.2807331148,""
"33007721","Caminau, Kaolinwerk",14.3420919497,51.3368759446,""
"33008054","Hoyerswerda, Lilienthalstraße",14.2726460694,51.432899322,""
"33008014","Hoyerswerda, Markt",14.2446585874,51.438769897499995,""
"33008053","Hoyerswerda, Franz-Liszt-Straße",14.269260556099999,51.4339448449,""
"33008035","Hoyerswerda, Rosa-Luxemburg-Straße",14.2280050033,51.4403104185,""
"33007732","Königswartha, Bahnhof",14.3211336237,51.3100986199,""
"33006925","Bernsdorf (OL), Abzw nach Zeißholz",14.0995320559,51.392188667400006,""
"33008046","Hoyerswerda, Stadtpromenade",14.2616107445,51.43601660349999,""
"33008027","Hoyerswerda, Gartenanlagen",14.2185321824,51.4407419072,""
"33008029","Hoyerswerda, Stadtzentrum Gymnasium",14.254157871099999,51.4380121493,""
"33008051","Hoyerswerda, Bautzener Allee",14.266515887599999,51.435445340799994,""
"33008032","Hoyerswerda, Kastanienhof",14.241038671899998,51.4400438312,""
"33008021","Hoyerswerda, Zoo",14.2476433603,51.4395037678,""
"33008041","Hoyerswerda, Albert-Einstein-Straße",14.256036661700001,51.4387760726,""
"33008040","Hoyerswerda, Am Elsterbogen",14.2507188959,51.439741381299996,""
"33008063","Hoyerswerda, Straße E",14.2857325313,51.4308557214,""
"33007720","Caminau, Dorf",14.341560571399999,51.3287056401,""
"33008034","Hoyerswerda, Hoffmann-von-Fallersleben-Straße",14.2317913436,51.4424408345,""
"33008033","Hoyerswerda, Senftenberger Vorstadt",14.235182202399999,51.4423582079,""
"33008037","Hoyerswerda, Teschenstraße",14.2495465942,51.4410584258,""
"33007736","Königswartha, Grundschule",14.3297022636,51.3127512239,""
"33008044","Hoyerswerda, Lausitzer Platz",14.263054276699998,51.4387396027,""
"33008030","Hoyerswerda, Alte Berliner Straße",14.2456620446,51.4419240538,""
"33008026","Hoyerswerda, Ackerstraße",14.216581896,51.4438353313,""
"33007715","Niesendorf, Abzw Niesendorf",14.315491555900001,51.300887723500004,""
"33008031","Hoyerswerda, Kolpingstraße",14.2426880508,51.4428800011,""
"33008143","Schwarzkollm, Krabatweg (AST)",14.1440226861,51.4306584427,""
"33007697","Caßlau, Caßlau",14.274385698800002,51.281942869999995,""
"33007733","Königswartha, Kirchplatz",14.3285583301,51.309708384699995,""
"33006480","Deutschbaselitz, Deutschbaselitz",14.1467660082,51.286934126700004,""
"33008064","Hoyerswerda, Straße G",14.2960787628,51.4295386341,""
"33008091","Hoyerswerda, Erich-Weinert-Straße",14.2687075841,51.4387471215,""
"33008066","Hoyerswerda, Käthe-Niederkirchner-Straße",14.2621229058,51.4411398859,""
"33007716","Niesendorf, Niesendorf",14.316645377,51.299309607800005,""
"33008065","Hoyerswerda, Verkehrsbetrieb",14.293754269399999,51.4319395151,""
"33006458","Gränze, Gränze",14.2403985228,51.2740131949,""
"33008073","Hoyerswerda, Jugendklubhaus",14.2585845525,51.44318591,""
"33006506","Neudörfel (b Kamenz), Teichhäuser",14.233923696000002,51.272312043700005,""
"33008141","Schwarzkollm, Kopf-Haus",14.1411241931,51.432949877000006,""
"33006311","Biehla, Ort",14.0931339221,51.3193789269,""
"33007734","Königswartha, Neudorfer Straße",14.3341542372,51.309462050099995,""
"33008045","Hoyerswerda, Neustädter Eck",14.266427764300001,51.44237818009999,""
"33006924","Bernsdorf (OL), Leipper Weg",14.0819384172,51.3828838707,""
"33008024","Hoyerswerda, Nardter Weg",14.221430920200001,51.4485979376,""
"33008025","Hoyerswerda, Thrunegraben",14.217095674000001,51.4487969249,""
"33008076","Hoyerswerda, Klinikum",14.271703198800001,51.442878316599995,""
"33008075","Hoyerswerda, von-Stauffenberg-Straße",14.2691654359,51.443628704199995,""
"33008142","Schwarzkollm, Gasthaus",14.1392284974,51.434854354100004,""
"33008074","Hoyerswerda, Konrad-Zuse-Straße",14.2638158374,51.445700965200004,""
"33006310","Biehla, Kamenzer Straße",14.090749417600001,51.315843635600004,""
"33006505","Neudörfel (b Kamenz), Neudörfel (b Kamenz)",14.2333652232,51.267890649499996,""
"33006844","Hoyerswerda, Gewerbegebiet Nardt",14.2203991924,51.4516470315,""
"33008082","Hoyerswerda, Kühnicht Forsthaus",14.2777213423,51.4444245755,""
"33008145","Schwarzkollm, Dorfstraße",14.1385034242,51.438112848699994,""
"33008077","Hoyerswerda, Kühnichter Heide",14.2677009926,51.44745974240001,""
"33008083","Hoyerswerda, Waldfriedhof",14.2831166959,51.4438610706,""
"33007695","Doberschütz (Neschw), Doberschütz bei Neschwitz",14.2678188391,51.2708597976,""
"33006923","Bernsdorf (OL), Mitte",14.070437781899999,51.3760309268,""
"33008069","Hoyerswerda, Grünewaldring",14.2606971224,51.4501302209,""
"33006210","Kamenz, Flugplatz",14.1175318004,51.289058029399996,""
"33006316","Hausdorf (b Kamenz), Abzw Hausdorf",14.073735720899998,51.331096197300006,""
"33006847","Nardt, Feuerwehrschule",14.1885325411,51.4526062129,""
"33006914","Bernsdorf (OL), Buchenwegsiedlung",14.0698759875,51.3807693987,""
"33006429","Nebelschütz, Sandmühle",14.149260875800001,51.2740508207,""
"33007691","Zescha, Zescha",14.319082016700001,51.287340523,""
"33007692","Zescha, Abzw Zescha",14.328069537,51.2926909336,""
"33006250","Kamenz, Jesau Neschwitzer Straße",14.121044014699999,51.2846972896,""
"33008086","Hoyerswerda, Thomas-Müntzer-Straße",14.27162748,51.450044651800006,""
"33006845","Nardt, Abzw Neuwiese",14.207559280999998,51.4559979595,""
"33006305","Bernbruch (b Kamenz), Am Wiesengrund",14.098883907000001,51.29795226940001,""
"33006425","Wendischbaselitz, Erbgericht",14.177032518499999,51.265473406800005,""
"33008084","Hoyerswerda, Gewerbepark Kühnicht",14.3011617307,51.4425370998,""
"33006846","Nardt, Gemeindeverwaltung",14.2010970592,51.45686568319999,""
"33007740","Neudorf (Königsw.), Neudorf b Königswartha",14.3509814039,51.30697656860001,""
"33006306","Bernbruch (b Kamenz), Am Ochsenberg",14.0937638533,51.299509321100004,""
"33008087","Hoyerswerda, Cottbuser Tor",14.2681752124,51.4529613009,""
"33007698","Lissahora, Lissahora",14.2840060556,51.2698436656,""
"33006852","Neuwiese-Bergen, Ausbau",14.231820354200002,51.458073432099994,""
"33006211","Kamenz, Schwimmhalle",14.111350725400001,51.2865177351,""
"33006501","Räckelwitz, Kindergarten",14.226309447999999,51.260374670000004,""
"33006497","Horka b Kamenz, Horka b KM",14.254586606999998,51.2628717191,""
"33006424","Wendischbaselitz, Abzw Miltitz",14.1845687864,51.262429177200005,""
"33006842","Seidewinkel, Gasthaus",14.245447862599999,51.4574894252,""
"33008144","Schwarzkollm, Bahnhof",14.133291457,51.4435566959,""
"33006426","Wendischbaselitz, Anbau",14.167235739899999,51.2652687402,""
"33006215","Kamenz, Schule Neschwitzer Straße",14.1131116188,51.284903743399994,""
"33008088","Hoyerswerda, Käthe-Kollwitz-Straße",14.263650113099999,51.455143435699995,""
"33006231","Kamenz, Jesau Jan-Skala-Straße",14.118833348399999,51.2815189913,""
"33006838","Laubusch, Siedlung",14.133287572399999,51.4447074371,""
"33006249","Kamenz, Friedensstraße",14.102505225200002,51.289337986599996,""
"33008089","Hoyerswerda, Mittelweg",14.2620094627,51.456883179,""
"33008090","Hoyerswerda, Am Speicher",14.2668467898,51.4572211965,""
"33006500","Räckelwitz, Bäckerei",14.2252661149,51.2571671196,""
"33006511","Schmeckwitz, Abzw Räckelwitz",14.2118348098,51.2570262924,""
"33006428","Nebelschütz, Herberge Heldhaus",14.1589271534,51.2637951954,""
"33006510","Schmeckwitz, Schmeckwitz",14.1998911983,51.2571346434,""
"33006849","Neuwiese-Bergen, Wendeschleife",14.2078789484,51.4623206789,""
"33006502","Räckelwitz, Schulstraße",14.222732128,51.256316298399994,""
"33006230","Kamenz, Jesau Elsteraue",14.114987275199999,51.2789275939,""
"33006848","Neuwiese-Bergen, Abzw Bergen",14.215734208599999,51.46286460300001,""
"33006213","Kamenz, Landesämter",14.1074412877,51.2825428066,""
"33006301","Bernbruch (b Kamenz), Liebenauer Straße",14.092505665800001,51.2910814529,""
"33006803","Leippe, Spritzenhaus",14.0814153284,51.4191392507,""
"33008146","Schwarzkollm, Am Wiesengrund",14.1279772254,51.4474469553,""
"33008147","Schwarzkollm, Waldesruh (AST)",14.1182556109,51.4441081964,""
"33006300","Bernbruch (b Kamenz), Blumenstraße",14.0948183654,51.287713858500005,""
"33006832","Laubusch, Volksbad",14.1335579177,51.4511210941,""
"33006229","Kamenz, Jesauer Straße",14.1141399743,51.2760841476,""
"33006837","Laubusch, Grundschule",14.1341864135,51.451640034,""
"33006807","Torno (Sachsen), Am Anger",14.1006374635,51.436361767600005,""
"33006851","Neuwiese-Bergen, Gasthaus",14.228433157800001,51.4659319874,""
"33006239","Kamenz, An der Windmühle",14.0952146059,51.2853963922,""
"33006312","Cunnersdorf b Kamenz, Bahnhof",14.069979466800001,51.3060095052,""
"33006221","Kamenz, Andreas-Günther-Straße",14.1165855668,51.2731631898,""
"33006422","Dürrwicknitz, Abzw Dürrwicknitz",14.183576552,51.2541949524,""
"33006238","Kamenz, Nordstraße/Stadion",14.0988367742,51.2821490929,""
"33006214","Kamenz, Saarstraße",14.1046238092,51.2782963982,""
"33006802","Leippe, Dorfaue",14.0738959577,51.418823146200005,""
"33006850","Neuwiese-Bergen, Gemeindeverwaltung",14.224505747499999,51.468038287199995,""
"33006237","Kamenz, Nordostvorstadt",14.1005864148,51.279654493,""
"33006805","Torno (Sachsen), Siedlung",14.0873315246,51.430963144399996,""
"33006200","Kamenz, Macherstraße",14.102121160200001,51.2781076544,""
"33006806","Torno (Sachsen), Kirche",14.0944467756,51.436544527,""
"33006508","Höflein (Sachs), Ortsmitte",14.214745081,51.249914101799995,""
"33007679","Neschwitz, Grundschule",14.3275877648,51.2735336592,""
"33006207","Kamenz, Netto-Markt",14.108536452200001,51.273281559699996,""
"33006808","Torno (Sachsen), Einkaufszentrum",14.0994130812,51.441651607100006,""
"33006819","Lauta/Niederlausitz, Quellendiele",14.1062146478,51.445350096300004,""
"33006205","Kamenz, Hohe Straße",14.1066527039,51.273144687400006,""
"33007706","Puschwitz, Neupuschwitz",14.2949132679,51.259228706,""
"33006843","Seidewinkel, Klein Seidewinkel",14.2570042566,51.4680101334,""
"33006222","Kamenz, Weißmantelstr/Kindergarten",14.114899854399999,51.268914520100004,""
"33006811","Lauta/Niederlausitz, Puschkinallee",14.1063056403,51.446076616,""
"33006226","Kamenz, Bernhardweg",14.105947320399999,51.2730764782,""
"33006252","Kamenz, Goethestraße",14.0972591352,51.2777274383,""
"33006248","Kamenz, Krankenhaus",14.123912173399999,51.2648406767,""
"33006224","Kamenz, Oststraße",14.0993315786,51.2760271598,""
"33006507","Höflein (Sachs), Mosty",14.2196260986,51.247457217,""
"33006225","Kamenz, Willy-Muhle-Straße",14.1096454604,51.269647663399994,""
"33006223","Kamenz, Forststraße",14.113138510499999,51.2673821181,""
"33007689","Neudorf b Neschwitz, B96",14.3397696715,51.2754932329,""
"33006974","Riegel b Hoyerswerda, Riegel bei Hoyerswerda",14.3572022199,51.4323879866,""
"33007677","Neschwitz, Dorfschänke",14.330014762,51.2702309301,""
"33006812","Lauta/Niederlausitz, Südtor",14.1056523226,51.4490728977,""
"33006499","Caseritz, Abzw Caseritz",14.224648394899999,51.2455638067,""
"33006836","Laubusch, Rathaus",14.1327750896,51.4602507978,""
"33006421","Miltitz (b Kamenz), Miltitz (b Kamenz)",14.1815003752,51.247563161,""
"33006253","Kamenz, Nebelschützer Straße",14.1179965913,51.263959041999996,""
"33006206","Kamenz, Breite Straße",14.1012824691,51.271353402699994,""
"33006818","Lauta/Niederlausitz, Brandenburgallee",14.092096481699999,51.442708416799995,""
"33007703","Wetro, Kreuzung",14.3008156303,51.256919182000004,""
"33006817","Lauta/Niederlausitz, Lautech",14.116467577,51.4555213236,""
"33006853","Neuwiese-Bergen, Klein Bergen",14.2469376938,51.473750265499994,""
"33007707","Jeßnitz b Puschwitz, Dorfteich",14.2767778003,51.249738982800004,""
"33006227","Kamenz, Bautzner Straße",14.0986055089,51.2711047879,""
"33006240","Wiesa (Kamenz), Gh Handrack",14.114460838800001,51.263411692700004,""
"33006219","Kamenz, Juliot-Curie-Siedlung",14.0805157122,51.281802067,""
"33006820","Lauta/Niederlausitz, Hans-Coppi-Schule",14.0881672862,51.4423470171,""
"33007708","Wetro, Werk",14.302894012200001,51.2560781656,""
"33006201","Kamenz, Bahnhof",14.092558300999999,51.2739549889,""
"33006218","Kamenz, Maschinenteilewerk",14.0873716622,51.2768344703,""
"33006242","Wiesa (Kamenz), Abzw Bahnhof",14.125922226799998,51.258097742400004,""
"33006216","Kamenz, Polizeirevier",14.093736381900001,51.2721269648,""
"33006246","Thonberg (Kamenz), Gasthof",14.1400136727,51.253022238,""
"33006217","Kamenz, Güterbfstraße/Feuerwehr",14.0890394279,51.274737054899994,""
"33006810","Lauta/Niederlausitz, Bahnhof",14.0932152744,51.4473540142,""
"33006228","Kamenz, Zwingerstraße/Marktplatz",14.094649266800001,51.2701418597,""
"33007705","Puschwitz, Puschwitz",14.2921845272,51.2504629473,""
"33006822","Lauta/Niederlausitz, Kita Firlefanz",14.088785082400001,51.446111617099994,""
"33006234","Kamenz, Pulsnitzer Straße",14.093756225,51.269097049399996,""
"33006204","Kamenz, Am Hutberg",14.088285432700001,51.272017621299995,""
"33006976","Tiegling, Wendeschleife",14.3713709537,51.431319876100005,""
"33006241","Wiesa (Kamenz), Gh Eisenbahn",14.1179342763,51.257307691,""
"33006835","Laubusch, Verwaltung",14.1342907903,51.467441837799996,""
"33006420","Miltitz (b Kamenz), Abzw Miltitz/Elstra",14.1704859978,51.2427157224,""
"33006247","Thonberg (Kamenz), Schamottewerk",14.142218686500001,51.248684715299994,""
"33006203","Kamenz, Lindenterrasse",14.0814527526,51.2746295464,""
"33006243","Wiesa (Kamenz), Schule",14.1187712536,51.2558811294,""
"33006255","Kamenz, Vogelberg Hartsteinbruch",14.0746160038,51.278122135,""
"33006404","Alte Ziegelscheune, Alte Ziegelscheune",14.221932050000001,51.2379469726,""
"33007687","Holscha, B 96",14.3448392852,51.2669679865,""
"33007686","Holscha, Abzw Neschwitz",14.3448069943,51.266896712699996,""
"33006492","Crostwitz, Wendeschleife",14.2439591591,51.238263623099996,""
"33006208","Kamenz, Fabrikstraße",14.092802066099999,51.2657609275,""
"33006490","Crostwitz, Erbgericht",14.243854193299999,51.2381667466,""
"33007704","Wetro, Dorf",14.308421189399999,51.250871835599995,""
"33006834","Laubusch, Am Markt",14.1389293,51.47183407359999,""
"33006814","Lauta/Niederlausitz, Sozialstation",14.095163870999999,51.4553468554,""
"33006401","Panschwitz-Kuckau, Rosenthaler Straße",14.2061342502,51.2367177234,""
"33006491","Crostwitz, Schule",14.2491900032,51.2377496069,""
"33007709","Guhra, Dorfplatz",14.2858221766,51.2434942859,""
"33006410","Jauer, Abzw Jauer/Miltitz",14.1838183148,51.237837738500005,""
"33006816","Lauta/Niederlausitz, Nord",14.1070157185,51.4618045771,""
"33007701","Neu-Jeßnitz, Neujeßnitz",14.282497391,51.2405655202,""
"33006815","Lauta/Niederlausitz, Kino",14.0977963683,51.460037244300004,""
"33006430","Prietitz, Anbau",14.121933329300001,51.2492612224,""
"33006400","Panschwitz-Kuckau, Schule",14.194725304,51.2341095155,""
"33007700","Lauske b Puschwitz, Lauske b Puschwitz",14.2796240207,51.2380683777,""
"33007675","Uebigau b Bautzen, Uebigau b Bautzen",14.333859382799998,51.2533427684,""
"33006870","Burg b Hoyerswerda, Ortseingang",14.344320906,51.4616838633,""
"33006871","Burg b Hoyerswerda, Gasthaus",14.3490865482,51.459763464400005,""
"33006495","Prautitz, Abzw Prautitz",14.255893654,51.2322174802,""
"33006433","Prietitz, Weinbergstraße",14.1422700601,51.2383903504,""
"33006405","Schweinerden, Schweinerden",14.214236703300001,51.2277094638,""
"33006357","Lückersdorf, Wendeplatz",14.065151394199999,51.2690750747,""
"33006494","Nucknitz, Abzw Nucknitz/Kopschin",14.2606587814,51.2298150241,""
"33006356","Lückersdorf, Niederdorf",14.069363016399999,51.2633011431,""
"33006432","Prietitz, Ort",14.133391282,51.2356129406,""
"33006413","Jauer, Abzw Jauer",14.1860412228,51.2261272433,""
"33007702","Neu-Lauske, Abzw Neulauske",14.2862687739,51.2314208611,""
"33006431","Prietitz, Gasthaus",14.1303730782,51.235685933800006,""
"33007674","Krinitz b Bautzen, Abzw nach Krinitz",14.3337017554,51.2442928458,""
"33006355","Lückersdorf, Abzw Gelenau",14.0740435854,51.257464796399994,""
"33007683","Luga b Bautzen, Dorfclub",14.3484143402,51.2496801445,""
"33007682","Krinitz b Bautzen, Dorfplatz",14.3378351154,51.243607961100004,""
"33006493","Nucknitz, Nucknitz",14.2650837194,51.2245780959,""
"33006406","Siebitz b Kamenz, Siebitz b Kamenz",14.236508933600001,51.2204891928,""
"33007684","Luga b Bautzen, Dorf",14.3460954169,51.2452136222,""
"33006445","Kriepitz, Kriepitz",14.154166016,51.225720822599996,""
"33006408","Lehndorf b Kamenz, Bautzener Straße",14.247944024,51.2195417466,""
"33007672","Pannewitz(Neschwitz), Pannewitz (b Neschwitz)",14.318914207699999,51.2327919117,""
"33006446","Welka, Welka",14.1168956665,51.2325234769,""
"33007685","Luga b Bautzen, Kreuzung Luga/Quoos",14.3576547477,51.2471747885,""
"33006350","Gelenau (Kr BZ), Gasthaus",14.070121425699998,51.2514841423,""
"33006530","Ostro, Ostro",14.186428001000001,51.2182807551,""
"33006351","Gelenau (Kr BZ), Schule",14.069294055,51.2515617096,""
"33007673","Saritsch, Saritsch",14.3325991558,51.23581016200001,""
"33006447","Wohla (b Kamenz), Abzw Welka",14.1171060433,51.231180177800006,""
"33007671","Weidlitz, Weidlitz",14.311299268700001,51.2282857651,""
"33006409","Lehndorf b Kamenz, Ziegelei",14.263665241,51.2169729851,""
"33007639","Storcha, Gutshof",14.2985943543,51.223025224900006,""
"33006359","Hennersdorf b Kamenz, Hennersdorf",14.083206687799999,51.240221343799995,""
"33007670","Loga (Kr Bautzen), Abzw Schmochtitz",14.3320624355,51.2311459853,""
"33007694","Loga (Kr Bautzen), Kobanmühle",14.322031081099999,51.2275787161,""
"33007693","Loga (Kr Bautzen), Dorfmitte",14.3307802239,51.2298589837,""
"33006440","Elstra, Markt",14.132976023200001,51.2216861723,""
"33007632","Paßditz, Paßditz",14.2734767689,51.2156409036,""
"33006441","Elstra, Schule",14.1260838931,51.220310358199995,""
"33007637","Dreikretscham, Gasthaus",14.313311014400002,51.2210089262,""
"33007629","Zscharnitz, Zscharnitz",14.2915190639,51.2157652132,""
"33006438","Talpenberg, Talpenberg",14.117996762399999,51.2178410419,""
"33007635","Sollschwitz (Kr BZ), Sollschwitz bei Bautzen",14.311739555299999,51.214791850199994,""
"33007668","Milkwitz, Milkwitz",14.3590263604,51.230038810799996,""
"33006363","Gersdorf (b Kamenz), Hufenbergweg",14.0629657891,51.2218812835,""
"33003877","Oberottendorf, Park",14.2055971819,51.070276341399996,""
"33007193","Putzkau, Niederputzkau Grüne Tanne",14.202959397299999,51.0865354218,""
"33007192","Putzkau, Niederputzkau Abzweig",14.2079338393,51.089677976900006,""
"33003878","Oberottendorf, Schule",14.2138950045,51.0647522097,""
"33003874","Niederottendorf, Müller",14.2220163218,51.0618379963,""
"33003875","Niederottendorf, Im Winkel",14.2286202642,51.057351909299996,""
"33007197","Putzkau, Viadukt",14.236474330200002,51.0983410675,""
"33007196","Putzkau, Sparkasse",14.2258039138,51.10240162670001,""
"33007195","Putzkau, Niederdorf",14.216737822199999,51.1030234959,""
"33007202","Putzkau, Schule",14.2408917179,51.1002252797,""
"33007200","Putzkau, Bahnhof",14.235814103900001,51.10329831279999,""
"33003870","Berthelsdorf/Hohwald, Erbgericht",14.223580422100001,51.049824239299994,""
"33007194","Putzkau, Belmsdorfer Weg",14.205696754999998,51.105956468900004,""
"33007198","Putzkau, Hartmannmühle",14.2495876021,51.0993479419,""
"33007220","Neukirch (Lausitz), Bf West",14.270222350900001,51.084249738,""
"33007191","Putzkau, Abzw Neustadt",14.1951204452,51.108178426799995,""
"33003871","Berthelsdorf/Hohwald, Am Fuchsberg",14.2221349159,51.044062029900005,""
"33007199","Putzkau, Brettmühle",14.2630139322,51.0985672175,""
"33007201","Putzkau, Abzw Schmölln",14.244030355700001,51.1090113988,""
"33003867","Rückersdorf b Stolpe, Dorfplatz",14.1723911303,51.055318653600004,""
"33003868","Rückersdorf b Stolpe, Kirchstraße",14.1715246425,51.0520443615,""
"33007222","Neukirch (Lausitz), Niederdorf",14.2731582575,51.097543181,""
"33003872","Berthelsdorf/Hohwald, Folgenweg",14.2199097398,51.0380898671,""
"33007069","Großdrebnitz, Wendeplatz",14.154570276500001,51.0807132584,""
"33007067","Großdrebnitz, Gemeinde",14.1567785873,51.0907504304,""
"33007068","Großdrebnitz, Bergweg",14.154418004399998,51.0848065706,""
"33007022","Bischofswerda, Gartenstraße",14.1923011181,51.1167989496,""
"33007219","Schmölln (OL), Bahnhof",14.228619879,51.1196720149,""
"33007040","Bischofswerda, Belmsdorf",14.203082772599998,51.1200483838,""
"33007066","Großdrebnitz, Bäcker",14.155867873,51.0954151245,""
"33007021","Bischofswerda, Süd",14.189348056999998,51.11717796,""
"33007205","Tröbigau, Niederdorf",14.2532615414,51.1158730744,""
"33007024","Bischofswerda, D-Bonhoeffer-Str",14.1966561901,51.120681805800004,""
"33007027","Bischofswerda, Südschule",14.1921588172,51.1201279631,""
"33007218","Schmölln (OL), Bischofswerdaer Str",14.2317486011,51.1232353386,""
"33007025","Bischofswerda, Seniorenwohnheim",14.1975982368,51.1224711077,""
"33003864","Neustadt (Sachsen), Hohwaldschänke",14.2798853531,51.052901180800006,""
"33007020","Bischofswerda, Neustädter Straße",14.187450822099999,51.12116015030001,""
"33003902","Neustadt (Sachsen), Berthelsdorfer Straße",14.2175082304,51.0305027612,""
"33007065","Bischofswerda, Kleindrebnitz",14.1533551646,51.1030940539,""
"33007216","Schmölln (OL), Am Schwarzwasser",14.2368260182,51.1248374002,""
"33003869","Rückersdorf b Stolpe, Am Mühlenweiher",14.1619293889,51.0457044932,""
"33003887","Neustadt (Sachsen), Friedhof",14.2189224227,51.02996345219999,""
"33007026","Bischofswerda, Jugendverkehrsschule",14.1910022168,51.124060353800004,""
"33007206","Tröbigau, Naundorfer Straße",14.2614881877,51.1190764835,""
"33003882","Neustadt (Sachsen), Abzweig Polenz",14.2021857877,51.029983602099996,""
"33007064","Weickersdorf (Sachs), Bürgerhaus",14.1577259372,51.109558206,""
"33007223","Neukirch (Lausitz), Eiche",14.2903780355,51.0975574903,""
"33007210","Neuschmölln, Neuschmölln",14.253214054,51.1225267354,""
"33007018","Bischofswerda, Gewerbepark",14.1832986666,51.1227751091,""
"33003901","Neustadt (Sachsen), August-Bebel-Straße",14.2038730908,51.0291875986,""
"33003883","Neustadt (Sachsen), Dresdner/Weststraße",14.2072922329,51.0279363048,""
