"stop_id","stop_name","stop_lon","stop_lat","stop_code"
"14902691","Cottbus, Busbahnhof",14.331322219799999,51.75397272320001,""
"14902699","Cottbus, Vetschauer Straße/Hbf",14.3259109815,51.7501426171,""
"14902693","Cottbus, Görlitzer Straße",14.332180266499998,51.7481394884,""
"14902694","Cottbus, Ottilienstraße",14.3313396195,51.7453154987,""
"14902692","Cottbus, Sportzentrum",14.3341401232,51.7403695823,""
"14902695","Cottbus, Gaglower Landstraße",14.347074534599999,51.720056125800006,""
"14902959","Gallinchen, Parzellenstraße",14.352207322,51.714379882500005,""
"14902958","Gallinchen, Friedensplatz",14.356636231,51.7096614374,""
"14902957","Gallinchen, Siedlung",14.3602353678,51.7056966463,""
"14902956","Groß Oßnig, Siedlung",14.358763141699999,51.6840792751,""
"14902955","Groß Oßnig, Dorfstraße",14.356730859499999,51.6780880645,""
"14902954","Klein Döbbern, B 97",14.3595226968,51.6603134033,""
"14902953","Klein Döbbern, Schäferberg",14.361218691100001,51.6512356991,""
"14902952","Bühlow, Abzw nach Bühlow",14.363257408199999,51.6104264162,""
"14902928","Spremberg, Cantdorf Gärtnerei",14.3600570444,51.584088016600006,""
"14911010","Senftenberg (NL), W. Rathenau Schule",14.007763240400001,51.523749187700005,""
"14911011","Senftenberg (NL), Theaterpassage",14.0040815011,51.522931227,""
"14902927","Spremberg, Cantdorf Parma",14.361285274,51.5807820362,""
"14902906","Schwarze Pumpe, Märzschäfereiweg",14.3472386121,51.5512540038,""
"14902905","Schwarze Pumpe, Kinderheim",14.3447044896,51.547403148499995,""
"14902985","Döbern (b Forst), Deutsches Haus",14.598665413500001,51.6141677341,""
"14902986","Döbern (b Forst), Dubrauker Straße",14.6092587327,51.6085295203,""
"14902904","Schwarze Pumpe, Nord",14.3413552866,51.5352529782,""
"14902908","Schwarze Pumpe, Neues Kraftwerk",14.3467277627,51.531810346600004,""
"14902988","Eichwege, Dorfstraße",14.612833817499999,51.602399591300006,""
"14902903","Schwarze Pumpe, Gasthaus",14.3369570833,51.527906187899994,""
"14902902","Schwarze Pumpe, Mitte",14.334571593500002,51.5238184189,""
"14902989","Eichwege, Badesee",14.6129070024,51.597642188799995,""
"14902900","Schwarze Pumpe, Süd",14.3323774844,51.5203650692,""
"14902910","Spremberg, Vattenfall SP Straße D3",14.3432277604,51.5214791661,""
"14910356","Wolfshain (NL), Schule",14.594123106500001,51.5816252627,""
"14908177","Groß Düben, Mitte",14.568676465400001,51.5702555822,""
"14908179","Groß Düben, Wasserwerk",14.5624362608,51.5642159327,""
"14902992","Tschernitz, Nord",14.6165309614,51.5803362933,""
"14902991","Tschernitz, Fernsehglas",14.6048568843,51.5747795787,""
"14908176","Groß Düben, Dorf",14.5703153648,51.5637647848,""
"14908185","Schleife, Milchviehanlage",14.543368830299999,51.5544273667,""
"14910361","Tschernitz, Abzw. Klein Düben",14.614802512799999,51.5748638867,""
"14910360","Tschernitz, Parkplatz",14.615358710099999,51.5739974182,""
"14908183","Schleife, Schule",14.5296852012,51.5427756327,""
"14908181","Schleife, Ausbau",14.5495301404,51.5472722984,""
"14908182","Schleife, Kirche",14.5384266164,51.543890242299994,""
"14902994","Tschernitz, Brauereiweg",14.634029743300001,51.572779363,""
"14908186","Schleife, Gemeindeamt",14.534086870500001,51.5415568122,""
"14908191","Halbendorf b Weißw., Badesee",14.5654784657,51.547544703599996,""
"14908184","Schleife, Mühle",14.5292827813,51.5363024838,""
"14902997","Jämlitz, Herrmannsmühle",14.646575223000001,51.5716787641,""
"14908173","Rohne (Sachs), Ausbau",14.5192056087,51.5326357732,""
"14908180","Schleife, Bahnhof",14.5312476811,51.5353430862,""
"14912010","Zschorno, Wendeplatz",14.669964337,51.5773877396,""
"14908172","Rohne (Sachs), Dorfstraße",14.5127633922,51.528467811700004,""
"14908174","Rohne (Sachs), Trebendorfer Weg",14.5136169731,51.5269571631,""
"14908171","Rohne (Sachs), Am Njepila-Hof",14.5095011909,51.5257597724,""
"14908193","Halbendorf b Weißw., Mitte",14.5777113304,51.5450917723,""
"14908192","Halbendorf b Weißw., Edelstraße",14.5797871936,51.5455945081,""
"14908170","Rohne (Sachs), Abzw Kleintrebendorf",14.528042922600001,51.529020306,""
"14908196","Halbendorf b Weißw., Gemeinde",14.581135864599998,51.5429307128,""
"14910366","Jämlitz, Schule",14.6622986371,51.568436948999995,""
"14908200","Trebendorf b Weißw., Klein Trebendorf",14.5436126871,51.5306343337,""
"14908190","Halbendorf b Weißw., Bahnhofstraße",14.5914159073,51.5409058897,""
"14902998","Jämlitz, Gasthaus",14.664321727199999,51.5640576984,""
"14908165","Mulkwitz, Mulkwitz",14.4994228542,51.5141082569,""
"14908194","Halbendorf b Weißw., Siedlung",14.5873658521,51.5386399296,""
"14908205","Trebendorf b Weißw., Schule",14.5550661543,51.5284793379,""
"14908164","Mulkwitz, Abzw Mühlrose",14.493891030999999,51.510962707900006,""
"14908160","Mulkwitz, Außenkippe",14.479232466800001,51.5058077647,""
"14908162","Mulkwitz, Sportplatz",14.4978690047,51.5104644546,""
"14908239","Bad Muskau, Papierfabrik",14.710510718100002,51.57595403250001,""
"14908206","Trebendorf b Weißw., Kulturhaus",14.5596819551,51.52700314570001,""
"14908238","Bad Muskau, Mühlenweg",14.712349806699999,51.572917731,""
"14908204","Trebendorf b Weißw., Vereinshaus",14.565687903,51.5256491809,""
"14908195","Halbendorf b Weißw., Gewerbegebiet",14.5956196851,51.5337106558,""
"14908207","Trebendorf b Weißw., Waage",14.5649626597,51.523003973899996,""
"14902999","Jämlitz, Hütte",14.6884214565,51.561304954899995,""
"14908237","Bad Muskau, Forster Straße",14.7100863757,51.568825532999995,""
"14908161","Mulkwitz, Ausbau",14.5039960369,51.5047598779,""
"14908210","Kromlau, Kromlau",14.629957051599998,51.5379798157,""
"14908392","Trebendorf b Weißw., Tagebau Nochten Busbahnhof",14.508355026199999,51.4988860484,""
"14911006","Kromlau, Kromlau, Waldeisenbahn",14.627979164700001,51.53317844480001,""
"14908232","Bad Muskau, Siedlung",14.7005546767,51.5562432612,""
"14908151","Mühlrose, Ausbau",14.519593360299998,51.4994720549,""
"14908236","Bad Muskau, Schaltgerätewerk",14.708856949,51.557130564299996,""
"14908215","Gablenz (OL), Waldrand",14.648886746499999,51.536510721000006,""
"14908250","Weißwasser (OL), Moorwiese",14.606226594499999,51.5218150251,""
"14908235","Bad Muskau, Kindergarten",14.708824829500001,51.5546499754,""
"14908231","Bad Muskau, Lindenhof",14.7098226758,51.5522714475,""
"14908150","Mühlrose, Mühlrose",14.512108676199999,51.491191043,""
"14908217","Gablenz (OL), Feuerwehr",14.663712579699999,51.534151945000005,""
"14908218","Gablenz (OL), Friedhof",14.6592104674,51.529624174,""
"14908252","Weißwasser (OL), Auensiedlung",14.6112820909,51.513961928700006,""
"14908226","Bad Muskau, Maßmannplatz",14.7180742132,51.548691061300005,""
"14908253","Weißwasser (OL), Halbendorfer Weg",14.6139600822,51.511160212899995,""
"14908219","Gablenz (OL), Siedlung",14.6731278707,51.5285344395,""
"14908225","Bad Muskau, Kirchplatz",14.7226435589,51.5448000842,""
"14911003","Krauschwitz (OL), Baierweiche",14.6926332898,51.5344621215,""
"14908269","Weißwasser (OL), Tiergartenstraße",14.6143545884,51.507986852399995,""
"14911002","Gablenz (OL), Gablenz/Gora",14.681648338899999,51.528816299599995,""
"14908259","Weißwasser (OL), Friedenseiche",14.616899801799999,51.508154803,""
"14908227","Bad Muskau, Grenzübergang",14.7260973524,51.542759915,""
"14908254","Weißwasser (OL), Nordweg",14.636301503999999,51.5120712563,""
"14911004","Bad Muskau, Feuerturmteich",14.7040081599,51.5320515791,""
"14908321","Krauschwitz (OL), Kornblumenweg",14.6925015854,51.528082011200006,""
"14911001","Weißwasser (OL), Ost",14.6578843233,51.5167621848,""
"14908266","Weißwasser (OL), Mühlenstraße",14.628074375499999,51.506565201,""
"14908320","Krauschwitz (OL), Gasthaus Zur Linde",14.6881237449,51.525701163600004,""
"14908288","Weißwasser (OL), Straßenmeisterei",14.6525417156,51.5133500394,""
"14911005","Bad Muskau, Bad Muskau",14.7231585057,51.536525971100005,""
"14908319","Krauschwitz (OL), Feuerwehr",14.711526022900001,51.5324263204,""
"14911000","Weißwasser (OL), Teichstraße",14.6457347283,51.5105101402,""
"14908220","Bad Muskau, Heideweg",14.7171019464,51.5338345525,""
"14908328","Krauschwitz (OL), Breiter Weg",14.7034449018,51.5291157364,""
"14908273","Weißwasser (OL), Straße des Friedens",14.6442639041,51.50825081399999,""
"14908281","Weißwasser (OL), Bahnhof",14.6376762122,51.5056931955,""
"14908317","Weißwasser (OL), K-Liebknecht-Straße",14.6346819782,51.504483931,""
"14908283","Weißwasser (OL), Muskauer Straße",14.6442602478,51.507441771299995,""
"14908221","Bad Muskau, Bahnbrücke",14.7267007196,51.534528673900006,""
"14908280","Weißwasser (OL), Busbahnhof",14.639265417299999,51.505522561999996,""
"14908286","Weißwasser (OL), Schulstraße",14.646654157499999,51.507234897800004,""
"14908282","Weißwasser (OL), Stadtzentrum",14.6425921569,51.5057532632,""
"14908290","Weißwasser (OL), Boulevard",14.6356911385,51.5034992798,""
"14908291","Weißwasser (OL), Krankenhaus",14.6312376596,51.5017114011,""
"14908284","Weißwasser (OL), Marktplatz",14.6460783732,51.5055037843,""
"14908310","Weißwasser (OL), Sachsendamm",14.6257962643,51.4990194988,""
"14908263","Weißwasser (OL), Südpassage",14.623226650700001,51.4979173046,""
"14908301","Weißwasser (OL), Görlitzer Straße",14.641623621,51.5034556066,""
"14908285","Weißwasser (OL), Gartenstraße",14.648118025799999,51.5051520433,""
"14908311","Weißwasser (OL), Berufsschulzentrum",14.6387845695,51.5021890072,""
"14908293","Weißwasser (OL), Schwimmhalle",14.633537298999999,51.5003741359,""
"14908261","Weißwasser (OL), Str der Kraftwerker",14.6296421304,51.498519709,""
"14908292","Weißwasser (OL), Am Wasserturm",14.636637481400001,51.500430288800004,""
"14908308","Weißwasser (OL), Jacobistraße",14.631151431,51.4969664748,""
"14908322","Krauschwitz (OL), Schule",14.707628775800002,51.5214133135,""
"14908307","Weißwasser (OL), Prof-Wagenfeld-Ring",14.631425871300001,51.495980372700004,""
"14908315","Weißwasser (OL), Werner-Seelenbinder-Straße",14.6257002898,51.494094984499995,""
"14908304","Weißwasser (OL), Humboldtstraße",14.64282714,51.4991131341,""
"14908306","Weißwasser (OL), Eisstadion",14.6351598429,51.4952941156,""
"14908326","Krauschwitz (OL), Brückenstraße",14.728063626800001,51.5252638277,""
"14908323","Krauschwitz (OL), Wilhelmstraße",14.7155000587,51.519523034100004,""
"14908305","Weißwasser (OL), Ambulanz",14.6399069472,51.4949445302,""
"14908295","Weißwasser (OL), Heinrich-Heine-Str",14.6447091142,51.496292675099994,""
"14908324","Krauschwitz (OL), Ärztehaus",14.7173483454,51.5161987034,""
"14908325","Krauschwitz (OL), Keulahütte",14.7182213562,51.516340285700004,""
"14908331","Sagar, Im Tale",14.738743520200002,51.5214275804,""
"14908297","Weißwasser (OL), NVG",14.6550104247,51.492382692,""
"14908329","Krauschwitz (OL), Erlebnisbad",14.7183046506,51.5121758007,""
"14908298","Weißwasser (OL), Braunsteichhäuser",14.6789020967,51.495309196499996,""
"14908332","Sagar, Grünanlage",14.7597479469,51.5177342654,""
"14908335","Sagar, Kindergarten",14.759418878,51.5161057497,""
"14908355","Weißkeißel, Kaupen b Weißwasser",14.732415190300001,51.5055183977,""
"14908350","Weißkeißel, Straße der Freundschaft",14.7148010757,51.4985736242,""
"14908333","Sagar, Schule",14.763176749,51.5143899337,""
"14908336","Sagar, Skerbersdorfer Straße",14.7728974312,51.5133511931,""
"14908352","Weißkeißel, Feuerwehr",14.7225304754,51.4941328369,""
"14908351","Weißkeißel, Mitte",14.7205678225,51.4933423121,""
"14908353","Weißkeißel, Lange Straße",14.7224194022,51.4876802887,""
"14908338","Skerbersdorf, Bienengarten",14.795296312200001,51.5064178076,""
"14908357","Weißkeißel, Weißkeißel Abzweig OT Haide",14.7249679043,51.47319138,""
"14908339","Skerbersdorf, Skerbersdorf",14.8117933039,51.500592824600005,""
"14908341","Pechern, Kolonie",14.846467369099999,51.4835185474,""
"14949998","Decín, Decin,,aut.nadr. (Busbahnhof)",14.197954996499998,50.7708517177,""
"14949991","Decín, Myslbekova",14.216513842400001,50.7795447931,""
"14949997","Decín, Decin,,skola",14.229391479,50.7789845213,""
"14950562","Ludvíkovice, Ludvikovice,,",14.2529870083,50.790470375,""
"14950564","Huntírov, Huntirov,,",14.3038001034,50.7891534979,""
"14950508","Markvartice (Decín), Markvartice,,",14.3663360916,50.7857878693,""
"14909501","Lückendorf Kurort, Wendeplatz",14.7652287367,50.8216658121,""
"14909502","Lückendorf Kurort, Kretscham",14.768354899599998,50.825799537399995,""
"14909490","Oybin Kurort, Oybin Ortsteil Hain",14.722211524,50.8334767853,""
"14909505","Lückendorf Kurort, Hochwaldblick",14.7499806293,50.8307840262,""
"14909500","Lückendorf Kurort, Kurhaus",14.757534123100001,50.8317564789,""
"14909503","Lückendorf Kurort, Forsthaus",14.7850251384,50.8289720046,""
"14909491","Oybin Kurort, Oybin Parkplatz",14.743628100399999,50.8418041219,""
"14909495","Oybin Kurort, Bahnhof",14.7458896361,50.843558117899995,""
"14909474","Jonsdorf Kurort, Gondelfahrt",14.691449741100001,50.850581913,""
"14909496","Oybin Kurort, Talweg",14.7465836102,50.8478755477,""
"14909471","Jonsdorf Kurort, Jonsdorf Lindengarten",14.6908440983,50.8533831472,""
"14909475","Jonsdorf Kurort, Jonsdorf Bahnhof",14.706346275200001,50.8537256668,""
"14909472","Jonsdorf Kurort, Jonsdorf Dammschenke",14.6961331165,50.854456790300006,""
"14909504","Lückendorf Kurort, Johannquelle",14.7945497413,50.8422490299,""
"14909473","Jonsdorf Kurort, Jonsdorf Kurhaus",14.7013808319,50.8548118593,""
"14909497","Oybin Kurort, Oybin Hp Teufelsmühle",14.751708813,50.8531494413,""
"14909470","Jonsdorf Kurort, Jonsdorf Buchberg",14.6937514331,50.857739659399996,""
"14909464","Waltersdorf b Zittau, Waltersdorf b ZI Parkplatz",14.654656918599999,50.8589599436,""
"14909480","Jonsdorf Kurort, Jonsdorf Eissporthalle",14.717163189099999,50.8606940093,""
"14940249","Liberec, Jested (Seilbahn)",14.985561352,50.732913287399995,""
"14909498","Oybin Kurort, Oybin Niederdorf",14.755385695100001,50.8586551569,""
"14909485","Jonsdorf Kurort, Haltepunkt",14.725394512,50.8620124252,""
"14909481","Jonsdorf Kurort, Jonsdorf Hutungswiese",14.7254664564,50.862271488,""
"14909466","Waltersdorf b Zittau, Waltersdorf b ZI Abzw Neusorge",14.649604109499998,50.8637951814,""
"14909540","Hartau, Siedlung",14.8045275323,50.852097696,""
"14909499","Oybin Kurort, Oybin Hp Niederdorf",14.7540961808,50.8618415451,""
"14909467","Waltersdorf b Zittau, Waltersdorf b ZI Postamt",14.6497594979,50.866533926600006,""
"14909462","Waltersdorf b Zittau, Waltersdorf b ZI Siedlung",14.659330755700001,50.868195181299996,""
"14950557","Ceská Kamenice, Liska, hor.",14.4716667001,50.820887020300006,""
"14909511","Olbersdorf, Wendeplatz",14.760124098,50.864558224999996,""
"14909468","Großschönau (Sachs), Saalendorf",14.671286643399998,50.86980105360001,""
"14909461","Waltersdorf b Zittau, Waltersdorf b ZI Kirche",14.651751079299999,50.8693298326,""
"14950559","Ceská Kamenice, Fibichova",14.442344763100001,50.8046111991,""
"14950556","Ceská Kamenice, Liska,Krizovy buk",14.491383296,50.8321105384,""
"14909630","Eichgraben (Zittau), Az Olbersdorf",14.7951247085,50.859696363000005,""
"14950552","Ceská Kamenice, Ceska Kamenice,Horni Kamenice,",14.434755149,50.8013624394,""
"14909510","Olbersdorf, Bf Bertsdorf",14.7459126109,50.868598136799996,""
"14909429","Bertsdorf, Jägerwäldchen",14.685164499399999,50.8721976391,""
"14909541","Hartau, Alte Grube",14.809580199,50.8579372946,""
"14909460","Waltersdorf b Zittau, Waltersdorf b ZI Hirsch",14.6542005957,50.8734279791,""
"14909512","Olbersdorf, Ringehanstraße",14.7638198582,50.8686695927,""
"14909516","Olbersdorf, Volksbad",14.7570079207,50.8704942268,""
"14909631","Eichgraben (Zittau), Festplatz",14.7994326485,50.8630726449,""
"14909517","Olbersdorf, Jonsdorfer Straße",14.763587416,50.870023787200005,""
"14909520","Olbersdorf, Bf Oberdorf",14.766957365600001,50.8703035209,""
"14909513","Olbersdorf, Gemeindeverwaltung",14.7659816641,50.8706233798,""
"14950558","Ceská Kamenice, Liska",14.4499427485,50.8180279473,""
"14909423","Bertsdorf, Viebig",14.7091289008,50.8767233653,""
"14950550","Ceská Kamenice, Ceska Kamenice,,Prazska",14.4204481556,50.7996014951,""
"14909542","Hartau, Abzw Altharthau",14.8142100452,50.8619256821,""
"14909442","Großschönau (Sachs), Waldschenke",14.657601325399998,50.8782506609,""
"14909632","Eichgraben (Zittau), Richard-Wagner-Straße",14.8033256321,50.8661530437,""
"14909515","Olbersdorf, Am Heizhaus",14.7573531638,50.8744152279,""
"14909421","Bertsdorf, Resselschmiede",14.7176113718,50.8784051513,""
"14909546","Hartau, Schule",14.8181849284,50.8630524973,""
"14909514","Olbersdorf, Hochwaldstraße",14.7647716739,50.8741856297,""
"14909543","Hartau, Ziegelei",14.8115075305,50.8658841186,""
"14909521","Olbersdorf, Schulweg",14.771478642200002,50.8741792705,""
"14909530","Olbersdorf, Schule",14.774314912300001,50.8738420894,""
"14909425","Bertsdorf, Hirsch",14.721367227,50.879935974599995,""
"14909445","Großschönau (Sachs), Trixi-Park",14.670280700600001,50.882024996999995,""
"14950549","Ceská Kamenice, Ceska Kamenice,,Decinska",14.404910851499999,50.797342723599996,""
"14950947","Chribská, Krasne Pole",14.5023471337,50.8518085344,""
"14909443","Großschönau (Sachs), Weg zum Bad",14.6597839859,50.883883254000004,""
"14909426","Bertsdorf, Sattlerschenke",14.7288165936,50.8828908277,""
"14951009","Horní Podluzí, drubezarna",14.6111297727,50.8805321639,""
"14951012","Dolní Podluzí, Dolni Podluzi,,skola",14.6028573447,50.8794943082,""
"14909522","Olbersdorf, Urlandstraße",14.7748636526,50.878531454100006,""
"14951014","Dolní Podluzí, Dolni Podluzi,,Velveta 06",14.6179607529,50.8817096928,""
"14909588","Zittau, Drei Linden",14.809949894399999,50.8718739121,""
"14951011","Dolní Podluzí, Dolni Podluzi,,kino",14.598408599199999,50.8794856195,""
"14951010","Dolní Podluzí, Dolni Podluzi,,kriz.",14.5932225259,50.879762887199995,""
"14909531","Olbersdorf, Dr-W-Külz-Straße",14.780518291499998,50.8794577314,""
"14909446","Großschönau (Sachs), Jonsdorfer Straße",14.663817466800001,50.8873156934,""
"14950946","Chribská, Horni Chribska,sklarna",14.5028192366,50.857705404700006,""
"14909444","Großschönau (Sachs), Gasthaus Eiche",14.659654552800001,50.8883457707,""
"14951013","Dolní Podluzí, zel.st.",14.6194496805,50.8862077255,""
"14909523","Olbersdorf, Poststraße",14.7795928734,50.8822940532,""
"14909427","Bertsdorf, Strauß",14.737575634399999,50.8878015251,""
"14909525","Olbersdorf, Bf Niederdorf",14.7823824321,50.8821196354,""
"14950945","Chribská, Horni Chribska",14.4962492334,50.8575675143,""
"14949950","Jiretín (pod Jedlovou), Jiretin pod Jedlovou,,nam.",14.5798663405,50.8816145359,""
"14950941","Chribská, ozdravovna",14.4766593041,50.8511072306,""
"14909440","Großschönau (Sachs), Stern",14.6844388993,50.8924443192,""
"14909447","Großschönau (Sachs), Güterboden",14.6631810697,50.89210447959999,""
"14909532","Olbersdorf, Niederviebig",14.786688014400001,50.8837701234,""
"14909587","Zittau, Südstr./Jahnstr.",14.8108276325,50.879135712,""
"14951008","Horní Podluzí, ,,u vleku",14.556869706999999,50.878479641300004,""
"14909428","Bertsdorf, Niederdorf",14.7442148052,50.89023495280001,""
"14909450","Großschönau (Sachs), Bahnhof",14.666784248599999,50.8929662105,""
"14909441","Großschönau (Sachs), Ziegelei",14.677041862600001,50.8933516054,""
"14909448","Großschönau (Sachs), Schießwiese",14.660199696800001,50.8931705246,""
"14951025","Varnsdorf, TOS",14.6244299091,50.8906002582,""
"14909400","Hainewalde, Ortsende",14.6849188509,50.8941146048,""
"14909524","Olbersdorf, Niederdorf",14.7848804367,50.885872299199995,""
"14909582","Zittau, Landratsamt",14.7972124281,50.883877809800005,""
"14909583","Zittau, Heffterstraße",14.8016805415,50.883015284,""
"14951005","Horní Podluzí, ,,dolni",14.561579296200001,50.8824671645,""
"14909558","Zittau, Ottersteg",14.8099467773,50.882681528000006,""
"14909454","Großschönau (Sachs), Cafe",14.664612454899999,50.8960098692,""
"14909584","Zittau, Technisches Rathaus",14.8068460853,50.883826163,""
"14951007","Horní Podluzí, Horni Podluzi (Bahnhof)",14.5569765996,50.88276596440001,""
"14909409","Hainewalde, Berghäuser",14.696900490900001,50.8972637787,""
"14909590","Zittau, Gerhart-Hauptmann-Straße",14.814148812700001,50.883776043999994,""
"14951015","Varnsdorf, ,jatky",14.625700224800001,50.8949862482,""
"14909581","Zittau, Hochwald- / Kantstraße",14.800542715,50.8867919759,""
"14909430","Hörnitz, Kremser",14.7497849465,50.8947791717,""
"14951026","Horní Podluzí, Horni Podluzi (Bus)",14.5455206666,50.881452142700006,""
"14950944","Chribská, skola",14.481378921000001,50.8608158997,""
"14909451","Großschönau (Sachs), Weinhaus",14.656123518000001,50.8977319711,""
"14909586","Zittau, Südstraße",14.809278303100001,50.8859794539,""
"14909577","Zittau, Haltepunkt Vorstadt",14.791729565699999,50.8901142576,""
"14909575","Zittau, Dr.-Sommer-Straße",14.8065554485,50.8875016015,""
"14950940","Chribská, nam.",14.4823955295,50.86310490779999,""
"14909401","Hainewalde, Himmelsbrücke",14.692854627400001,50.9003243195,""
"14909535","Olbersdorf, Freizeit-Oase",14.7714343711,50.8947342744,""
"14909574","Zittau, Schrammstraße",14.8006659311,50.8897921014,""
"14909452","Großschönau (Sachs), Oberdorf",14.658893260600001,50.9004291142,""
"14909526","Olbersdorf, Bärschstraße",14.7899447045,50.891883289999996,""
"14951021","Varnsdorf, u Vorlicku",14.6284902981,50.8983309942,""
"14950924","Rybniste, Nova Chribska",14.4984444143,50.870458340800006,""
"14909435","Hörnitz, Gartenstraße",14.7539727187,50.8973237711,""
"14909591","Zittau, Stadtwerke",14.8132832944,50.887573270500006,""
"14909434","Hörnitz, Straße der Jugend",14.749157835299998,50.8981296837,""
"14909580","Zittau, Sternwarte",14.804406886799999,50.8895943081,""
"14909573","Zittau, Äußere Oybiner Straße",14.7940092643,50.892100679500004,""
"14909576","Zittau, Humboldtstraße",14.796216246199998,50.891921907900006,""
"14951080","Varnsdorf, Karla lV.",14.619167237700001,50.898648609,""
"14909585","Zittau, KVG",14.810891972699999,50.889878754399994,""
"14909410","Hainewalde, Charlottenruh",14.7251586002,50.902514130300005,""
"14909432","Hörnitz, Stadt Zittau",14.749215007199998,50.9005469629,""
"14909578","Zittau, Hochwaldstraße",14.8068490284,50.891909254,""
"14909597","Zittau, M-Wehnert-Platz",14.8115568647,50.8910046203,""
"14950923","Rybniste, odb.Doubice",14.5062224945,50.876656972000006,""
"14950922","Rybniste, posta",14.5129571805,50.879011512599995,""
"14909433","Hörnitz, Schweizerhof",14.7595262649,50.900114644,""
"14951004","Varnsdorf, Varnsdorf, zel.st. (Bahnhof)",14.6388898247,50.903221051,""
"14909596","Zittau, Haltepunkt Süd",14.8167976454,50.890689340399994,""
"14909553","Zittau, Hochschule",14.803465392100001,50.8937978854,""
"14909572","Zittau, Goldbachstraße",14.7925058045,50.8959579702,""
"14909431","Hörnitz, Oberdorf",14.7358761915,50.90342308779999,""
"14909566","Zittau, Pethau Wendeplatz",14.7707635837,50.899956124999996,""
"14909565","Zittau, Graf-Yorck-Straße",14.7804100856,50.89934892989999,""
"14909405","Hainewalde, Haltepunkt",14.7043443656,50.9064781347,""
"14951018","Varnsdorf, ,Severni draha",14.631522028900001,50.9044394501,""
"14909554","Zittau, Ottokarplatz",14.8111316236,50.893856116500004,""
"14909552","Zittau, Dr.-Brinitzer-Straße",14.8004464564,50.8960822662,""
"14909594","Zittau, Neubaugebiet Ost",14.822172170200002,50.8918811264,""
"14950921","Rybniste, u hrbitova",14.5204378424,50.8846402049,""
"14951081","Varnsdorf, Horska",14.6196964483,50.9042740692,""
"14909402","Hainewalde, Gemeindeamt",14.701843681300002,50.907740892700005,""
"14909562","Zittau, Freudenhöhe",14.7866845389,50.899657736600005,""
"14909570","Zittau, Heinrich-Mann-Straße",14.7909542912,50.8990161669,""
"14909571","Zittau, Rathenaustraße",14.7964170499,50.8983548328,""
"14950925","Rybniste, ,zel.st.",14.510389307599999,50.8825282902,""
"14951024","Varnsdorf, hotel Sport",14.6388922199,50.9067814346,""
"14951058","Varnsdorf, Zitavska",14.6458245126,50.9076583656,""
"14951064","Varnsdorf, Vasped",14.6486909429,50.90805185480001,""
"14909561","Zittau, Dresdner Straße",14.7974302086,50.899364530300005,""
"14909555","Zittau, Klosterplatz",14.8076535744,50.8974824605,""
"14909563","Zittau, Pethau Gewerbegebiet",14.775774202900001,50.9033975057,""
"14909593","Zittau, Brückenstraße",14.8205134342,50.8952480338,""
"14909551","Zittau, Töpferberg",14.8035168894,50.8989126779,""
"14909403","Hainewalde, Kirchsteg",14.704734949,50.910515073,""
"14909592","Zittau, Friedhof",14.816066885500002,50.8974234806,""
"14909556","Zittau, Rosa-Luxemburg-Straße",14.815453056499999,50.8976181259,""
"14909610","Zittau, Goethestraße",14.8103790308,50.899062221,""
"14951019","Varnsdorf, ,sportovni hala",14.623761526800001,50.9090468224,""
"14951069","Varnsdorf, Bratislavska",14.640544243,50.9105921983,""
"14909560","Zittau, Theater",14.809935259100001,50.899720285099995,""
"14909564","Zittau, Pethau Watzdorfheim",14.7669996288,50.907211468,""
"14909557","Zittau, Bahnhofstraße",14.8055998315,50.9009215901,""
"14909598","Zittau, Lutherplatz",14.8190381244,50.8981249512,""
"14909599","Zittau, Zittau Haltepunkt",14.8175008402,50.8985667066,""
"14909607","Zittau, Schlachthof",14.8237015625,50.8971849387,""
"14951022","Varnsdorf, poliklinika",14.625552738000001,50.9110564625,""
"14951023","Varnsdorf, Elite",14.6317154252,50.911645861,""
"14909606","Zittau, Chopinstraße",14.8338811561,50.896947024999996,""
"14909608","Zittau, Kreiskrankenhaus",14.8219189337,50.9001502546,""
"14909612","Zittau, Leipziger Straße",14.821254743999999,50.9006878178,""
"14951020","Varnsdorf, ,aut.nadr.",14.618662309300001,50.911939615200005,""
"14909633","Zittau, Komturstraße",14.8197070003,50.9011927936,""
"14909406","Hainewalde, Schloss",14.7104826106,50.915200888200005,""
"14909550","Zittau, Bahnhof",14.8059497852,50.904374807399996,""
"14909609","Zittau, Dornspachstraße",14.8155801345,50.902785044400005,""
"14951028","Varnsdorf, Cs.mladeze",14.6123074507,50.912486691800005,""
"14909600","Zittau, Kämmelstraße",14.8225289426,50.9017719085,""
"14951027","Varnsdorf, Velveta 03",14.6171892979,50.9130605793,""
"14909703","Mittelherwigsdorf, Kaufpark",14.754034593799998,50.9132996339,""
"14909618","Zittau, Bergstraße",14.7994167978,50.906878507200005,""
"14909605","Zittau, Tierpark / Weinau",14.8318627372,50.899999149200006,""
"14950920","Rybniste, Nova Ves",14.511845761500002,50.8929532825,""
"14909615","Zittau, Löbauer Platz",14.8079515567,50.905738260899994,""
"14909611","Zittau, Schillerstraße",14.8125673168,50.904934719900005,""
"14909620","Zittau, Herwigsdorfer Straße",14.7927864987,50.908718812800004,""
"14951048","Varnsdorf, Studanka, STS",14.5579434581,50.9055906402,""
"14949984","Varnsdorf, 5. kvetna",14.6117460048,50.9143963548,""
"14909702","Mittelherwigsdorf, Gh Mandautal",14.7485232041,50.915587506600005,""
"14909407","Hainewalde, Niederdorf",14.7162708467,50.9183659849,""
"14909453","Großschönau (Sachs), Forsthaus",14.6607540463,50.919088026400004,""
"14909601","Zittau, Abzw Weinau",14.8267273055,50.903945028900004,""
"14951017","Varnsdorf, Studanka,",14.569668071099999,50.9093428894,""
"14909614","Zittau, Eckartsberger Straße",14.808923463300001,50.9079446918,""
"14951029","Varnsdorf, Studanka, posta",14.5670568303,50.9089238643,""
"14909709","Mittelherwigsdorf, Gütchen",14.7598294144,50.9160488403,""
"14909699","Mittelherwigsdorf, Gemeinde",14.763935230700001,50.9159696089,""
"14909613","Zittau, Clara-Zetkin-Straße",14.8118963616,50.908664290699996,""
"14949983","Varnsdorf, mlekarna",14.6072097938,50.9169523543,""
"14909616","Zittau, Löbauer Straße",14.804744896899999,50.9110573161,""
"14909602","Zittau, Weinau",14.8335240499,50.9053445918,""
"14909408","Hainewalde, Roschertal",14.7232720502,50.9215834089,""
"14909681","Eckartsberg (Sachs), Abzw Radgendorf",14.819618695499999,50.9098445403,""
"14909700","Mittelherwigsdorf, Bahnhof",14.7417769977,50.922040068899996,""
"14909686","Eckartsberg (Sachs), Arztpraxis",14.8153467869,50.911638088800004,""
"14909682","Eckartsberg (Sachs), Schule",14.8101335607,50.9131574479,""
"14909617","Zittau, Löbauer Straße Wendeplatz",14.803814901900001,50.914748103799994,""
"14909624","Zittau, Ostritzer Allee",14.8418429451,50.9086128422,""
"14950966","Doubice, ObU",14.4646061103,50.8888902056,""
"14950905","Krásná Lípa, statek",14.5308212141,50.9096796689,""
"14909367","Seifhennersdorf, Grenze (Varnsdorf)",14.6077404,50.9244029742,""
"14909685","Eckartsberg (Sachs), Alte Gasse",14.8051192005,50.9182233301,""
"14909708","Mittelherwigsdorf, Gh Oberherwigsdorf",14.770186741800002,50.9251901283,""
"14909684","Eckartsberg (Sachs), Löbauer Straße",14.8022707146,50.9207643854,""
"14950903","Krásná Lípa, poz.zbroj.",14.509525053900001,50.910328549499994,""
"14909366","Seifhennersdorf, Zollstraße",14.615320288,50.930446038,""
"14909392","Spitzkunnersdorf, Wilder Hirsch",14.6679400593,50.9347930548,""
"14909707","Mittelherwigsdorf, Oberdorf Mitte",14.769517238799999,50.92996235689999,""
"14950906","Krásná Lípa, CKD",14.5241825623,50.9157664432,""
"14950907","Krásná Lípa, u samoobsluhy",14.512599899800001,50.912761808700004,""
"14950904","Krásná Lípa, ozdravovna",14.5081164753,50.912165994999995,""
"14909641","Drausendorf, Gasthof",14.849126049899999,50.9167880979,""
"14909393","Spitzkunnersdorf, Kirche",14.6777629189,50.936860727399996,""
"14950902","Krásná Lípa, Krasna Lipa, nam.",14.507980689699998,50.91360744319999,""
"14909394","Spitzkunnersdorf, Niederschenke",14.6869665361,50.9373054728,""
"14909680","Radgendorf, Ortsteil Radgendorf",14.8390981668,50.920287455700006,""
"14909710","Niederoderwitz, Landberg",14.7479574784,50.9349407884,""
"14909706","Mittelherwigsdorf, Oberdorf Abzw Niederoderwitz",14.768878034699998,50.9333312364,""
"14950901","Krásná Lípa, zel.st.",14.5140572111,50.916578479399995,""
"14950967","Doubice, u haj.",14.453706895300002,50.8970588337,""
"14909364","Seifhennersdorf, Am Rathaus",14.6116574371,50.9346459357,""
"14909396","Spitzkunnersdorf, Siedlung",14.694776728199999,50.93899547709999,""
"14909365","Seifhennersdorf, Bahnhof",14.6141713167,50.9355786389,""
"14909371","Seifhennersdorf, Leutersdorfer Str",14.6185531776,50.9360737783,""
"14950900","Krásná Lípa, Tyrsova",14.5181955367,50.91946518419999,""
"14909370","Seifhennersdorf, Gymnasium",14.605548573400002,50.936086203100004,""
"14909705","Mittelherwigsdorf, Oberdorf Wendeplatz",14.769406722800001,50.9362408166,""
"14909369","Seifhennersdorf, Oberschule",14.5967104446,50.9365619583,""
"14950987","Rumburk, odstavné park.",14.5587580295,50.9318351088,""
"14950009","Krásná Lípa, NOVIA",14.4955921729,50.9170378739,""
"14950013","Krásná Lípa, Kyjov, ovcin",14.4606406523,50.906416001000004,""
"14909711","Niederoderwitz, Gasthaus Stern",14.742323042899999,50.942437094599995,""
"14909375","Seifhennersdorf, OT Seifen",14.626373930200002,50.942290552,""
"14909391","Spitzkunnersdorf, Abzw Leutersd",14.673100032299999,50.944870753800004,""
"14909690","Oberseifersdorf, Niederdorf",14.8033838375,50.936193560499994,""
"14909643","Drausendorf, Schulverwaltung",14.867977059,50.922179481600004,""
"14909368","Seifhennersdorf, Oberdorf Grenzüb. Rumburk",14.586051729600001,50.9393610938,""
"14950012","Krásná Lípa, host.",14.4609846564,50.9115874136,""
"14909642","Drausendorf, Abzw Wittgendorf",14.8634184506,50.9264724417,""
"14950008","Krásná Lípa, Krasny Buk",14.489755368900001,50.921729898100004,""
"14909691","Oberseifersdorf, Am Dünker",14.807205694299999,50.9394014383,""
"14950011","Krásná Lípa, Kyjov, rozc.",14.462761449,50.9134559554,""
"14909361","Seifhennersdorf, Silberteich",14.6070601921,50.9468235498,""
"14950010","Krásná Lípa, Kyjov",14.4641004259,50.915918117000004,""
"14909695","Oberseifersdorf, Bäckerei Kolbe",14.805814905399998,50.9418265591,""
"14950993","Rumburk, rest.Zátisí",14.542234520600001,50.938256133500005,""
"14950007","Krásná Lípa, Snezna",14.4838618724,50.9253798977,""
"14909645","Wittgendorf b Zittau, Niederdorf",14.8543427267,50.934382436,""
"14909646","Wittgendorf b Zittau, Kindergarten",14.8490322419,50.9380548182,""
"14909647","Wittgendorf b Zittau, Mitte",14.8449146729,50.9396028981,""
"14950994","Rumburk, ,Krasnolipska",14.5506028086,50.946336074799994,""
"14950909","Krásná Lípa, Vlcí Hora,VÚ",14.4747384526,50.9319841713,""
"14950006","Krásná Lípa, Zahrady,rozc.",14.4810275803,50.934934432300004,""
"14909654","Hirschfelde/Neiße, Gewerbepark",14.8788931538,50.9388412837,""
"14950910","Krásná Lípa, Vlcí Hora",14.463687082,50.9320472258,""
"14950005","Krásná Lípa, Zahrady,SOU",14.484233607099998,50.9459607868,""
"14942129","Staré Krecany, Jednota",14.4859020129,50.9489551319,""
"14942120","Staré Krecany, Brtníky,Na ruzku",14.4351403326,50.94743615829999,""
"14908526","Hähnichen, Bahnhof",14.857951845,51.3636531125,""
"14908527","Hähnichen, Hähnichen Ort",14.863696555099999,51.365032148599994,""
"14908521","Trebus b Niesky, Denkmal",14.8422438641,51.3440131059,""
"14908520","Trebus b Niesky, An der Feuerwehr",14.8302385132,51.345113231800006,""
"14908525","Quolsdorf, Kreuzung",14.859456485699999,51.3728139596,""
"14908519","Trebus b Niesky, Neulänge",14.8235128171,51.3459320182,""
"14908524","Quolsdorf, Denkmal",14.8511499219,51.3794539828,""
"14908529","Spree, Gemeindeverwaltung",14.880130382799999,51.3513584147,""
"14908515","Stannewisch, Gasthaus",14.803525112,51.359736796899995,""
"14908512","Stannewisch, Am Schachthaus",14.803327540200002,51.350157413999995,""
"14908510","Kosel b Niesky, Sandschänke",14.811298569,51.337307233,""
"14908383","Teicha (OL), Teicha (OL)",14.8159358731,51.387157279899995,""
"14908518","Kosel b Niesky, Zedlig",14.792930019100002,51.372523126400004,""
"14908388","Daubitz, Oberdorf",14.8421696882,51.394731877699996,""
"14908511","Kosel b Niesky, Buswendeplatz",14.7875358167,51.3518382529,""
"14908569","Rothenburg (OL), Spreehammer",14.8843111537,51.3319790028,""
"14908387","Daubitz, Markt",14.8293327531,51.3965442576,""
"14908386","Daubitz, Schloss",14.821621944599999,51.396892177,""
"14908565","Uhsmannsdorf, Bahnhof",14.8945461584,51.3281388954,""
"14908381","Rietschen, Neuhammer b Weißwasser",14.802936387799999,51.396630745,""
"14908566","Uhsmannsdorf, Gemeinde",14.8991109763,51.32997691359999,""
"14908376","Rietschen, Bergklause",14.785551611999999,51.3879740819,""
"14908567","Uhsmannsdorf, Pappelallee",14.9036944469,51.330969146499996,""
"14908379","Rietschen, Rothenburger Straße",14.7871218772,51.3960732533,""
"14908371","Rietschen, Bautzener Straße",14.7799957997,51.3923227546,""
"14908370","Rietschen, Nieder Prauske",14.7718161072,51.3853871226,""
"14908372","Rietschen, Kirchstraße",14.784305439899999,51.396553835199995,""
"14908378","Rietschen, Bahnhof",14.7843248431,51.3987650724,""
"14908373","Rietschen, Gemeindeamt",14.7863686036,51.399993123899996,""
"14908631","Horka (Oberlausitz), Sandberg",14.9003191083,51.3161548869,""
"14908536","Neusorge (OL), Neusorge (OL)",14.9310457048,51.3794676998,""
"14908553","Dunkelhäuser, Kreuzung",14.9325750773,51.33823287840001,""
"14908630","Horka (Oberlausitz), Dahlienweg",14.9007799741,51.310955687699995,""
"14908538","Bremenhain, Mitte",14.941166173900001,51.361420760399994,""
"14908490","Niesky, Busbahnhof",14.8320080282,51.298156353399996,""
"14908539","Bremenhain, Kreuzung",14.942621855599999,51.3547848018,""
"14908367","Rietschen, Werda",14.7667713375,51.3998824589,""
"14908374","Rietschen, Abzw Heidehäuser",14.7882605,51.4131283649,""
"14908491","Niesky, Rathaus",14.8239175049,51.2953220195,""
"14908625","Horka (Oberlausitz), Bahnhof",14.9024575911,51.3039011375,""
"14908499","Niesky, Horkaer Straße",14.826738623599999,51.2926914966,""
"14908505","Niesky, Schulstraße",14.8327472355,51.2919977079,""
"14908368","Hammerstadt (Kr GR), Hammerstadt (OL)",14.752966095400001,51.3971330861,""
"14908480","Niesky, Förderschule",14.8114918089,51.2945064462,""
"14908482","Niesky, Krankenhaus",14.8187709279,51.2930096278,""
"14908623","Horka (Oberlausitz), Mitte",14.896639493499999,51.2994329832,""
"14908498","Niesky, Ödernitzer Straße",14.824698163099999,51.291688856600004,""
"14908500","Niesky, Anker",14.8392157651,51.290627123,""
"14908492","Niesky, Stadtcafe",14.8215619285,51.2910542686,""
"14908362","Neuliebel, Neuliebel",14.7360382094,51.380807417099994,""
"14908627","Horka (Oberlausitz), Schule Wendeschl.",14.8973184547,51.2976899063,""
"14908471","See (Niesky), Moholz",14.7722800972,51.3041632611,""
"14908501","Niesky, Schwabenweg",14.852009177200001,51.288131124900005,""
"14908472","See (Niesky), Grundschule",14.7805102921,51.298663407199996,""
"14908502","Niesky, Weidmannsheim",14.8648257301,51.288330419800005,""
"14908621","Horka (Oberlausitz), Kreuzung",14.8911623963,51.2928432465,""
"14908555","Geheege (OL), Geheege (OL)",14.944108012900001,51.3217684728,""
"14908535","Lodenau, Gasthaus",14.957548252399999,51.379169706499994,""
"14908474","See (Niesky), Untere Siedlung",14.777231599999999,51.297329738600006,""
"14908534","Lodenau, ehemalige Schule",14.9554500337,51.3853994923,""
"14908547","Rothenburg (OL), Flugplatz",14.9632339201,51.356215766700004,""
"14908493","Niesky, Jänkendorfer Straße",14.818491025400002,51.285868662599995,""
"14908541","Rothenburg (OL), Gewerbegebiet Nord",14.9632750538,51.351071869200005,""
"14908475","See (Niesky), Am Schäferberg",14.784129055300001,51.293057014,""
"14908540","Rothenburg (OL), Oberschule",14.9649696258,51.355965012800006,""
"14908532","Lodenau, Ungunst",14.948597294699999,51.3979258528,""
"14908494","Niesky, Gewerbegebiet",14.8196622589,51.2846266733,""
"14908550","Rothenburg (OL), Noes Erlicht",14.963410139599999,51.342491020400004,""
"14908551","Rothenburg (OL), Abzw Bremenhain",14.9634900531,51.339503977499994,""
"14908628","Horka (Oberlausitz), Gasthaus Kalbas",14.8924633742,51.2873086206,""
"14908542","Rothenburg (OL), Grundschule",14.964187432500001,51.3358539392,""
"14908360","Altliebel, Altliebel",14.7165884642,51.377223604600005,""
"14908470","See (Niesky), Weg nach Petershain",14.747936259900001,51.3036227219,""
"14908544","Rothenburg (OL), Krankenhaus",14.964490397999999,51.3289861059,""
"14908543","Rothenburg (OL), Markt",14.9698075559,51.334866276700005,""
"14908629","Horka (Oberlausitz), Fiebigweg",14.8927769092,51.2824907028,""
"14908546","Rothenburg (OL), Martinshof",14.973743668200001,51.336690394,""
"14908570","Sproitz, Am Quarzitwerk",14.764607853300001,51.2901124821,""
"14908545","Rothenburg (OL), Schützenplatz",14.9708393744,51.330182723200004,""
"14908530","Steinbach b Niesky, Steinbach b Niesky",14.9571776291,51.411501531499994,""
"14908633","Biehain, Biehain",14.9366521921,51.2928968951,""
"14908496","Ödernitz, Abzw Ödernitz",14.8424326127,51.270751083899995,""
"14908582","Horscha, Horscha",14.7326109224,51.3030196677,""
"14908556","Rothenburg (OL), Winklermühle",14.976934379,51.322142649,""
"14908600","Jänkendorf, Schäferei",14.8134677489,51.2696082883,""
"14908571","Sproitz, Gasthaus",14.7472204308,51.289002668500004,""
"14908634","Biehain, Zeltplatz R-13",14.945231389899998,51.287583275699994,""
"14908467","Mücka, Schule",14.7035320324,51.3151043174,""
"14908637","Mückenhain, Ortseingang",14.8981218264,51.2671995975,""
"14908641","Särichen, Abzw Mückenhain",14.885762537,51.263459270400006,""
"14908640","Särichen, Kreuzung",14.885335209099999,51.2632720126,""
"14908572","Kollm, Jahmener Weg",14.7397755751,51.2819667224,""
"14908636","Mückenhain, Gasthaus",14.9004215663,51.2634382962,""
"14908638","Mückenhain, Telefonzelle",14.9009503428,51.262732874,""
"14908601","Jänkendorf, Ortseingang",14.8124580409,51.257539879700005,""
"14908639","Mückenhain, Alte Schule",14.913765752600002,51.2612094843,""
"14908575","Kollm, Zeltplatz",14.735339150700002,51.2753454995,""
"14908635","Mückenhain, Am Bahnhof",14.916230423,51.2603028936,""
"14908645","Kodersdorf, Bahnhof",14.916716747,51.2591578954,""
"14908603","Jänkendorf, Tankstelle",14.8088150223,51.2504347481,""
"14908655","Kaltwasser (Sachs), Ortschaftszentrum",14.948800711399999,51.270122608,""
"14908602","Jänkendorf, Schule",14.8100818303,51.2495951367,""
"14908605","Jänkendorf, Am Park",14.8122390444,51.2452726175,""
"14908656","Kaltwasser (Sachs), Kinderspielpark",14.9556638365,51.266514766300006,""
"14908576","Kollm, Gemeindeverwaltung",14.728989451599999,51.266889711,""
"14908606","Diehsa, Zur Folge",14.7845499994,51.246708434300004,""
"14908646","Kodersdorf, Wendeschleife",14.8891803439,51.244161138399996,""
"14908349","Klein Priebus, Klein Priebus",14.9576696085,51.454717385900004,""
"14908644","Kodersdorf, Gasthaus Anders",14.888801950600001,51.243837820100005,""
"14908342","Pechern, Pechern",14.860364691000001,51.4800962742,""
"14908607","Diehsa, Gärtnerei",14.7703523607,51.2466860059,""
"14908578","Steinölsa, Kaufpunkt",14.6970741735,51.2791290379,""
"14908345","Werdeck (Kr GR), Abzweig nach Werdeck",14.904553826099999,51.4771479519,""
"14908344","Werdeck (Kr GR), Bundeswehr",14.8962279783,51.479583787,""
"14908608","Diehsa, Gasthaus",14.7623141633,51.2447453369,""
"14908660","Klein-Krauscha, Klein Krauscha",14.952269604,51.253815165,""
"14908358","Haide b Weißwasser, Forsthaus",14.738199871600001,51.4672188631,""
"14908347","Podrosche, Podrosche",14.947004905699998,51.4705493751,""
"14908611","Unbekannt, Baarsdorf",14.8011337255,51.2327271851,""
"14908649","Kodersdorf, Schule",14.892943865,51.233377772199994,""
"14908354","Haide b Weißwasser, Wendeschleife",14.7172119404,51.4647766525,""
"14908648","Kodersdorf, Abzw Wiesa",14.8911828494,51.23041833,""
"14908654","Wiesa (OL), Wiesa (OL)",14.859082233299999,51.226586335300006,""
"14908609","Diehsa, Ortseingang",14.745766667,51.240855436500006,""
"14908647","Kodersdorf, Gerichtskretscham",14.8948665594,51.22978772,""
"14908356","Haide b Weißwasser, Kriegerdenkmal",14.719122394000001,51.4693084655,""
"14908652","Kodersdorf, Autobahnbrücke",14.8923125308,51.2230896758,""
"14908613","Nieder Seifersdorf, Heinrich",14.7837348416,51.2246823152,""
"14908661","Groß-Krauscha, Groß-Krauscha",14.969040094699999,51.243698119799994,""
"14908587","Groß Radisch, Gasthaus",14.693172302,51.2533618243,""
"14908586","Groß Radisch, Ortsausgang",14.695263136700001,51.2484497041,""
"14908663","Neu-Krauscha, Neu-Krauscha",14.9809567359,51.24190238920001,""
"14908616","Nieder Seifersdorf, Seifersdorf Kirche",14.7774498828,51.21875397389999,""
"14908584","Thräna b Niesky, Thräna b Niesky",14.7058805663,51.2399510639,""
"14908653","Kodersdorf, Torga",14.8913111121,51.2151124249,""
"14908614","Nieder Seifersdorf, Gasthaus",14.7716774677,51.2179918766,""
"14908585","Groß Radisch, Nieder Radisch",14.6927850227,51.2398757402,""
"14908674","Kunnersdorf/Görlitz, Feldhäuser",14.9246375307,51.214876852,""
"14908422","Uhyst (Spree), Uhyst (Spree) Bautzener Straße",14.5081566184,51.360378875900004,""
"14908420","Uhyst (Spree), Uhyst (Spree) Gaststätte",14.509202830000001,51.3650673443,""
"14908423","Uhyst (Spree), Uhyst (Spree) Forsthaus",14.5059648718,51.351273741199996,""
"14908429","Mönau, Mönau",14.502747231199999,51.3393945295,""
"14908430","Kaschel, Kaschel Ausbau",14.5631104522,51.337971299,""
"14908418","Drehna b Hoyerswerda, Abzweig nach Drehna",14.483430332800001,51.3688983385,""
"14908417","Drehna b Hoyerswerda, Drehna b Hoyerswerda",14.479451480700002,51.3627794382,""
"14908431","Kaschel, Kaschel",14.5750868777,51.3414034476,""
"14908443","Kaschel, Kaschel Zimpeler Weg",14.5766955431,51.3409095339,""
"14908427","Rauden, Rauden",14.4883901537,51.3356190779,""
"14908433","Klitten, Klitten Jahmen",14.595541665199999,51.3518120194,""
"14906972","Bärwalde (Kr GR), Abzw Bärwalde",14.529780126799999,51.4022486809,""
"14908436","Klein-Oelsa, Klitten Schule",14.590610808900001,51.3356756128,""
"14908406","Boxberg (OL), Bärwalder See",14.573609428000001,51.396456810400004,""
"14908434","Klitten, Klitten Kirche",14.6039030081,51.3486145222,""
"14908437","Klitten, Abzweig nach Dürrbach",14.6073112925,51.3608465168,""
"14908449","Klitten, Klitten Junkerkreuzung",14.5958249993,51.3334653112,""
"14906971","Bärwalde (Kr GR), Bärwalde b Hoyerswerda",14.5246241237,51.4114490632,""
"14908404","Boxberg (OL), Sparkasse",14.5796502073,51.4029227687,""
"14908402","Boxberg (OL), Busbahnhof",14.560045841500001,51.4104013786,""
"14908403","Boxberg (OL), Am Schöps",14.5752902346,51.4064170691,""
"14908411","Kringelsdorf, Denkmal",14.6079500696,51.3872370479,""
"14908405","Boxberg (OL), Warmwasseranlage",14.5496193971,51.417560324600004,""
"14908412","Kringelsdorf, Waage",14.6173567159,51.384635697,""
"14908435","Klitten, Klitten Ausbau",14.6254281998,51.3471896737,""
"14908401","Boxberg (OL), Abzweig nach Boxberg",14.5836095844,51.412724812899995,""
"14908447","Zimpel, Zimpel",14.614449279499999,51.3245637457,""
"14908409","Sprey, Sprey",14.537160957500001,51.42443869780001,""
"14908395","Boxberg (OL), Kraftwerk",14.580678422099998,51.418111696,""
"14908445","Tauer (Sachsen), Tauer",14.6267771195,51.320331863700005,""
"14908438","Klitten, Abzweig nach Klein-Radisch",14.643960622700002,51.3459184026,""
"14908390","Nochten, Ortseingang",14.5950227774,51.427405360399995,""
"14908391","Nochten, Bautzener Straße",14.5990200539,51.4311915454,""
"14908442","Reichwalde b Weißw., Busplatz",14.6631694466,51.3810582486,""
"14908441","Reichwalde b Weißw., Schullandheim",14.662061902900001,51.3844998128,""
"14908444","Reichwalde b Weißw., Mühlenstraße",14.6690136555,51.377796472899995,""
"14908384","Nochten, Findlingspark",14.603976735400002,51.435648525,""
"14908446","Reichwalde b Weißw., Ausbau",14.6796902154,51.3805464095,""
"14908464","Förstgen b Niesky, Dorfstraße",14.6539078466,51.3021791599,""
"14908463","Förstgen b Niesky, Gasthaus",14.663409581200002,51.2968566053,""
"14908595","Dauban, Dauban",14.634482521999999,51.2770401135,""
"14908461","Leipgen, Kreuzung Leipgen",14.656113176200002,51.282754457900005,""
"14908592","Weigersdorf (Sachs), Landambulatorium",14.6408873213,51.273497263,""
"14908460","Leipgen, Leipgen",14.666731894,51.282926440199994,""
"14908591","Weigersdorf (Sachs), Niederdorf",14.645682309900002,51.268893624600004,""
"14908590","Weigersdorf (Sachs), Sparkasse",14.6458340391,51.2593152265,""
"14908589","Ober Prauske, Prauske Ort",14.6607592943,51.255254526899996,""
"14908593","Ober Prauske, Bergstraße",14.6623915986,51.254740877799996,""
"14907802","Quatitz, Schulbus",14.446810313599999,51.2345013259,""
"14908588","Ober Prauske, Abzw Groß Radisch",14.670037624299999,51.2469964595,""
"14908598","Gebelzig, Abzw Niesky",14.6682007011,51.2363035585,""
"14908599","Gebelzig, Gebelzig",14.667360354,51.223268300200004,""
"14908825","Friedersdorf b Görl., Wendeschleife",14.859918792999999,51.089227555600004,""
"14908826","Friedersdorf b Görl., Neue Straße",14.862675815600001,51.0911020976,""
"14908801","Deutsch-Paulsdorf, Wendeschleife",14.830150488100001,51.0980806177,""
"14908827","Friedersdorf b Görl., Schule",14.8674328969,51.0950673817,""
"14908802","Deutsch-Paulsdorf, Schloss",14.832847966700001,51.103427853199996,""
"14908828","Friedersdorf b Görl., Gasthaus",14.8717487347,51.0972001422,""
"14909023","Schönau-Berzdorf, Gasthaus Sonne",14.8688044355,51.055652410700006,""
"14909035","Altbernsdorf a Eigen, Trockenwerk",14.8620464858,51.0527162969,""
"14909050","Kemnitz b Löbau, Lindel",14.8085629504,51.0604436288,""
"14909037","Altbernsdorf a Eigen, Gaststätte",14.84652003,51.050065825699996,""
"14909044","Bernstadt a d Eigen, Waldbad",14.8176675714,51.05483862289999,""
"14909053","Lehdehäuser, Lehdehäuser",14.798439632900001,51.084665803899995,""
"14909022","Schönau-Berzdorf, Weißes Rössel",14.882055510299999,51.0620425175,""
"14909038","Altbernsdorf a Eigen, Oberdorf",14.836141444099999,51.0492304569,""
"14909036","Altbernsdorf a Eigen, Blumengarten",14.8550519787,51.049398962000005,""
"14909040","Bernstadt a d Eigen, Ostritzer Straße",14.8324086375,51.0490693163,""
"14909043","Bernstadt a d Eigen, Sonnenblick",14.8212569691,51.050993668299995,""
"14909046","Bernstadt a d Eigen, KVG",14.8227439072,51.0503463351,""
"14909051","Kemnitz b Löbau, Kretscham",14.797946352899999,51.0644387742,""
"14909057","Kemnitz b Löbau, Schule",14.795227511799999,51.066913488100006,""
"14909042","Bernstadt a d Eigen, Markt",14.8265981229,51.0475827312,""
"14909025","Schönau-Berzdorf, Friedersd.Str",14.8912940225,51.0653566672,""
"14908804","Markersdorf (Kr GR), Gersdorf b GR Schenkhäuser",14.8501836674,51.110828391199995,""
"14909021","Schönau-Berzdorf, Brauerei",14.8920644341,51.064897019600004,""
"14908798","Sohland a Rotstein, Obersohland Gerichtskretscham",14.793582494099999,51.091471404299995,""
"14909041","Kunnersdorf a Eigen, Katholische Kirche",14.8231466534,51.04641647,""
"14909024","Schönau-Berzdorf, Schule",14.889576624100002,51.0602382226,""
"14908829","Friedersdorf b Görl., Schmiede",14.8822181232,51.1022920025,""
"14909052","Kemnitz b Löbau, Hornstraße",14.7900024968,51.0682971839,""
"14909056","Kemnitz b Löbau, Am Park",14.7894082797,51.0671964897,""
"14909020","Schönau-Berzdorf, Am Hutberg",14.8938581979,51.0602580668,""
"14908797","Sohland a Rotstein, Obersohland Abzw Bischdorf",14.790042839200002,51.0976519161,""
"14908803","Deutsch-Paulsdorf, OE Teich",14.8340601034,51.1169300024,""
"14909059","Kunnersdorf a Eigen, Herrnhuter Straße",14.811336535799999,51.043590510799994,""
"14908796","Sohland a Rotstein, Obersohland",14.791103920400001,51.102463727599996,""
"14909054","Kemnitz b Löbau, Eiche",14.779826186500001,51.0694569477,""
"14908806","Gersdorf (b Görlitz), Brücke",14.84492732,51.1191923501,""
"14908831","Jauernick-Buschbach, Schwarzer Berg",14.9068626323,51.0956302045,""
"14909055","Kemnitz b Löbau, Abzw Buschschenke",14.773139028900001,51.075037513800005,""
"14909013","Kiesdorf a d Eigen, Gasthaus",14.9005532738,51.0482235124,""
"14909058","Kunnersdorf a Eigen, Am Kreppel",14.8048327078,51.0374531633,""
"14909011","Kiesdorf a d Eigen, Ziegelei",14.879041143499999,51.0362401769,""
"14908807","Gersdorf (b Görlitz), Bahnhof",14.8539691203,51.1254274058,""
"14909014","Kiesdorf a d Eigen, Kiesdorf a d Eigen",14.9046716166,51.049982317,""
"14908832","Jauernick-Buschbach, Ortseingang",14.9144071199,51.0963952613,""
"14909012","Kiesdorf a d Eigen, Mühlweg",14.8933002226,51.0414802205,""
"14908794","Sohland a Rotstein, Mittelsohland Alt. Gemeindeamt",14.782671442799998,51.109713843799994,""
"14909010","Kiesdorf a d Eigen, Obere Straße",14.869315777,51.0307072473,""
"14908808","Gersdorf (b Görlitz), Ortseingang",14.8635049832,51.1301391657,""
"14908793","Sohland a Rotstein, Mittelsohland Gerichtskretsch.",14.7830290961,51.11590010769999,""
"14909094","Bischdorf b Löbau, Oberhof",14.755003034900001,51.086624542699994,""
"14908812","Markersdorf (Kr GR), Oberdorf",14.8734052569,51.1312537485,""
"14909032","Dittersbach a Eigen, Seibt",14.8655496725,51.023516868399994,""
"14908965","Tauchritz, Tauchritz Blaue Lagune",14.9343285509,51.0689316655,""
"14909070","Rennersdorf (OL), Fichtelhäuser",14.806919467199998,51.024797472,""
"14909065","Rennersdorf (OL), Kretscham",14.7999884929,51.0268880122,""
"14908791","Sohland a Rotstein, Niedersohland Gh Zur Linde",14.785176958500001,51.1235811575,""
"14908838","Pfaffendorf/Görlitz, Wendeschleife",14.9180665228,51.1143582427,""
"14908839","Pfaffendorf/Görlitz, Feldhäuser",14.922146110400002,51.1126827994,""
"14908999","Tauchritz, West",14.9374331771,51.0663540313,""
"14908837","Pfaffendorf/Görlitz, Teich",14.9174508643,51.1168282175,""
"14908836","Pfaffendorf/Görlitz, Fw Gerätehaus",14.9154804695,51.1186576671,""
"14908835","Pfaffendorf/Görlitz, Ortseingang",14.914057996499999,51.1198889878,""
"14909033","Dittersbach a Eigen, Schule",14.863903711099999,51.0169397241,""
"14908813","Markersdorf (Kr GR), Schmiede",14.8799532904,51.1365860895,""
"14908790","Sohland a Rotstein, Niedersohland Niederdorf",14.7810757434,51.127607906499996,""
"14908785","Reichenbach/OL, Bahnhof",14.7971186944,51.135595521999996,""
"14909031","Dittersbach a Eigen, Grüne Aue",14.865801581300001,51.015355645899994,""
"14908997","Tauchritz, Ort",14.9454811173,51.0679225868,""
"14908814","Markersdorf (Kr GR), Feuerwehrhaus",14.8755896406,51.140415885699994,""
"14909093","Bischdorf b Löbau, Turnhalle",14.7423447192,51.095616674,""
"14908780","Reichenbach/OL, v-Seydewitz-Straße",14.7993253308,51.1387614442,""
"14909095","Bischdorf b Löbau, Straßenkreuzung",14.7396589012,51.0926947105,""
"14908789","Reichenbach/OL, Oberhof",14.8320719954,51.144895387000005,""
"14909097","Bischdorf b Löbau, Kümmelberg",14.738758169,51.091466094199994,""
"14909067","Berthelsdorf (Kr GR), Berthelsdorf b ZI Niederdorf",14.7714064113,51.028621981600004,""
"14908809","Markersdorf (Kr GR), Gasthaus Anrainer",14.8666743528,51.14392569899999,""
"14909066","Rennersdorf (OL), Gemeindeverwaltung",14.784460483299998,51.0218647549,""
"14909064","Rennersdorf (OL), Am Eichler",14.7885913219,51.020147755699995,""
"14908784","Reichenbach/OL, Nieder Reichenbach",14.794275309900002,51.1384417665,""
"14908810","Markersdorf (Kr GR), Motel",14.843674993799999,51.146231967599995,""
"14908843","Klein Neundorf/GR, Klein Neundorf",14.9419606851,51.105981476299995,""
"14908786","Reichenbach/OL, Markt",14.800829668699999,51.140946164300004,""
"14908817","Markersdorf (Kr GR), Schule",14.8814061249,51.142241640900004,""
"14909101","Herwigsdorf, Niederhof",14.734368242899999,51.08288370539999,""
"14909092","Bischdorf b Löbau, Hoffnung",14.7399923066,51.100985516799994,""
"14908848","Kunnerwitz (Görlitz), Neundorfer Straße",14.935982197100001,51.1150781821,""
"14908811","Markersdorf (Kr GR), Gewerbegebiet",14.8661384614,51.1463484542,""
"14908788","Reichenbach/OL, Ober Reichenbach",14.8100355248,51.1449688768,""
"14908996","Hagenwerder, Steinbrücke",14.952969376999999,51.0669691964,""
"14908845","Kunnerwitz (Görlitz), Kunnerwitz",14.9359591019,51.1176412626,""
"14909102","Herwigsdorf, Mittelhof",14.731029180999998,51.0768479946,""
"14908815","Markersdorf (Kr GR), Mühle",14.880772512399998,51.1449186314,""
"14909030","Dittersbach a Eigen, Abzw Ostritz",14.8662911959,51.008968841199994,""
"14908795","Sohland a Rotstein, Ortsende",14.771508891700002,51.1334365959,""
"14908778","Oehlisch, Oehlisch",14.7728004055,51.1347186299,""
"14909049","Neundorf a.d.Eigen, Neundorf b Zittau",14.8202571874,51.007788436700004,""
"14909068","Berthelsdorf (Kr GR), Berthelsdorf b ZI Mitte",14.7603862801,51.0279210239,""
"14908787","Reichenbach/OL, Stadtbad",14.806601479,51.14702942579999,""
"14908847","Kunnerwitz (Görlitz), Gut",14.9381462905,51.1203645605,""
"14909100","Herwigsdorf, Vier Jahreszeiten",14.7280915373,51.0693732544,""
"14908849","Kunnerwitz (Görlitz), Ost",14.941663666399998,51.1181630997,""
"14908775","Zoblitz, Bahnhof",14.750795940700002,51.12371241139999,""
"14908995","Hagenwerder, Sportzentrum",14.958503022,51.0620007828,""
"14909179","Dolgowitz, Mitte",14.7405403725,51.115070416,""
"14908992","Hagenwerder, Bahnhof",14.9608868492,51.070059527599994,""
"14909091","Bischdorf b Löbau, Niederdorf",14.732639136900001,51.10584202770001,""
"14909000","Leuba, Niederdorf",14.9511748166,51.046622247200006,""
"14909001","Leuba, Am Dorfteich",14.945247544799999,51.0393091213,""
"14908816","Markersdorf (Kr GR), Dorfmuseum",14.890398660299999,51.1473063072,""
"14908776","Zoblitz, Abzweig nach Zoblitz",14.7502482815,51.126035969,""
"14908990","Hagenwerder, Gemeindezentrum",14.9622145171,51.0667170467,""
"14908991","Hagenwerder, Ort",14.9630578762,51.0691952387,""
"14909005","Ostritz, Nordring",14.9315891165,51.0251499027,""
"14908781","Reichenbach/OL, Nieskyer Straße",14.796636022600001,51.1493542623,""
"14909107","Herwigsdorf, Oberdorf",14.7221928245,51.0617517205,""
"14908962","Görlitz, Schlauroth Gut",14.9214981391,51.1388453961,""
"14908818","Holtendorf (Kr GR), Gasthaus Rich",14.901110345000001,51.14784105019999,""
"14908774","Löbau, Zoblitz Abzweig Dolgowitz",14.7363798887,51.1208052336,""
"14909069","Berthelsdorf (Kr GR), Berthelsdorf b ZI Oberdorf",14.7465382979,51.0268899844,""
"14909096","Bischdorf b Löbau, Grundwasser",14.719883883700001,51.0985154332,""
"14908961","Görlitz, Schlauroth Mitte",14.924128153899998,51.1408835386,""
"14908768","Mengelsdorf, Mengelsdorf",14.811986037999999,51.156826011499994,""
"14909006","Ostritz, Stadt Dresden",14.930387090100002,51.0180769355,""
"14908819","Holtendorf (Kr GR), Abzweig",14.910709395000001,51.14863630440001,""
"14908977","Görlitz, Biesnitz/Landeskrone",14.942336286500002,51.1325590997,""
"14908959","Görlitz, Landeskronsiedlung",14.936273328499999,51.137899565000005,""
"14908773","Borda, Borda",14.7711060588,51.148416042200004,""
"14909170","Wendisch-Cunnersdorf, Wendisch-Cunnersdorf",14.7202995633,51.1119111664,""
"14909019","Ostritz, Marktplatz",14.932453965499999,51.0146892433,""
"14909677","Schlegel b Zittau, Schlegel-Burkersd. Kulturpark",14.8617563739,50.9938849221,""
"14908960","Görlitz, Schlauroth Görlitzer Straße",14.925197208,51.1464852559,""
"14909007","Ostritz, Käthe-Kollwitz-Straße",14.928056842,51.010735546599996,""
"14909009","Ostritz, Bahnhof",14.9380392244,51.016005389200004,""
"14908820","Holtendorf (Kr GR), Denkmal",14.914087093,51.1523283978,""
"14908948","Görlitz, Hp Rauschwalde",14.926146910300002,51.147261690499995,""
"14909071","Herrnhut, Völkerkundemuseum",14.741742222500001,51.0197919204,""
"14908958","Görlitz, Veilchenweg",14.939683048300001,51.140277412900005,""
"14908840","Görlitz, Deutsch Ossig",14.976923279800001,51.0997637782,""
"14908767","Biesig, Biesig",14.7934408047,51.1601119336,""
"14909173","Rosenhain (Sachs), Schule",14.7237266534,51.123546427600004,""
"14909177","Rosenhain (Sachs), Gemeindeamt",14.7156893923,51.113915500100006,""
"14909172","Rosenhain (Sachs), Obstplantage",14.719274050400001,51.119010859,""
"14909171","Rosenhain (Sachs), Sportplatz",14.7156728164,51.1150936892,""
"14909074","Herrnhut, Bahnhof",14.736726797,51.02055695759999,""
"14909073","Herrnhut, Zinzendorfplatz",14.7438359693,51.0156608009,""
"14909076","Herrnhut, Am Stadtamt",14.7409316835,51.017410350700004,""
"14909018","Ostritz, Park",14.932537873800001,51.00969694090001,""
"14908975","Görlitz, Grundstraße",14.950410702700001,51.136149765,""
"14908822","Holtendorf (Kr GR), Hoterberg",14.9254858861,51.1508207651,""
"14909072","Herrnhut, Gymnasium",14.7431852839,51.015262505900004,""
"14908841","Görlitz, Deutsch Ossig Nordstrand",14.974954501400001,51.1113497893,""
"14909004","Ostritz, Schule",14.9307466192,51.007961646,""
"14908957","Görlitz, Thomas-Müntzer-Ring",14.9448424768,51.14072292070001,""
"14909163","Löbau, Abzw Wendisch-Paulsdorf",14.7058546504,51.1008372267,""
"14908978","Görlitz, Thaerstraße",14.9586257317,51.1314194186,""
"14908821","Holtendorf (Kr GR), Niederdorf",14.921405339800001,51.1541147216,""
"14909008","Ostritz, Bergfrieden",14.9120031198,50.99882805359999,""
"14908952","Görlitz, Rauschwalde (Diesterwegpl.)",14.943123422900001,51.1433557057,""
"14908976","Görlitz, Friesenstraße",14.9507086161,51.1385788645,""
"14909061","Großhennersdorf, Kulturhaus",14.791531043400001,50.9936346205,""
"14909087","Strahwalde, Volkshaus",14.721897091099999,51.0292383074,""
"14908955","Görlitz, Paul-Taubadel-Str.",14.9437108266,51.1436016528,""
"14908946","Görlitz, Alfred-Fehler-Straße",14.9417580613,51.1448107015,""
"14909176","Wendisch-Paulsdorf, Wendeplatz",14.706164827699999,51.1073664012,""
"14909063","Euldorf, Eulkretscham",14.765703972,51.0013434502,""
"14909676","Schlegel b Zittau, Schlegel-Burkersd. Grüner Baum",14.857088860200001,50.9870220737,""
"14909174","Rosenhain (Sachs), Hof",14.7199122452,51.1276811784,""
"14908951","Görlitz, Clara-Zetkin-Straße",14.944451921399999,51.1451384582,""
"14908950","Görlitz, F-Naumann-Straße",14.9431538761,51.14607927470001,""
"14909075","Herrnhut, Schwan",14.7360777232,51.014862876399995,""
"14909088","Strahwalde, Forsthaus",14.7058186965,51.044968586900005,""
"14909003","Ostritz, St. Marienthal",14.9255922857,51.0012485469,""
"14908973","Görlitz, Geschw-Scholl-Straße",14.956933864500002,51.1382596327,""
"14909077","Großhennersdorf, Markt",14.7922167888,50.9903454437,""
"14909002","Ostritz, Altstadt",14.9304507635,51.0023674661,""
"14908988","Görlitz, P-Mühsam-Straße",14.9790992572,51.116935649199995,""
"14909300","Ottenhain (b Löbau), Rundteil",14.699500496,51.053305559799995,""
"14909175","Wendisch-Paulsdorf, Wendisch-Paulsdorf",14.701520934900001,51.108795541700005,""
"14908956","Görlitz, Kopernikusstraße",14.9484388634,51.145793178000005,""
"14908985","Görlitz, Weinhübel (Haltepunkt)",14.9704107256,51.1286837331,""
"14909017","Ostritz, Klosterschenke",14.925952413500001,50.9988208476,""
"14909675","Schlegel b Zittau, Schlegel-Burkersdorf Hofteich",14.8642841893,50.9840404265,""
"14908949","Görlitz, Zwei Linden",14.9459690715,51.148085297,""
"14908984","Görlitz, Weinhübel",14.978880703400002,51.122416923500005,""
"14908947","Görlitz, Rosa-Luxemburg-Straße",14.9495896952,51.1483715841,""
"14908972","Görlitz, J-S-Bach-Straße",14.962061389299999,51.14021571600001,""
"14908772","Schöps b Görlitz, Abzw Meuselwitz",14.7484251554,51.1552273352,""
"14908987","Görlitz, E-Oppenheimer-Straße",14.9822621407,51.1214584901,""
"14908692","Girbigsdorf, Wehr",14.9294203223,51.1605675254,""
"14909672","Schlegel b Zittau, Schlegel-Burkersdorf Schule",14.871911865900001,50.9804632541,""
"14908945","Görlitz, Johanna-Dreyer-Straße",14.956339658800001,51.147742438399995,""
"14908766","Dittmannsdorf b Görl, Dittmannsdorf b Görlitz",14.7805680937,51.1700212239,""
"14909785","Bellwitz, Bellwitz Gabelung",14.705832647500001,51.129536537499995,""
"14908989","Görlitz, Weinhübel Mitte",14.9826134459,51.127572595699995,""
"14909062","Großhennersdorf, Bernstädter Straße",14.784606479299999,50.9843503603,""
"14908971","Görlitz, Büchtemannstraße",14.967355530499999,51.1423112058,""
"14908941","Görlitz, Schwarzer Weg",14.956961489800001,51.1496418345,""
"14908986","Görlitz, Joh.-R.-Becher-Str",14.9844839384,51.1275517983,""
"14908943","Görlitz, Frauenburgstraße",14.965951101,51.14492735500001,""
"14909193","Bellwitz, Bellwitz",14.700473126699999,51.127556679499996,""
"14909086","Friedensthal/Sachsen, Friedensthal",14.7012328042,51.0276862897,""
"14908983","Görlitz, E-Weinert-Straße",14.984411915899999,51.1304218621,""
"14908734","Königshain b Görlitz, Gemeindeverwaltung",14.8669195332,51.1810617457,""
"14908731","Königshain b Görlitz, Gut",14.8800323434,51.1796064853,""
"14908942","Görlitz, Melanchthonstraße",14.969833064600001,51.1452783088,""
"14909671","Schlegel b Zittau, Schlegel-Burkersd. Niederdorf",14.880179156299999,50.9766539952,""
"14908736","Königshain b Görlitz, Hennig",14.8577046187,51.182177529499995,""
"14908730","Königshain b Görlitz, Ortseingang",14.8925292383,51.177922230700005,""
"14908970","Görlitz, Lutherstraße",14.9734904668,51.1436927369,""
"14908691","Girbigsdorf, Sandschänke",14.9339440542,51.1665050904,""
"14908981","Görlitz, Goethestraße",14.9803644452,51.138572389000004,""
"14908732","Königshain b Görlitz, Teich",14.875092219,51.1818230304,""
"14908940","Görlitz, Rauschwalder Straße",14.9643453073,51.1513159234,""
"14909198","Kleinradmeritz, Kleinradmeritz Wendeplatz",14.716940331600002,51.147871831799996,""
"14908980","Görlitz, Tierpark",14.978422838,51.1421554739,""
"14909060","Großhennersdorf, Zittauer Straße",14.784495852200001,50.9782210451,""
"14908771","Meuselwitz b Görlitz, Meuselwitz b Görlitz",14.754189659800002,51.1691893073,""
"14909197","Kleinradmeritz, Kleinradmeritz Bahnhof",14.7102060106,51.1449173892,""
"14908934","Görlitz, Flugplatz",14.9457800485,51.1639595307,""
"14908737","Königshain b Görlitz, Oberdorf",14.849966741500001,51.185675155800006,""
"14908974","Görlitz, Im Bogen",14.9753420321,51.1471432012,""
"14908897","Görlitz, Brautwiesenplatz",14.970827353,51.1518526102,""
"14908690","Girbigsdorf, Aue",14.935522914799998,51.1704215539,""
"14908886","Görlitz, Bf Südausgang",14.9798035667,51.145393090599995,""
"14909660","Großhennersdorf, Az Großhennersdorf/Dittelsdorf",14.8539823456,50.969133565,""
"14908765","Krobnitz, Krobnitz",14.7720705406,51.178081121199995,""
"14908880","Görlitz, Busbahnhof",14.977014432699999,51.148251482800006,""
"14908885","Görlitz, Bahnhof",14.9796143905,51.1471152477,""
"14908740","Hilbersdorf (Kr GR), Hilbersdorf (OL) Schäferei",14.805274824300001,51.1856954019,""
"14908899","Görlitz, Berufsschulzentrum",14.9843699368,51.144386404600006,""
"14908894","Görlitz, Waggonbau",14.970548478000001,51.154853785300006,""
"14909081","Ruppersdorf (OL), Kirche",14.7220189182,50.9970207138,""
"14908895","Görlitz, Leipziger Straße",14.974624977,51.153104679500004,""
"14908900","Görlitz, Goethestr/Denkmal",14.9878044673,51.1431207667,""
"14908902","Görlitz, Schillerstraße",14.9878840696,51.1450158924,""
"14909670","Hirschfelde/Neiße, Schlegler Weg",14.8897189044,50.9688204873,""
"14908884","Görlitz, Hospitalstraße",14.9826050346,51.1500420273,""
"14908914","Görlitz, Stadion Junge Welt",14.9617229154,51.1639341755,""
"14908687","Ebersbach b Görlitz, Bahnhof/Schule",14.9351180789,51.1764288273,""
"14908896","Görlitz, Landeskronstraße",14.9788564142,51.15398591780001,""
"14908893","Görlitz, Kinderklinik",14.973732254900002,51.158782898199995,""
"14908932","Görlitz, Virchowstraße",14.9657974264,51.1636959666,""
"14908901","Görlitz, Emmerichstraße",14.9905812025,51.146493388799996,""
"14908741","Hilbersdorf (Kr GR), Hilbersdorf (OL) Kreuzung",14.789950872599999,51.1887414651,""
"14908883","Görlitz, Postplatz",14.9853625169,51.151787842,""
"14908770","Reißaus, Reißaus",14.728833978399999,51.1691906836,""
"14908910","Görlitz, Brunnenstraße",14.9832341607,51.154251862500004,""
"14908930","Görlitz, Klinikum",14.9712273775,51.162299254000004,""
"14908905","Görlitz, Mühlweg",14.9907850602,51.149644112400004,""
"14908892","Görlitz, Zeppelinstraße",14.9747179815,51.1612124182,""
"14908898","Görlitz, Theater",14.9844222005,51.1547160438,""
"14908882","Görlitz, Demianiplatz",14.986604461099999,51.153086812199994,""
"14908891","Görlitz, Kummerau",14.978808564,51.159453821599996,""
"14908881","Görlitz, Jägerkaserne",14.985147301400001,51.156423844900004,""
"14908878","Görlitz, Hohe Straße",14.98175947,51.159315619400004,""
"14908686","Ebersbach b Görlitz, Mitte",14.932769476699999,51.183141239600005,""
"14908890","Görlitz, Heiliges Grab",14.9834363314,51.158490577600006,""
"14908929","Görlitz, Am Kidrontal",14.9769633891,51.164769715999995,""
"14908927","Görlitz, Am Marktkauf",14.9729084219,51.167534354100006,""
"14909082","Ruppersdorf (OL), Ninive",14.7098685953,50.9909647776,""
"14908911","Görlitz, Nikolaiturm",14.989505437700002,51.158371426,""
"14908925","Görlitz, Nordring",14.975178312999999,51.168582507400004,""
"14908920","Görlitz, Am Friedhof",14.9814648506,51.1649426714,""
"14908745","Arnsdorf (Kr GR), Arnsdorf (OL) Trodler",14.7849204127,51.1957124828,""
"14909209","Mauschwitz, Mauschwitz",14.709481798199999,51.1684091849,""
"14908763","Döbschütz, Fiedler",14.7598769893,51.1901746769,""
"14908926","Görlitz, Königshufen Mitte",14.9774326965,51.1687228972,""
"14908921","Görlitz, Alexander-Bolze-Hof",14.980585594699999,51.16771642369999,""
"14908684","Görlitz, Gewerbering",14.964748297300002,51.1767598532,""
"14908912","Görlitz, Am Hirschwinkel",14.9920534262,51.1615071036,""
"14908924","Görlitz, Windmühlenweg",14.9752674059,51.1721857243,""
"14909666","Dittelsdorf, Dittelsdorf Gemeindeverwaltung",14.8729825417,50.9539845117,""
"14909658","Hirschfelde/Neiße, Rosenthal",14.892249531600001,50.9563857173,""
"14908923","Görlitz, Am Feierabendheim",14.978422902599998,51.171215210999996,""
"14908685","Ebersbach b Görlitz, Mühle",14.936987400700001,51.1896258349,""
"14908751","Melaune, Ort",14.7478762291,51.1899898824,""
"14909665","Dittelsdorf, Dittelsdorf Niederdorf",14.8780067897,50.953051467899996,""
"14908922","Görlitz, Am Wiesengrund",14.9838423821,51.170312703200004,""
"14908753","Melaune, Hort",14.753381119899998,51.1928093389,""
"14909649","Wittgendorf b Zittau, Viebig-Kreuzung",14.8357005114,50.9502391058,""
"14908746","Arnsdorf (Kr GR), Abzw Thiemendorf",14.774651712299999,51.1988966869,""
"14908683","Görlitz, Ziegelei",14.963147719699998,51.1821322303,""
"14909207","Neucunnewitz, Neucunnewitz",14.7139619897,51.1777275894,""
"14908752","Melaune, Abzw Prachenau",14.7426776871,51.1901479366,""
"14909656","Hirschfelde/Neiße, Karl-Liebknecht-Straße",14.881313149699999,50.951504276099996,""
"14908761","Döbschütz, Abzw Melaune",14.755892365200001,51.19508777870001,""
"14908680","Görlitz, NVG",14.9624334066,51.1850455043,""
"14909657","Hirschfelde/Neiße, Görlitzer Straße",14.8883130145,50.9505309686,""
"14909694","Oberseifersdorf, Viebig",14.789385257000001,50.9509779407,""
"14909652","Hirschfelde/Neiße, Schulbus",14.8819265269,50.948306196100006,""
"14908749","Prachenau, Bahndamm",14.7391799854,51.1931699481,""
"14908618","Thiemendorf b Niesky, Wendeschleife",14.822713351700001,51.210243417300006,""
"14908681","Görlitz, Hornbach",14.958633265,51.18981718209999,""
"14908679","Kunnersdorf/Görlitz, Brücke",14.927257384999999,51.2004434879,""
"14908747","Arnsdorf (Kr GR), Arnsdorf (OL) Holzmühle",14.7597164641,51.201129313200006,""
"14908682","Ebersbach b Görlitz, Fichtenhöhe",14.9521346046,51.1931284155,""
"14909648","Wittgendorf b Zittau, Gemeindeverwaltung",14.8362983414,50.9441644661,""
"14908919","Görlitz, Klingewalde",14.9809894892,51.1815076748,""
"14909726","Oberoderwitz, Pestalozzi-Schule",14.7051525419,50.974548700700005,""
"14909692","Oberseifersdorf, Kretscham",14.800993483800001,50.9451882382,""
"14909655","Hirschfelde/Neiße, Am Markt",14.888990322,50.945389133700004,""
"14909653","Hirschfelde/Neiße, Zittauer Straße",14.8878743826,50.9450660999,""
"14908678","Kunnersdorf/Görlitz, Kirche",14.9244023913,51.20507344239999,""
"14909693","Oberseifersdorf, Feldschenke",14.792262269900002,50.945073843799996,""
"14909650","Hirschfelde/Neiße, Bahnhof",14.891289351500001,50.943677771800004,""
"14908754","Tetta, Ortseingang",14.7211771724,51.1931228951,""
"14908918","Görlitz, Ziegeleiweg",14.991846421,51.180609846799996,""
"14909727","Oberoderwitz, Zwahr",14.6961856374,50.9751248398,""
"14909723","Oberoderwitz, Landmannsheim",14.705642169999999,50.969745134300005,""
"14909659","Hirschfelde/Neiße, Schwimmhalle",14.8849265939,50.9409041084,""
"14909722","Oberoderwitz, Gasthof Wiedner",14.7123514422,50.9653905707,""
"14908755","Tetta, Gasthaus",14.7141371472,51.1921447366,""
"14908750","Prachenau, Prachenau",14.7348914341,51.200480984500004,""
"14908917","Görlitz, Klingewalde Ost",14.9959516473,51.180163012499996,""
"14908615","Nieder Seifersdorf, Gut",14.766088352099999,51.209780750200004,""
"14909725","Oberoderwitz, Bahnhof",14.708790631,50.966102654100006,""
"14908676","Kunnersdorf/Görlitz, Abzw B 115",14.9359948661,51.206635025699995,""
"14909721","Oberoderwitz, Weißer Kretscham",14.7178366488,50.9593558241,""
"14909713","Niederoderwitz, Schulbushalt",14.7346111663,50.9509438612,""
"14909716","Niederoderwitz, Kretscham",14.727281252500001,50.9521673776,""
"14909712","Niederoderwitz, Gemeindeamt",14.732614256200002,50.949902723399994,""
"14909715","Niederoderwitz, Bahnhof",14.724658907,50.9521117583,""
"14909717","Niederoderwitz, Dreihäuser",14.7173272003,50.9464834928,""
"14908725","Ludwigsdorf(Görlitz), Auenblick",14.9977907339,51.198350113800004,""
"14908720","Ludwigsdorf(Görlitz), Zum Kalkwerk",14.9984530557,51.204797827,""
"14951063","Lobendava, Severni",14.313506368199999,51.036318068899995,""
"14951062","Lobendava, Severni, Zatisi",14.3179401693,51.0303054748,""
"14907179","Medewitz b Bischofsw, Medewitz Ort",14.2844379902,51.1458794245,""
"14951060","Lobendava, Lobendava",14.313564919300001,51.0188935241,""
"14951061","Lobendava, ,rybnik",14.297969663800002,51.0081972573,""
"14942052","Dolní Poustevna, Dolni Poustevna,Marketa,odb.",14.296968292799999,51.0032182996,""
"14942051","Dolní Poustevna, Dolni Poustevna,Horni Poustevna,",14.2922802862,50.9980150944,""
"14942049","Dolní Poustevna, Karlín,rozc.",14.301367468399999,50.9950852418,""
"14942048","Dolní Poustevna, Karlín",14.308590643199999,50.996524938,""
"14942050","Dolní Poustevna, Dolni Poustevna,,stred",14.2898970707,50.9863653427,""
"14942045","Vilémov (Decín), klub",14.3236807641,50.9940138973,""
"14951055","Lipová (Decín), Lipova, ,",14.3597141754,51.010669693400004,""
"14942046","Vilémov (Decín), Vilémov",14.3322264292,50.992270149999996,""
"14942101","Mikulásovice, dol.-SAS",14.3480820332,50.978169868200006,""
"14942102","Mikulásovice, Mikov",14.349076822299999,50.968538995,""
"14942106","Mikulásovice, U rybnícku",14.356322837499999,50.9671072854,""
"14942103","Mikulásovice, strední-skola",14.3590017108,50.9663069563,""
"14909233","Beiersdorf b Löbau, Kretscham",14.5346838466,51.071330356299995,""
"14909234","Beiersdorf b Löbau, Amselgrund",14.5262038313,51.0702194279,""
"14909231","Beiersdorf b Löbau, Lindenhofstraße",14.544132139999999,51.076555286,""
"14909232","Beiersdorf b Löbau, Abzw Schönbach",14.5468789999,51.076935964099995,""
"14909230","Neulauba, Neulauba",14.5531040878,51.078535256200006,""
"14909235","Beiersdorf b Löbau, Gebirge",14.5141105874,51.0677292392,""
"14909260","Schönbach b Löbau, Oberdorf",14.5545215919,51.068776355100006,""
"14909241","Oppach, Gasthaus Pursche",14.5098581984,51.0632444742,""
"14909261","Schönbach b Löbau, Wendeplatz",14.561462448499999,51.0647493484,""
"14909228","Lauba (Sachs), Oberdorf",14.568201589800001,51.0828614457,""
"14909242","Oppach, Auenmühle",14.5036116667,51.060123944699995,""
"14909240","Oppach, Sportschule",14.4921697332,51.070743810900005,""
"14909265","Schönbach b Löbau, Schule",14.5660879501,51.0627327888,""
"14909249","Oppach, Schulbushaltestelle",14.5013189332,51.0575568035,""
"14909227","Lauba (Sachs), Stadt Hamburg",14.5754420336,51.0816411226,""
"14909245","Oppach, Busbahnhof",14.4992036107,51.05642432,""
"14909229","Lauba (Sachs), Landwarenhaus Schulbus",14.5774670386,51.0828911152,""
"14909246","Oppach, Heiterer Blick",14.5093816771,51.050218302999994,""
"14909262","Schönbach b Löbau, Kirche",14.571993224200002,51.0609036415,""
"14909263","Schönbach b Löbau, Ziegelei",14.558676062,51.0504522812,""
"14909212","Kleindehsa, Eichbusch",14.5691813567,51.101046010100006,""
"14909226","Lauba (Sachs), Niederdorf",14.5843572682,51.0807699034,""
"14909264","Schönbach b Löbau, Dörfel",14.5765147037,51.0583135457,""
"14909215","Lawalde, Streitfeld b Löbau",14.583827353399998,51.0909770823,""
"14909250","Neusalza-Spremberg, Spreetextil",14.5209488583,51.040753744099995,""
"14909252","Neusalza-Spremberg, Umgehungsstraße",14.529684161799999,51.0393241163,""
"14909222","Lawalde, Sand",14.5922627764,51.072314260400006,""
"14909258","Neusalza-Spremberg, Oberschule",14.527734002499999,51.0383414114,""
"14909219","Lawalde, Sportplatz",14.5926906556,51.0692479136,""
"14909259","Neusalza-Spremberg, Reiterhaus",14.541781218,51.037317220400006,""
"14909224","Lawalde, Gärtnerei",14.5981172982,51.0744138746,""
"14909223","Lawalde, Am Seniorenhäusel",14.598268426,51.0809287941,""
"14909271","Dürrhennersdorf, Grenze Schönbach",14.5896856783,51.0568354389,""
"14909251","Neusalza-Spremberg, Am Bahnhof",14.527186680999998,51.0350986326,""
"14909255","Neusalza-Spremberg, Bahnhof",14.5261236014,51.034429354100006,""
"14909211","Kleindehsa, Verkaufsstelle",14.5872242897,51.106042217100004,""
"14909221","Lawalde, Abzw nach Schönbach",14.6059410712,51.0805600662,""
"14909276","Friedersdorf b Löbau, Friedersdorf Fa. Münnich",14.5545416365,51.0323545848,""
"14909213","Kleindehsa, Schule",14.5979299478,51.103404119,""
"14909210","Kleindehsa, Bahnhof",14.5965451677,51.1054488224,""
"14909220","Lawalde, Schlagschenke",14.611579946300001,51.0823491505,""
"14909275","Friedersdorf b Löbau, Friedersdorf Grundschule",14.5601594406,51.0266662751,""
"14909272","Dürrhennersdorf, Park",14.607053483,51.050344266100005,""
"14909270","Dürrhennersdorf, Wasserturm",14.6028607217,51.045528833,""
"14909273","Dürrhennersdorf, Wendeplatz",14.5976904091,51.0410676633,""
"14909274","Dürrhennersdorf, Niederdorf",14.6128420135,51.0546023932,""
"14909277","Friedersdorf b Löbau, Friedersdorf Gemeindeverwalt.",14.560032205,51.0243584447,""
"14909800","Großdehsa, Oberdorf",14.6095546117,51.1079730399,""
"14909278","Friedersdorf b Löbau, Friedersdorf Oberkretscham",14.5647820821,51.0207927589,""
"14909134","Großdehsa, Autohaus Hensel",14.617588467200001,51.108863205000006,""
"14909165","Löbau, Heiterer Blick",14.6355567995,51.0863059777,""
"14909127","Großschweidnitz, Wendeplatz",14.6345970936,51.0626458832,""
"14909136","Oelsa (Löbau), Tanklager",14.6300542337,51.1035394227,""
"14951070","Sluknov, Rozany, Bytex",14.4516695127,51.031026587199996,""
"14909126","Großschweidnitz, Belgermühle",14.640241233300001,51.0675532711,""
"14909137","Löbau, Abzweig nach Oelsa b LÖB",14.6377033332,51.1011911977,""
"14909749","Oelsa (Löbau), Oelsa Am Teich",14.639164692200001,51.099521872,""
"14909280","Ebersbach (Sachs), Bleichstraße",14.5815106201,51.0140046447,""
"14951053","Sluknov, Rozany",14.4511713607,51.0264518496,""
"14909130","Eiserode, Peschen",14.6174074907,51.125616958900004,""
"14909310","Niedercunnersdorf, Bahnhof",14.6376241048,51.049639767500004,""
"14909125","Großschweidnitz, Fachkrankenhaus",14.646750237000001,51.0733398769,""
"14909311","Niedercunnersdorf, Abzweig",14.6421673463,51.0545269677,""
"14909308","Kottmarsdorf, Niederdorf",14.630850858799999,51.0388597235,""
"14909122","Großschweidnitz, Sachsenfreund",14.647569496800001,51.0654453517,""
"14909129","Löbau, Am Autohaus",14.6482426504,51.0969608397,""
"14909307","Kottmarsdorf, Kretscham",14.626107179700002,51.030632013,""
"14909131","Eiserode, Schmiede",14.6280786865,51.124586236300004,""
"14909121","Großschweidnitz, Schwimmer",14.652573047499999,51.0733426371,""
"14909281","Ebersbach (Sachs), Spree-Eck",14.5811308782,51.00819600049999,""
"14909306","Kottmarsdorf, Alte Schule",14.627617124699999,51.030355288500004,""
"14909282","Ebersbach (Sachs), Marktstraße",14.5781433105,51.006490833200004,""
"14909283","Ebersbach (Sachs), Krankenhaus",14.572279489500001,51.0048220323,""
"14909290","Ebersbach (Sachs), Am Sonneberg",14.588369254699998,51.008431327299995,""
"14909164","Löbau, Siedlung",14.6544255524,51.091983455699996,""
"14909285","Ebersbach (Sachs), Bahnhof",14.5786766571,51.004546032499995,""
"14909113","Löbau, Gewerbegebiet Süd",14.6585248255,51.0828095086,""
"14909132","Nechen, Nechen",14.644171828600001,51.1169406331,""
"14909291","Ebersbach (Sachs), An der Kirche",14.5977373652,51.0082681905,""
"14909313","Niedercunnersdorf, Schule",14.6549066595,51.0542829864,""
"14951036","Sluknov, ,Benar",14.469232311799999,51.0057704696,""
"14951040","Sluknov, Království,prádelna",14.475773355700001,51.0036360111,""
"14909312","Niedercunnersdorf, Edelweiß",14.656898482999999,51.056431451899996,""
"14909138","Löbau, Dehsaer Straße",14.6577787205,51.098668290999996,""
"14951041","Sluknov, Kralovstvi, Jednota",14.4824778648,51.0013718356,""
"14909128","Löbau, Am Viadukt",14.659277398999999,51.0961707036,""
"14909148","Löbau, Haus Schminke",14.6584692331,51.100001198,""
"14951071","Sluknov, Budisinska",14.454060996,51.0101811034,""
"14951046","Jiríkov (Decín), Elitex",14.5729918185,50.9988993856,""
"14951039","Sluknov, Království,krízek",14.503291678,50.9962791717,""
"14951035","Sluknov, Kralovstvi,kostel",14.4895342231,50.9985063818,""
"14909286","Ebersbach (Sachs), Blaues Wunder",14.580307534700001,51.000041567900006,""
"14909153","Löbau, Neusalzaer Straße",14.6620227391,51.095245054799996,""
"14951038","Sluknov, Království,samota",14.518617914799998,50.994106397399996,""
"14951037","Sluknov, ,zamek-terminal",14.457007168099999,51.0076826798,""
"14951057","Jiríkov (Decín), kopec",14.548821736999999,50.9943858252,""
"14909147","Löbau, Neumarkt",14.6636274077,51.0958378315,""
"14909169","Löbau, Pestalozzi-Schule",14.663147895200002,51.097431146999995,""
"14909144","Löbau, Süd",14.6669320438,51.0862771135,""
"14909314","Niedercunnersdorf, Wilhelm-Tempel-Platz",14.660262583600002,51.0499174101,""
"14909146","Löbau, Katzenturm",14.6656307415,51.0944255289,""
"14909178","Löbau, Rosenstraße Schulbus",14.6674969509,51.0888985258,""
"14909143","Löbau, August-Förster-Straße",14.668440636,51.084462474,""
"14951030","Jiríkov (Decín), nám.",14.568810516500001,50.994397182600004,""
"14950970","Sluknov, garaze",14.44897466,51.006421950500005,""
"14909766","Laucha (Sachsen), Laucha Containerplatz",14.652878244099998,51.1220478127,""
"14909145","Löbau, Rundteil",14.670396919199998,51.0884366662,""
"14909292","Ebersbach (Sachs), Schlossstraße",14.6100451184,51.0043703501,""
"14909154","Löbau, Äußere Zittauer Str",14.672082101700001,51.0844871141,""
"14951045","Jiríkov (Decín), skola",14.572813663300002,50.9925917736,""
"14909150","Löbau, Busbahnhof",14.6707575788,51.0993972248,""
"14909116","Ebersdorf (Löbau), Sägewerk",14.6749068508,51.081985939,""
"14909315","Niedercunnersdorf, Geier",14.6650333565,51.0440724491,""
"14909155","Löbau, Bahnhof",14.6718994533,51.099389093899994,""
"14909141","Löbau, Stadion",14.6747893903,51.0900893752,""
"14909135","Löbau, Ost-Grundschule",14.6738247052,51.094400088,""
"14909142","Löbau, Hartplatz",14.6765880503,51.0863799105,""
"14909157","Löbau, Ärztehaus",14.6728252385,51.102316903,""
"14909187","Wohla (Löbau), Wohla",14.644974436600002,51.1369808146,""
"14909140","Löbau, Ost",14.6765073973,51.092891125,""
"14909158","Löbau, Nordstraße",14.671129275199998,51.1083166024,""
"14909294","Ebersbach (Sachs), Goldener Löwe",14.618544953,51.002975217300005,""
"14909168","Löbau, Nord",14.673297865599999,51.105309020499995,""
"14951034","Jiríkov (Decín), Zahradni",14.5815672944,50.9896293289,""
"14909289","Ebersbach (Sachs), Adam-Ries-Straße",14.6166329671,51.0009052412,""
"14951047","Jiríkov (Decín), koup.",14.5682199585,50.985770022299995,""
"14909156","Löbau, Gewerbepark",14.6780084932,51.1010743392,""
"14909326","Obercunnersdorf/LÖB, Friedensmal",14.667921970599998,51.035770833799994,""
"14909167","Löbau, Breitscheidstraße",14.679091901100001,51.102029497100006,""
"14909159","Löbau, Ziegenwiese",14.677718398500001,51.1054415385,""
"14909287","Ebersbach (Sachs), Spreedorf",14.592142307200001,50.9897186284,""
"14909149","Löbau, Trommlerbusch",14.6777372027,51.10724826209999,""
"14951042","Sluknov, Císarský",14.4335658127,51.0025275864,""
"14909185","Löbau, Carlsbrunn",14.6560450699,51.1366487803,""
"14951072","Sluknov, Cisarsky, odb.lom",14.4302153549,51.003307638100004,""
"14909284","Ebersbach (Sachs), Pflegestift",14.606386223200001,50.9922335475,""
"14909327","Obercunnersdorf/LÖB, Touristinformation",14.6708844826,51.032736107,""
"14951044","Jiríkov (Decín), predmesti",14.5672681796,50.9814304214,""
"14909279","Ebersbach (Sachs), Förderschulzentrum",14.609416935099999,50.990898122500006,""
"14909325","Obercunnersdorf/LÖB, Schulbus",14.6735418753,51.0333226312,""
"14909296","Ebersbach (Sachs), Rumburger Straße",14.615468162,50.9928665466,""
"14909295","Ebersbach (Sachs), Gasthaus Ameise",14.6282530482,50.998009858299994,""
"14909288","Ebersbach (Sachs), Spreeborn/Oberland",14.6080671554,50.989184064499995,""
"14909180","Kittlitz (Löbau), Kittlitz b Löbau Unwürde",14.6756393255,51.1233359267,""
"14951033","Jiríkov (Decín), Filipov,kino",14.5957909261,50.984647626400005,""
"14909182","Kittlitz (Löbau), Kittlitz b LÖB Abzw Carlsbr",14.668236588900001,51.1354359818,""
"14909181","Kittlitz (Löbau), Kittlitz b Löbau Schule",14.674773058800001,51.130098854299995,""
"14909350","Neugersdorf (Sachs), Bahnhof",14.612267262500001,50.9866086603,""
"14951032","Jiríkov (Decín), Filipov,kostel",14.5971696135,50.9807688732,""
"14950985","Rumburk, zámecek",14.5654325426,50.9739724502,""
"14909331","Walddorf (OL), Schulbushaltestelle",14.6391772091,50.9964327224,""
"14909354","Neugersdorf (Sachs), Volksbank",14.6130656424,50.9848465606,""
"14951043","Sluknov, Císarský,lom",14.408856461000001,51.00331876640001,""
"14909340","Eibau, Abzw Walddorf",14.6400180137,50.9951819558,""
"14909189","Krappe, Krappe Gemeindeverwaltung",14.6611272272,51.1487246052,""
"14951031","Jiríkov (Decín), Vyhlidka",14.596370395200001,50.9781882993,""
"14909357","Neugersdorf (Sachs), Sparkasse",14.610959309100002,50.9810725799,""
"14909351","Neugersdorf (Sachs), Marktplatz",14.607562978499999,50.97841528559999,""
"14909359","Neugersdorf (Sachs), M.-Luther-Str",14.6022170603,50.9747584399,""
"14909353","Neugersdorf (Sachs), Zittauer Straße",14.6170409307,50.97930003,""
"14951051","Velký Senov, zel.st.",14.394507045,51.004414127000004,""
"14907473","Doberschau, Fabrikstraße",14.395310487800002,51.153378214,""
"14909330","Walddorf (OL), Kottmarschenke",14.6725900138,51.0076214157,""
"14909338","Eibau, Faktorenhof",14.648556602400001,50.9917607825,""
"14909341","Eibau, Bahnhof",14.6463185427,50.9864799345,""
"14909352","Neugersdorf (Sachs), Eiskeller",14.5989446181,50.9692030787,""
"14950998","Rumburk, Dolní Krecany",14.5381753423,50.960641697199996,""
"14950997","Rumburk, Dolní Krecany,host.",14.5282988221,50.9601817834,""
"14909342","Eibau, Bahnhofstraße",14.6530595027,50.9870371833,""
"14950986","Rumburk, Desta",14.559570612300002,50.95931127,""
"14950999","Rumburk, Sluknovská",14.5427107776,50.9579266418,""
"14951052","Velký Senov, Benzina",14.3881028897,50.995419917700005,""
"14951066","Velký Senov, Janovka",14.4088693218,50.9815703172,""
"14942126","Staré Krecany, Staré Krecany",14.5093305612,50.95532261060001,""
"14909349","Neueibau, Beger",14.638526256899999,50.974419719000004,""
"14909344","Eibau, Hotel Hirsch",14.6606257122,50.984338496599996,""
"14909339","Eibau, Trebeweg",14.658668598199998,50.980750755500004,""
"14950996","Rumburk, ,Bytex 01",14.5611304547,50.9527317237,""
"14951050","Velký Senov, Velky Senov,,nam.",14.380047448100001,50.992239956,""
"14951067","Velký Senov, Stap 07",14.3864646318,50.9879283399,""
"14950990","Rumburk, kult.dum",14.555439230200001,50.9509594321,""
"14909348","Neueibau, Lehmann",14.6451354795,50.9719414563,""
"14909360","Seifhennersdorf, Waldschlösschen",14.5985255078,50.9565982149,""
"14951065","Velký Senov, Janovka,rozc.",14.4007218441,50.97851955110001,""
"14942125","Staré Krecany, ObÚ",14.4966492749,50.950577777199996,""
"14909337","Eibau, Schulstraße",14.664431254,50.979657307000004,""
"14909346","Eibau, KVG",14.6613552168,50.9771740621,""
"14950991","Rumburk, Horní Jindrichov,Rybena",14.557268000099999,50.948752578400004,""
"14942124","Staré Krecany, U Slov.lípy",14.480431303300001,50.9515260144,""
"14942128","Staré Krecany, Elite",14.488376399999998,50.9499812809,""
"14909345","Eibau, An der Brauerei",14.6666629834,50.979084860300006,""
"14950992","Rumburk, Horni Jindrichov, Bytex 06",14.571097211800002,50.9484037281,""
"14909347","Eibau, Oderwitzer Weg",14.6709295255,50.9747615422,""
"14909383","Leutersdorf (OL), Am oberen Teich",14.649767797300001,50.964265995199995,""
"14942122","Staré Krecany, Brtníky,rozc.",14.4491863794,50.951475703999996,""
"14909386","Leutersdorf (OL), Gemeindeamt",14.650766120500002,50.9615460369,""
"14909382","Leutersdorf (OL), Evang. Kirche",14.6517012364,50.9597176093,""
"14909376","Seifhennersdorf, Alte Ziegelei",14.632300639899999,50.9489541481,""
"14909380","Leutersdorf (OL), Kath. Kirche",14.6412676768,50.9517185272,""
"14909381","Leutersdorf (OL), Niederkretscham",14.651655961,50.9546747095,""
"14909387","Leutersdorf (OL), Zittauer Platz",14.6530736156,50.954822304800004,""
"14908758","Wasserkretscham, Wasserkretscham",14.6808209487,51.192023451,""
"14942105","Mikulásovice, hor.",14.3851060118,50.961712669200004,""
"14942104","Mikulásovice, hor.-Sv.Hubert",14.377044711199998,50.9622007977,""
"14909390","Spitzkunnersdorf, Loose",14.6628293444,50.9511745203,""
