"stop_id","stop_name","stop_lon","stop_lat","stop_code"
"6030703","Kirn (Nahe), Hochhaus",7.4807690492,49.785370771500006,"de:7133:30703"
"6035612","Börfink, Einschiederhof",7.075726674799999,49.6838699082,"de:7134:35612"
"6098591","Klein-Winternheim, Brücke/A63",8.2207789521,49.948454385299996,"de:7339:98591"
"6098590","Klein-Winternheim, Park&Ride/A63",8.2221045882,49.9474653106,"de:7339:98590"
"6035968","Abentheuer, Kindergarten",7.1019082854,49.6478313447,"de:7134:35968"
"6035988","Börfink, Thranenweier",7.099247726500001,49.7072412399,"de:7134:35988"
"6099037","Waldalgesheim, Römerstraße",7.8278626202999995,49.9460502334,"de:7339:99037"
"6099045","Achtelsbach, Weiher",7.086421645100001,49.6253306327,"de:7134:99045"
"6099036","Langenlonsheim, MAC",7.9050465142999995,49.896374448100005,"de:7133:99036"
"6099054","Roth (Stromberg), Gewerbegebiet",7.8010975725,49.944374205600006,"de:7133:99054"
"6099053","Bad Sobernheim, Dörndich Siedlung",7.6390392224,49.807612374600005,"de:7133:99053"
"6035615","Otzweiler, Ort",7.5096571053000005,49.7132395835,"de:7133:35615"
"6035613","Sienerhöfe, Sienerhöfe",7.5083529772999995,49.6992231675,"de:7134:35613"
"6035630","Hottenbach, Abzw.",7.2751061121000005,49.8267031791,"de:7134:35630"
"6099040","Hottenbach, Gasth. Dalheimer",7.299657144499999,49.8249619237,"de:7134:99040"
"6099041","Hottenbach, Rhaunener Straße",7.3008801911,49.827740214900004,"de:7134:99041"
"6035943","Sulzbach (Idar-Oberstein), Gemeindehaus",7.337244398499999,49.831684244499996,"de:7134:35943"
"6035942","Sulzbach (Idar-Oberstein), Feuerwehr",7.3364263359,49.8336506057,"de:7134:35942"
"6035618","Stipshausen, Gewerbegebiet",7.2932091409,49.8458710343,"de:7134:35618"
"6035629","Rhaunen, Abendstern",7.357755243900001,49.863877819600006,"de:7134:35629"
"6035963","Ellenberg (Birkenfeld), Ortsmitte",7.148133638799999,49.6595048951,"de:7134:35963"
"6099049","Hahnenbach (Bad Kreuznach), Hennweiler Straße",7.4185148695,49.8105050051,"de:7133:99049"
"6035617","Kempfeld, Katzenloch B422",7.2225727091,49.7669882634,"de:7134:35617"
"6035979","Bleiderdingen, Auf dem Sand",7.195474256400001,49.609763679299995,"de:7134:35979"
"6035985","Hüttgeswasen, Ort",7.1275828857,49.7264864081,"de:7134:35985"
"6035973","Gollenberg (Birkenfeld), Ortsmitte",7.1594125062,49.6722551664,"de:7134:35973"
"6035657","Oberhambach (Birkenfeld), Gemeindehaus",7.1607956886999995,49.6862772358,"de:7134:35657"
"6035982","Hoppstädten (Nahe), Grundschule",7.1954081025,49.617927179,"de:7134:35982"
"6099294","Bärenbach (KH), Am Schloßberg",7.4358478185,49.7516220288,"de:7133:99294"
"6099293","Bärenbach (KH), Gh Weinstein",7.441454081500001,49.7485955388,"de:7133:99293"
"6036053","Bärenbach (KH), Ort",7.4409667953,49.747779757500005,"de:7133:36053"
"6036052","Bärenbach (KH), B 41",7.4299415038,49.7518838237,"de:7133:36052"
"6036102","Bärenbach (KH), Abzweig",7.431012539699999,49.75137682970001,"de:7133:36102"
"6035658","Oberhambach (Birkenfeld), Tannenweg",7.1704978875,49.6847764382,"de:7134:35658"
"6035621","Hettenrodt, Im Dorf",7.253030192400001,49.7407016603,"de:7134:35621"
"6099046","Rimsberg, Gemeindehaus",7.2081271214,49.6564025444,"de:7134:99046"
"6035626","Mittelreidenbach, Dorfplatz",7.4428361166000006,49.7266570878,"de:7134:35626"
"6035620","Vollmersbach, Türmchen",7.306514501800001,49.742736618100004,"de:7134:35620"
"6099044","Nohen, Festplatz",7.239892906400001,49.6416218576,"de:7134:99044"
"6099047","Nohen, Deutsches Rotes Kreuz",7.2454291238,49.6382171041,"de:7134:99047"
"6035637","Niederbrombach, Grundschule",7.2392450819,49.6849158916,"de:7134:35637"
"6099055","Sonnenberg (Birkenfeld), Pommerhof",7.263393681299999,49.6812162911,"de:7134:99055"
"6099051","Sonnenberg (Birkenfeld), Hohensteinerhof",7.267703696100001,49.6753553561,"de:7134:99051"
"6035619","Reichenbach (Birkenfeld), Gasthaus Seiss",7.2882317717000005,49.640782022799996,"de:7134:35619"
"6099894","Sonnenberg (Birkenfeld), Oberdorf",7.2762835257,49.6733074014,"de:7134:99894"
"6035625","Enzweiler, Ort",7.298672608,49.6943820842,"de:7134:35625"
"6035978","Bleiderdingen, Ort",7.192430710699999,49.607126561899996,"de:7134:35978"
"6035980","Bleiderdingen, Abzw. Bleiderdingen",7.1940698619,49.609948589700004,"de:7134:35980"
"6098424","Dienstweiler, Eborn",7.1939947111,49.634449973,"de:7134:98424"
"6032701","Nieder-Hilbersheim, Binger Weg",8.0392615706,49.911769034,"de:7339:32701"
"6035465","Neubrücke (Nahe), Campus",7.166379118999999,49.6089018454,"de:7134:35465"
"6035534","Abentheuer, Sägewerk",7.086435408,49.6617207627,"de:7134:35534"
"6035533","Abentheuer, Dorfplatz",7.1015565689999995,49.650109495799995,"de:7134:35533"
"6035556","Allenbach (Hunsrück), Abzw. Morbach",7.1636754070999995,49.7562240136,"de:7134:35556"
"6035554","Allenbach (Hunsrück), Feuerwehr",7.1657509767,49.7556544547,"de:7134:35554"
"6035553","Allenbach (Hunsrück), Forsthaus",7.170514290500001,49.7544709445,"de:7134:35553"
"6035474","Neubrücke (Nahe), Kindergarten",7.165364894400001,49.6097489889,"de:7134:35474"
"6035609","Boos (Nahe), Auf der Hohl",7.7127997661,49.790760243499996,"de:7133:35609"
"6035516","Weiersbach (Nahe), Ort",7.1951975934,49.6041395012,"de:7134:35516"
"6035555","Wirschweiler, Ort",7.1715715076999995,49.7625261158,"de:7134:35555"
"6035515","Gimbweiler, Ort",7.1934401,49.586173441599996,"de:7134:35515"
"6035557","Langweiler (b Idar-Oberstein), Ort",7.1883797179,49.783048118399996,"de:7134:35557"
"6035568","Hammerbirkenfeld, Hammerbirkenfeld",7.241272575299999,49.8137596019,"de:7134:35568"
"6035571","Hellertshausen, Ort",7.2770351645,49.8201321705,"de:7134:35571"
"6035569","Hellertshausen, Abzw. Ort",7.2650779579,49.8245664163,"de:7134:35569"
"6035594","Wickenrodt, Ort",7.358933297399999,49.815530146700006,"de:7134:35594"
"6035575","Hottenbach, Sportplatz",7.2837029183,49.8253202293,"de:7134:35575"
"6035574","Hottenbach, Alte Schule",7.2950458808,49.82368934310001,"de:7134:35574"
"6035573","Hottenbach, Kirche",7.2982051351,49.8239605533,"de:7134:35573"
"6035472","Brücken (Birkenfeld), Brunnenstraße",7.1019687375,49.627753609100004,"de:7134:35472"
"6035473","Rinzenberg, Waldstraße",7.1301065371,49.6770188502,"de:7134:35473"
"6035576","Hottenbachermühlen, Hottenbacher Mühlen",7.2772247357,49.838666275,"de:7134:35576"
"6035577","Stipshausen, Kindergarten",7.2892653813,49.8465142321,"de:7134:35577"
"6035606","Stipshausen, Ort",7.2922870334,49.8515220157,"de:7134:35606"
"6035578","Stipshausen, Abzw. Idarkopf",7.2936032696,49.8524495238,"de:7134:35578"
"6035582","Rhaunen, Verbandsgemeinde-Verwaltung",7.3376938415,49.8635829471,"de:7134:35582"
"6035581","Rhaunen, Freibad",7.3255872516,49.864541649399996,"de:7134:35581"
"6035566","Schauren (Birkenfeld), Oberdorf",7.2354467478,49.806217129100006,"de:7134:35566"
"6035549","Schauren (Birkenfeld), Gewerbegebiet",7.2317034806,49.8048563136,"de:7134:35549"
"6035550","Bruchweiler, Ort",7.226632882700001,49.7987635352,"de:7134:35550"
"6035536","Börfink, Ort",7.079209508699999,49.6890350531,"de:7134:35536"
"6035552","Sensweiler, Ort",7.195627969299999,49.774088741300005,"de:7134:35552"
"6035603","Weiden (Hottenbach), Ort",7.300221355400001,49.8060792521,"de:7134:35603"
"6035548","Kempfeld, Kirche",7.241773993900001,49.790326440899996,"de:7134:35548"
"6035547","Kempfeld, Oberdorf",7.2425828188,49.78716471319999,"de:7134:35547"
"6035551","Kempfeld, Katzenloch Camp. Idartal",7.2053837525,49.7685755724,"de:7134:35551"
"6035592","Breitenthal (Idar-Oberstein), Ort",7.3345560053000005,49.8014795744,"de:7134:35592"
"6035602","Mörschied, Weidener Brücke",7.3021969129999995,49.7972606453,"de:7134:35602"
"6035591","Niederhosenbach, Ort",7.363195878400001,49.795027144600006,"de:7134:35591"
"6035514","Hahnweiler, Abzw. Leitzweiler",7.2142640373999996,49.5810025945,"de:7134:35514"
"6035546","Kempfeld, Katzenloch Sägewerk",7.2229281816999995,49.7671375803,"de:7134:35546"
"6035512","Hahnweiler, Ort",7.2239141278000005,49.576502315300004,"de:7134:35512"
"6035601","Mörschied, Post",7.306791645,49.7893794362,"de:7134:35601"
"6035600","Mörschied, Auf der Treib",7.303097275300001,49.786996617599996,"de:7134:35600"
"6035507","Eckersweiler, Ort",7.2900191642,49.5596401695,"de:7134:35507"
"6035511","Rückweiler, Ort",7.2398003611999995,49.5811689625,"de:7134:35511"
"6035513","Leitzweiler, Ort",7.2225294587,49.5910207919,"de:7134:35513"
"6035590","Herrstein, Niederhosenbacher Weg",7.3417332623,49.783311943300006,"de:7134:35590"
"6035589","Herrstein, Post",7.337967503100001,49.7801379728,"de:7134:35589"
"6035607","Oberwörresbach, Ort",7.3204463869000005,49.7788603382,"de:7134:35607"
"6035544","Kirschweiler, Volksbank",7.242629974,49.755910923100004,"de:7134:35544"
"6035608","Frauenberg (Idar-Oberstein), Feuerwehr",7.289350625,49.674445273900005,"de:7134:35608"
"6035545","Kirschweiler, Brücke",7.2504927376,49.759563584700004,"de:7134:35545"
"6035564","Sien, Ort",7.5029198613,49.6933266323,"de:7134:35564"
"6035509","Rohrbach (Birkenfeld), Ort",7.2580434176,49.583818781199994,"de:7134:35509"
"6035518","Frauenberg (Idar-Oberstein), Mitte",7.2874009612,49.6731486409,"de:7134:35518"
"6035588","Herrstein, Verbandsgemeinde",7.33707264,49.7754495904,"de:7134:35588"
"6035543","Kirschweiler, Wasem",7.2421771797,49.7515431575,"de:7134:35543"
"6035525","Heupweiler, Ort",7.1920994489000005,49.6841355748,"de:7134:35525"
"6035599","Herborn (Idar-Oberstein), Vereinshalle",7.2967518643,49.769927650499994,"de:7134:35599"
"6035510","Rohrbach (Birkenfeld), Abzw.",7.2600249024,49.5856559293,"de:7134:35510"
"6035586","Oberwörresbach, Abzw.",7.3292271254,49.7730529153,"de:7134:35586"
"6035538","Frauenberg (Idar-Oberstein), Gasthaus Talbach",7.2838743073000005,49.666271790500005,"de:7134:35538"
"6035598","Herborn (Idar-Oberstein), Kreissparkasse",7.2946455957000005,49.767046373300005,"de:7134:35598"
"6035506","Berschweiler (b Baumholder), Dorfplatz",7.292482785,49.5785772294,"de:7134:35506"
"6035611","Niederwörresbach, Brückwies",7.3333678655,49.770118391000004,"de:7134:35611"
"6035504","Berschweiler (b Baumholder), Berggrube",7.2908780244999996,49.5809723252,"de:7134:35504"
"6035520","Sonnenberg (Birkenfeld), Kindergarten",7.2811998896,49.6717979462,"de:7134:35520"
"6035587","Niederwörresbach, Mitte",7.3362045658,49.768360865700004,"de:7134:35587"
"6035519","Sonnenberg (Birkenfeld), Sonnenberg",7.2799823554000005,49.6713572631,"de:7134:35519"
"6035524","Leisel, Abzw. Wilzenberg",7.2107180585,49.715661685499995,"de:7134:35524"
"6035585","Veitsrodt, Markt",7.2940133632999995,49.7629099759,"de:7134:35585"
"6035499","Mettweiler, Alte Schule",7.3153239693000005,49.577464259799996,"de:7134:35499"
"6035502","Mettweiler, Ort",7.313986709800001,49.578550772,"de:7134:35502"
"6035562","Sienhachenbach, Gemeindehaus",7.4831679058,49.699579481499995,"de:7134:35562"
"6035501","Breitsesterhof, Abzw. Mettweiler",7.3429056181,49.5780242629,"de:7134:35501"
"6035542","Hettenrodt, Hohlstraße",7.247098567399999,49.7416730688,"de:7134:35542"
"6035531","Elchweiler, Ort",7.2011716324999995,49.6733789277,"de:7134:35531"
"6035503","Mettweiler, Molkerei Westrich",7.295927700999999,49.585677523600005,"de:7134:35503"
"6035508","Fohren-Linden, Ort",7.2894823135,49.5876685406,"de:7134:35508"
"6035532","Schmißberg, Ort",7.2031207921,49.664849098699996,"de:7134:35532"
"6035540","Hettenrodt, Volksbank",7.253411369199999,49.74090522149999,"de:7134:35540"
"6035500","Breitsesterhof, Ort",7.3454510017,49.58249358730001,"de:7134:35500"
"6035526","Böschweiler, Ort",7.2068136131,49.683851811699995,"de:7134:35526"
"6035597","Veitsrodt, Ort",7.302907955,49.7546425412,"de:7134:35597"
"6035561","Oberreidenbach, Ost",7.4627645141,49.707861387799994,"de:7134:35561"
"6035559","Mittelreidenbach, Brücke",7.443421288,49.726575036899995,"de:7134:35559"
"6035580","Oberreidenbach, Hauptstraße",7.4585310400000004,49.709324687599995,"de:7134:35580"
"6035521","Winnenberg (Birkenfeld), Ort",7.2729009026,49.6804053469,"de:7134:35521"
"6035560","Oberreidenbach, West",7.4572791653,49.710764637000004,"de:7134:35560"
"6035565","Oberreidenbach, Kirche",7.4607589215,49.705514963800006,"de:7134:35565"
"6035527","Burbach (Birkenfeld), Ort",7.2176156791,49.6795047473,"de:7134:35527"
"6035539","Reichenbach (Birkenfeld), Ortsmitte",7.2898823727,49.6403028795,"de:7134:35539"
"6035604","Gerach (Idar-Oberstein), Ort",7.3411196959,49.7528761172,"de:7134:35604"
"6035541","Mackenrodt, Weiher",7.256466801099999,49.7268794573,"de:7134:35541"
"6035596","Vollmersbach, Ort",7.30904608,49.7429534239,"de:7134:35596"
"6035595","Vollmersbach, Klepp",7.3057303397,49.7389577113,"de:7134:35595"
"6035605","Hintertiefenbach, Ort",7.3574472108,49.740331857700006,"de:7134:35605"
"6035528","Niederbrombach, Niederbrombach",7.2446631499,49.6864727642,"de:7134:35528"
"6035529","Rötsweiler, B41",7.262080982800001,49.710653102399995,"de:7134:35529"
"6035475","Ruschberg, Bahnhof",7.2861167852,49.62292922899999,"de:7134:35475"
"6035470","Baumholder, Bahnhof",7.331036557,49.6122110127,"de:7134:35470"
"6035530","Oberbrombach, Gemeinschaftshaus",7.262131575100001,49.700295546599996,"de:7134:35530"
"6035523","Oberbrombach, Hauptstraße",7.2608581577999995,49.6982982807,"de:7134:35523"
"6032713","Appenheim, Schule",8.030575112900001,49.9269901459,"de:7339:32713"
"6035269","Göttschied, Pflegezentrum",7.3231300688,49.719573391199994,"de:7134:35269"
"6035408","Hoppstädten (Nahe), Siedlung",7.187176351,49.6141209317,"de:7134:35408"
"6035273","Göttschied, Kindergarten",7.3358058384,49.7220040596,"de:7134:35273"
"6035409","Hoppstädten (Nahe), Bahnhof",7.1941884078,49.615354496799995,"de:7134:35409"
"6035442","Rinzenberg, Grenzhof",7.1188838769,49.6633404633,"de:7134:35442"
"6035427","Brücken (Birkenfeld), Grundschule/Kindergarten",7.106344067799999,49.6373655817,"de:7134:35427"
"6035406","Neubrücke (Nahe), Bahnhof",7.1727864682,49.605918971899996,"de:7134:35406"
"6035443","Buhlenberg, Dorfplatz",7.120191885600001,49.6552781025,"de:7134:35443"
"6035456","Baumholder, Krankenhaus",7.3384535719,49.6207608684,"de:7134:35456"
"6035423","Achtelsbach, Abzw. Weiherweg",7.0890696758,49.624160474600004,"de:7134:35423"
"6035407","Dienstweiler, Ort",7.1856336985,49.6362884426,"de:7134:35407"
"6035420","Brücken (Birkenfeld), Hochwaldstraße",7.110798569500001,49.638175683700005,"de:7134:35420"
"6035463","Sien, Tankstelle",7.5054562126,49.6951396879,"de:7134:35463"
"6035425","Buhlenberg, Brückener Straße",7.1217780821000005,49.652930014199995,"de:7134:35425"
"6035310","Birkenfeld (Nahe), Realschule",7.175198937099999,49.64766086590001,"de:7134:35310"
"6035422","Achtelsbach, Abzw. Meckenbach",7.0958796767,49.6259361771,"de:7134:35422"
"6035441","Rinzenberg, Ort",7.132883854499999,49.6761375138,"de:7134:35441"
"6035419","Brücken (Birkenfeld), Auf der Hand",7.123385949,49.639567314,"de:7134:35419"
"6035424","Brücken (Birkenfeld), Traunen",7.113849307800001,49.62944941599999,"de:7134:35424"
"6035440","Oberhambach (Birkenfeld), Ferienpark",7.142274949300001,49.687501224600005,"de:7134:35440"
"6035303","Birkenfeld (Nahe), Friedhof",7.1461866787999995,49.6476765544,"de:7134:35303"
"6035421","Dambach (Birkenfeld), Ort",7.1325893981,49.6273613954,"de:7134:35421"
"6035272","Oberstein (Idar-O.), Abzw. Struth",7.3416778983999995,49.7043300105,"de:7134:35272"
"6035439","Oberhambach (Birkenfeld), Ort",7.1566047033,49.6860577437,"de:7134:35439"
"6035460","Hoppstädten (Nahe), Nahe Straße",7.194887917600001,49.615149603700004,"de:7134:35460"
"6035411","Kronweiler, Bahnhof",7.2623156871,49.6554660333,"de:7134:35411"
"6035302","Birkenfeld (Nahe), SB-Zentrum",7.1588276663,49.648471713199996,"de:7134:35302"
"6035412","Hoppstädten (Nahe), Kapelle",7.196479279999999,49.619652307200006,"de:7134:35412"
"6035434","Leisel, Selsfeld",7.1965444126,49.717941551900005,"de:7134:35434"
"6035448","Leisel, Burbacher Straße",7.1985889686,49.7196547995,"de:7134:35448"
"6035433","Leisel, Mitte",7.203230060499999,49.71903452669999,"de:7134:35433"
"6035438","Hattgenstein, Ort",7.1600646033999995,49.6975681814,"de:7134:35438"
"6035306","Birkenfeld (Nahe), Grundschule",7.1629621335,49.6482676312,"de:7134:35306"
"6035403","Reichenbach (Birkenfeld), Gerichtsmannsmühle",7.285216393300001,49.6308375725,"de:7134:35403"
"6035305","Birkenfeld (Nahe), Saarstraße",7.160473334800001,49.6422845655,"de:7134:35305"
"6035450","Baumholder, Markt",7.3361841157,49.61587278,"de:7134:35450"
"6035312","Birkenfeld (Nahe), Rathaus",7.1659738457,49.648459243299996,"de:7134:35312"
"6035304","Birkenfeld (Nahe), Zimmerbach",7.1651218886,49.646440584800004,"de:7134:35304"
"6035459","Sienhachenbach, B270",7.483188515899999,49.7011442619,"de:7134:35459"
"6035414","Berglangenbach, Ort",7.2541612907,49.599594781200004,"de:7134:35414"
"6035447","Schwollen, Kindergarten",7.185025316,49.704777699699996,"de:7134:35447"
"6035410","Heimbach (Nahe), Nahe",7.2309495229000005,49.617504631500005,"de:7134:35410"
"6035301","Birkenfeld (Nahe), Maiwiese",7.168455998400001,49.6498472954,"de:7134:35301"
"6035400","Rimsberg, Ort",7.207685129,49.6567463803,"de:7134:35400"
"6035309","Birkenfeld (Nahe), Kindergarten",7.1687175826,49.6491500767,"de:7134:35309"
"6035432","Siesbach, Gemeinschaftshaus",7.2400528047999995,49.7300930112,"de:7134:35432"
"6035413","Heimbach (Nahe), Treitz",7.2439916928,49.6127307619,"de:7134:35413"
"6035454","Baumholder, Schulzentrum",7.340308021599999,49.6138369142,"de:7134:35454"
"6035445","Wilzenberg, Ort",7.220950738200001,49.7058296086,"de:7134:35445"
"6035300","Birkenfeld (Nahe), Talweiherplatz",7.1682813193,49.646014047499996,"de:7134:35300"
"6035418","Heimbach (Nahe), Gasthaus Treffpunkt",7.2486612136,49.6141052984,"de:7134:35418"
"6035416","Heimbach (Nahe), Schreinerei Bauerfeld",7.2506136275,49.61407187579999,"de:7134:35416"
"6035430","Siesbach, Im Hof",7.2443070378,49.7252121972,"de:7134:35430"
"6035415","Heimbach (Nahe), Ort Bahnhof",7.2521514089000005,49.6132498805,"de:7134:35415"
"6035451","Baumholder, Rathaus",7.336247310499999,49.6132031633,"de:7134:35451"
"6035458","Baumholder, Bahnhofstraße",7.3360438182,49.6130833471,"de:7134:35458"
"6035444","Hußweiler, Ort",7.2278121989,49.6982469537,"de:7134:35444"
"6035429","Mackenrodt, Ort",7.255336741900001,49.725127071,"de:7134:35429"
"6035311","Birkenfeld (Nahe), Prof. Baldes Straße",7.1729177255,49.650151571,"de:7134:35311"
"6035270","Weierbach, Raiffeisen",7.4007606317,49.7353181522,"de:7134:35270"
"6035436","Schwollen, Hoffmann",7.176889150199999,49.7050905121,"de:7134:35436"
"6035401","Nohen, Bahnhof",7.242459487400001,49.63994343,"de:7134:35401"
"6035431","Nockenthal, Abzw. Mackenrodt",7.2546421128,49.7166465421,"de:7134:35431"
"6035428","Nockenthal, Ort",7.249871025799999,49.7120338039,"de:7134:35428"
"6035449","Schwollen, Sprudelbetriebe",7.1688684739,49.70527869559999,"de:7134:35449"
"6035435","Schwollen, Vereinshalle",7.1828105637,49.70431137400001,"de:7134:35435"
"6035426","Rötsweiler, K 19",7.263255904899999,49.7130894601,"de:7134:35426"
"6035417","Ruschberg, Seibertsmühle",7.2769746464,49.6227395831,"de:7134:35417"
"6035453","Baumholder, Rauer Biehl",7.3361196202,49.6104498771,"de:7134:35453"
"6035437","Ruschberg, Kindergarten",7.2921063766000005,49.6198616572,"de:7134:35437"
"6035404","Ruschberg, Ort",7.2891354476,49.620123509900004,"de:7134:35404"
"6035452","Baumholder, Freiherr-vom-Stein-Straße",7.333084102000001,49.608571908600005,"de:7134:35452"
"6030595","Kirn (Nahe), Waldeck",7.466665969099999,49.8010187571,"de:7133:30595"
"6035218","Regulshausen, Wassergall",7.339384238099999,49.735416780099996,"de:7134:35218"
"6035245","Idar, Siedlung",7.3087443798,49.7316736644,"de:7134:35245"
"6035227","Göttschied, Grundschule",7.3343493318,49.7212008653,"de:7134:35227"
"6035224","Göttschied, Hahrachstraße",7.32626379,49.7216058364,"de:7134:35224"
"6035258","Göttschied, Idarer Straße",7.3331782157,49.7225956889,"de:7134:35258"
"6035225","Göttschied, Alt - Göttschied",7.3376296215000005,49.7230193109,"de:7134:35225"
"6035226","Göttschied, Kreissparkasse",7.3321243331,49.720971039300004,"de:7134:35226"
"6035244","Göttschied, Kiltz",7.3376709021,49.7230288948,"de:7134:35244"
"6035257","Idar, Berufsbildenden Schulen",7.3128058594,49.7193515538,"de:7134:35257"
"6035223","Göttschied, Erdelsflur",7.3319811537,49.72393617789999,"de:7134:35223"
"6035238","Finsterheck/Hohl, Realschule Plus Idar-Oberstein",7.3262558737,49.69681605,"de:7134:35238"
"6035229","Göttschied, Göttschieder Straße",7.3286155326,49.7189513255,"de:7134:35229"
"6035247","Festplatz (Idar-Oberstein), Schulzentrum Mikadohalle",7.3164090679000005,49.7218316892,"de:7134:35247"
"6035222","Göttschied, Blumenstraße",7.335155819700001,49.7251956981,"de:7134:35222"
"6035239","Oberstein (Idar-O.), Kreissparkasse",7.3220127135,49.7012864025,"de:7134:35239"
"6035221","Idar, Kirche Peter und Paul",7.3005047675000005,49.7197472008,"de:7134:35221"
"6035251","Oberstein (Idar-O.), Stadttheater",7.3311507899,49.7044575612,"de:7134:35251"
"6035241","Hammerstein (Idar-Oberstein), Ort",7.2951471674,49.6905537804,"de:7134:35241"
"6035232","Oberstein (Idar-O.), Sauergraben",7.3167403626,49.704222076,"de:7134:35232"
"6035240","Enzweiler, Abzw.",7.2977726255999995,49.6963380172,"de:7134:35240"
"6035220","Festplatz (Idar-Oberstein), Gymnasium Heinzenwies",7.3135418794,49.7241277822,"de:7134:35220"
"6035259","Regulshausen, Hasengrund",7.322769893,49.7396911813,"de:7134:35259"
"6035242","Hammerstein (Idar-Oberstein), Abzw.",7.2904985598,49.690710051699995,"de:7134:35242"
"6035268","Algenrodt, Saarstraße/Abzw. Nohweg",7.287644017600001,49.7143606908,"de:7134:35268"
"6035235","Algenrodt, Algenrodter Straße",7.283372390499999,49.712804867900005,"de:7134:35235"
"6035255","Idar, Marktplatz",7.3013342062,49.7214138098,"de:7134:35255"
"6035267","Idar, Flugplatzstraße",7.321508102299999,49.7267970686,"de:7134:35267"
"6035237","Regulshausen, Höstchesflur",7.3238316457999995,49.7427007147,"de:7134:35237"
"6035260","Oberstein (Idar-O.), Polizei (Göttschieder Straße)",7.3143826926,49.711057335099994,"de:7134:35260"
"6035250","Tiefenstein (Idar-Oberstein), Kreissparkasse",7.2752007024,49.7469862369,"de:7134:35250"
"6035234","Algenrodt, Mittelweg",7.286292983,49.7168943145,"de:7134:35234"
"6035236","Rilchenberg (Idar-Oberstein), Sportplatz",7.306269316800001,49.7111098285,"de:7134:35236"
"6035228","Göttschied, Sonnenstraße",7.3304088619,49.720038184900005,"de:7134:35228"
"6035254","Algenrodt, Strutwies",7.286557017400001,49.718849387999995,"de:7134:35254"
"6035261","Tiefenstein (Idar-Oberstein), Idarbachtalschule",7.274963130100001,49.744294233699996,"de:7134:35261"
"6035264","Idar, Parkhotel",7.3107670182,49.7133604502,"de:7134:35264"
"6035253","Algenrodt, Auf Geliss",7.2834041651999994,49.7162311245,"de:7134:35253"
"6035230","Göttschied, Kkh (Kreisstrasse)",7.3238466319999995,49.7168863031,"de:7134:35230"
"6035243","Weierbach, OBI",7.4102244732,49.7343874062,"de:7134:35243"
"6035265","Göttschied, Krankenhaus Eingang",7.3211450492,49.716811215700005,"de:7134:35265"
"6030700","Hennweiler, Kindergarten",7.433221101799999,49.82193486,"de:7133:30700"
"6035021","Weierbach, Bahnhof",7.404545148,49.738787076399994,"de:7134:35021"
"6035029","Fischbach (Idar-Oberstein), Schule",7.3985819332,49.741662992399995,"de:7134:35029"
"6035023","Georg-Weierbach, Südhang",7.3991492203,49.739180202700005,"de:7134:35023"
"6035031","Fischbach (Idar-Oberstein), Ortsausgang",7.3793069293,49.7471764808,"de:7134:35031"
"6035030","Fischbach (Idar-Oberstein), Feuerwehr",7.3915948847,49.7448480867,"de:7134:35030"
"6035185","Obere Lay, Punkthaus",7.311505414700001,49.7276587625,"de:7134:35185"
"6035173","Tiefenstein (Idar-Oberstein), Krauth",7.2799983666,49.740412823,"de:7134:35173"
"6035180","Obere Lay, Frankenweg",7.307056945599999,49.7315321285,"de:7134:35180"
"6035172","Tiefenstein (Idar-Oberstein), Leyser",7.2792031463,49.7417137776,"de:7134:35172"
"6035193","Idar, Bismarckstraße",7.3073004943,49.7173470509,"de:7134:35193"
"6035032","Weierbach, Niederreidenbacher Hof",7.4107702426,49.742738945199996,"de:7134:35032"
"6035196","Idar, Pappelstraße",7.3098440425,49.7131851394,"de:7134:35196"
"6035171","Tiefenstein (Idar-Oberstein), Mühlschied",7.2774732031,49.7435493166,"de:7134:35171"
"6035207","Idar, Oberstweiler",7.2918214509,49.7269116279,"de:7134:35207"
"6035177","Obere Lay, Flachsspreite",7.3118133797,49.7271777083,"de:7134:35177"
"6035204","Tiefenstein (Idar-Oberstein), Hettstein",7.2827176203,49.7345187503,"de:7134:35204"
"6035189","Idar, Röhrenkump",7.3011304987,49.724072317899996,"de:7134:35189"
"6035036","Nahbollenbach, Hochhaus",7.3694340709,49.7146686503,"de:7134:35036"
"6035199","Idar, Saarring",7.2915459814000005,49.720136932699994,"de:7134:35199"
"6035164","Algenrodt, Schule",7.281913967,49.7144466856,"de:7134:35164"
"6035174","Obere Lay, Schüler",7.3057252446,49.7263515247,"de:7134:35174"
"6035160","Rilchenberg (Idar-Oberstein), Rilchenbergkaserne",7.2977946257,49.710787790400005,"de:7134:35160"
"6035179","Obere Lay, Große Trenk",7.3037965552,49.7315473791,"de:7134:35179"
"6035175","Obere Lay, Heidensteilschule",7.306969317899999,49.7280691113,"de:7134:35175"
"6035194","Idar, Eltwerk",7.312688193,49.712741058700004,"de:7134:35194"
"6035205","Tiefenstein (Idar-Oberstein), Autohaus Barth & Frey",7.2837780391999996,49.732772123,"de:7134:35205"
"6035202","Idar, Alexanderplatz",7.298654268,49.722300610699996,"de:7134:35202"
"6035170","Tiefenstein (Idar-Oberstein), Gh. Wagner",7.2740798745,49.747679876300005,"de:7134:35170"
"6035162","Algenrodt, Straßburgkaserne",7.2894480157,49.7182716962,"de:7134:35162"
"6035186","Obere Lay, Ezenich",7.3161431467,49.727114840700004,"de:7134:35186"
"6035176","Obere Lay, Kantstraße",7.3181337009,49.7269099765,"de:7134:35176"
"6035157","Enzweiler, Siesbachstraße",7.2884589129,49.6998513481,"de:7134:35157"
"6035197","Idar, Henn/Gemmologisches ABZ",7.3076055313,49.7145551379,"de:7134:35197"
"6035027","Georg-Weierbach, Alte Schule",7.3884365414,49.7304448516,"de:7134:35027"
"6035026","Georg-Weierbach, Ymos",7.3819326815999995,49.7283041451,"de:7134:35026"
"6035169","Tiefenstein (Idar-Oberstein), Staden",7.271185892,49.7498486449,"de:7134:35169"
"6035165","Algenrodt, Weihergasse",7.285657283599999,49.7148618075,"de:7134:35165"
"6035195","Idar, Finanzamt",7.312316628900001,49.7114588465,"de:7134:35195"
"6035034","Oberstein (Idar-O.), Hallenbad",7.3138362842,49.7112202221,"de:7134:35034"
"6035163","Algenrodt, Dreschplatz",7.2893120526,49.716615242299994,"de:7134:35163"
"6035184","Obere Lay, Jenaer Straße",7.3087335094000005,49.7291918458,"de:7134:35184"
"6035198","Idar, Gewerbehalle",7.305330194200001,49.7177768126,"de:7134:35198"
"6035159","Rilchenberg (Idar-Oberstein), Barbararing",7.3085331645,49.70860729,"de:7134:35159"
"6035192","Idar, AOK/Gewerbehalle",7.305621060199999,49.7181856867,"de:7134:35192"
"6035128","Oberstein (Idar-O.), Nassheck",7.3144451049,49.710455809699994,"de:7134:35128"
"6035212","Regulshausen, Auf dem obersten Sand",7.318586196100001,49.7354944483,"de:7134:35212"
"6035116","Oberstein (Idar-O.), Polizei (Hauptstraße)",7.314445415900001,49.7104468227,"de:7134:35116"
"6035168","Tiefenstein (Idar-Oberstein), Rodter Mühle",7.264876386299999,49.7536116912,"de:7134:35168"
"6035158","Rilchenberg (Idar-Oberstein), Klotzbergkaserne",7.3113765948000005,49.707776595,"de:7134:35158"
"6035114","Oberstein (Idar-O.), Hoher Steg",7.3143794629,49.708746460600004,"de:7134:35114"
"6035133","Struth-Neuweg, Bendersweg",7.3390991141,49.694977825100004,"de:7134:35133"
"6035126","Oberstein (Idar-O.), Emil-Kirschmann-Brücke",7.3148449998,49.7081148341,"de:7134:35126"
"6035122","Oberstein (Idar-O.), Nordtorstraße",7.3131356029,49.7070289506,"de:7134:35122"
"6035200","Idar, Mackenrodter Weg",7.2926737577,49.7239659751,"de:7134:35200"
"6035209","Regulshausen, Abteistraße",7.320786009100001,49.7408942798,"de:7134:35209"
"6035040","Nahbollenbach, Media Markt",7.358339626299999,49.7105826686,"de:7134:35040"
"6035215","Festplatz (Idar-Oberstein), salvea reha",7.3187316898,49.7256598436,"de:7134:35215"
"6035156","Enzweiler, Hammersteiner Straße",7.2904837613,49.6907368081,"de:7134:35156"
"6035203","Idar, Marktschule",7.301541995,49.7206256009,"de:7134:35203"
"6035065","Dickesbach, Ort",7.42355704,49.718501872,"de:7134:35065"
"6035208","Regulshausen, Bitzenstraße",7.3186769233,49.7396947973,"de:7134:35208"
"6035115","Oberstein (Idar-O.), Amtsgericht",7.3146620878999995,49.7061879812,"de:7134:35115"
"6035113","Oberstein (Idar-O.), Hauptpost",7.3169730799,49.7067161171,"de:7134:35113"
"6035035","Schmidthachenbach, Ort",7.4713195698999995,49.731262372,"de:7134:35035"
"6035187","Idar, Vollmersbachstraße",7.3118415147,49.715165431,"de:7134:35187"
"6035188","Idar, Keltenstraße",7.3033371652,49.7256242265,"de:7134:35188"
"6035151","Finsterheck/Hohl, An der Muhl",7.3275772115,49.6934543103,"de:7134:35151"
"6035206","Idar, Weiherschleife",7.2867094464,49.728706379,"de:7134:35206"
"6035154","Enzweiler, Engweg",7.300077197399999,49.6942498504,"de:7134:35154"
"6035139","Struth-Neuweg, Wieselbacher Weg",7.3404031368,49.695760798100004,"de:7134:35139"
"6035152","Finsterheck/Hohl, Danziger Straße",7.327978283799999,49.6950965643,"de:7134:35152"
"6035167","Algenrodt, Nohweg",7.287518060400001,49.7139991663,"de:7134:35167"
"6035124","Oberstein (Idar-O.), Stadtverwaltung",7.3195792796,49.703912625,"de:7134:35124"
"6035210","Nahbollenbach, Gewerbepark Messehalle",7.3540084950999995,49.706627880300005,"de:7134:35210"
"6035112","Oberstein (Idar-O.), Arbeitsamt",7.3183872673,49.7026994495,"de:7134:35112"
"6035118","Oberstein (Idar-O.), Museum",7.3290170851,49.7048224288,"de:7134:35118"
"6035028","Georg-Weierbach, Kirche",7.3899812649,49.7323905009,"de:7134:35028"
"6035087","Sonnschied, Ort",7.3892997355,49.8191659909,"de:7134:35087"
"6035211","Regulshausen, Regulshausener Straße",7.3187246407,49.7375105547,"de:7134:35211"
"6035025","Georg-Weierbach, Fa. Fries",7.373523087900001,49.7209482451,"de:7134:35025"
"6035147","Finsterheck/Hohl, Frinkenstraße",7.330522588299999,49.696490989,"de:7134:35147"
"6035190","Idar, Kobachstraße",7.3026593773,49.7203992066,"de:7134:35190"
"6035136","Struth-Neuweg, Oberer Dom",7.3395427626,49.698230134199996,"de:7134:35136"
"6035143","Struth-Neuweg, Struthschule",7.3436905448,49.6985502737,"de:7134:35143"
"6035110","Oberstein (Idar-O.), Auf der Idar",7.3203606461,49.701756993699995,"de:7134:35110"
"6035033","Georg-Weierbach, Fa. Leysser",7.3767622832,49.7223783654,"de:7134:35033"
"6035127","Oberstein (Idar-O.), Schlossstraße",7.3219155777,49.7020942351,"de:7134:35127"
"6035142","Finsterheck/Hohl, Flurschule",7.3297309045,49.703816679499994,"de:7134:35142"
"6035216","Festplatz (Idar-Oberstein), EKZ",7.31738878,49.7235812878,"de:7134:35216"
"6035119","Oberstein (Idar-O.), Parkhaus Au",7.3262892045,49.703110617899995,"de:7134:35119"
"6035149","Oberstein (Idar-O.), Wilhelm-Leuschner-Brücke",7.320027028899999,49.70097888190001,"de:7134:35149"
"6035150","Finsterheck/Hohl, Königsberger Straße",7.327394756,49.69675157739999,"de:7134:35150"
"6035024","Georg-Weierbach, Michelwiese",7.3672085939,49.7181799544,"de:7134:35024"
"6035038","Georg-Weierbach, Ortsmitte",7.3876714622,49.730928737300005,"de:7134:35038"
"6035201","Idar, Zentralfriedhof",7.286784087800001,49.726585478800004,"de:7134:35201"
"6035166","Algenrodt, Turnhalle",7.2912233381,49.712732124300004,"de:7134:35166"
"6035191","Idar, Börse",7.3026673654,49.7193742879,"de:7134:35191"
"6035117","Oberstein (Idar-O.), Katholische Kirche",7.3269189595999995,49.7025352651,"de:7134:35117"
"6035037","Weierbach, Junkerrech",7.384432955099999,49.718583287,"de:7134:35037"
"6035088","Bundenbach, Oberdorf",7.3777758714,49.8404675914,"de:7134:35088"
"6035111","Oberstein (Idar-O.), Austraße",7.3241997777,49.7017856252,"de:7134:35111"
"6035131","Oberstein (Idar-O.), Friedhof Almerich",7.3498304189,49.6994021872,"de:7134:35131"
"6035089","Bundenbach, Träb",7.3781788814,49.844213614800005,"de:7134:35089"
"6035090","Bollenbach (Birkenfeld), Ort",7.3514471588,49.8432341586,"de:7134:35090"
"6035144","Finsterheck/Hohl, Jugendherberge",7.3279420889,49.698575773600005,"de:7134:35144"
"6035134","Struth-Neuweg, Fallbachstraße",7.346163896,49.700419888199995,"de:7134:35134"
"6035105","Rhaunen, Neubaugebiet",7.3466040538,49.861714279699996,"de:7134:35105"
"6035067","Oberstein (Idar-O.), Otto-Decker-Straße",7.3233155647,49.7008916574,"de:7134:35067"
"6035093","Rhaunen, Post",7.3513100132,49.8623927003,"de:7134:35093"
"6035092","Rhaunen, Kirche",7.3491676344000005,49.8628117822,"de:7134:35092"
"6035121","Oberstein (Idar-O.), Pfälzer Hof",7.3244902425000005,49.7009985706,"de:7134:35121"
"6035161","Algenrodt, Staatsbauamt",7.2921950488,49.7134927537,"de:7134:35161"
"6035148","Finsterheck/Hohl, Kreuzeskirche",7.3272647139,49.698521035700004,"de:7134:35148"
"6035125","Oberstein (Idar-O.), Kirchhofshübel",7.3380800563,49.7029117334,"de:7134:35125"
"6035137","Struth-Neuweg, Unterer Dom",7.3390293145,49.7006864555,"de:7134:35137"
"6035094","Rhaunen, Markt",7.3445508904,49.8648139573,"de:7134:35094"
"6035103","Hausen (Hunsrück), Ortsmitte",7.3744938364,49.872008030500005,"de:7134:35103"
"6035102","Hausen (Hunsrück), Haversberger Weg",7.374096122599999,49.873495005200006,"de:7134:35102"
"6035097","Oberkirn, Ort",7.3732117940999995,49.8844968965,"de:7134:35097"
"6035095","Gösenroth, Ort",7.3276041579,49.889117004300005,"de:7134:35095"
"6035096","Schwerbach (Kr Birkenfeld), Ort",7.3558419526,49.8960664344,"de:7134:35096"
"6035181","Obere Lay, Sachsenweg",7.3053105441,49.7298971124,"de:7134:35181"
"6035135","Struth-Neuweg, Struthstraße",7.3458003073,49.7025546817,"de:7134:35135"
"6035146","Finsterheck/Hohl, Treibelsberg",7.331232942500001,49.7000349047,"de:7134:35146"
"6035132","Struth-Neuweg, Struthkirche",7.3422866249,49.7015153814,"de:7134:35132"
"6035145","Finsterheck/Hohl, Peterstraße",7.334036564700001,49.7015588669,"de:7134:35145"
"6035178","Obere Lay, Stieglitzweg",7.3038251665,49.732716696,"de:7134:35178"
"6035140","Finsterheck/Hohl, Schönlautenbach",7.3363715889,49.7021948601,"de:7134:35140"
"6035141","Finsterheck/Hohl, Friedrichstraße",7.334907402200001,49.7020389487,"de:7134:35141"
"6030729","Kirn (Nahe), Kindergarten/Ohlmannstraße",7.4496650054,49.7935545948,"de:7133:30729"
"6030693","Kirn (Nahe), Jahnbad",7.4540702909,49.791734249099996,"de:7133:30693"
"6034340","Kirn (Nahe), Dominikstraße",7.4571672415000005,49.7908673913,"de:7133:34340"
"6030743","Kirn (Nahe), Einkaufscenter",7.453944925000001,49.7921821432,"de:7133:30743"
"6032767","Ludwigshöhe (Rheinhessen), B 9",8.3429905684,49.8168037029,"de:7339:32767"
"6032768","Ludwigshöhe (Rheinhessen), Gemeindeverwaltung",8.3438471502,49.817168184900005,"de:7339:32768"
"6032833","Weinolsheim, Uelversheimer Straße",8.273180503699999,49.8140316887,"de:7339:32833"
"6032775","Weinolsheim, Freier Platz",8.2725150229,49.81578972729999,"de:7339:32775"
"6030747","Kirn (Nahe), Jahnstraße",7.4566694903999995,49.7929827172,"de:7133:30747"
"6030745","Kirn (Nahe), Königsberger Straße",7.472056594800001,49.786865686999995,"de:7133:30745"
"6030702","Kirn (Nahe), Berliner Platz",7.4765148447000005,49.785081154500006,"de:7133:30702"
"6032778","Dienheim, Aussiedlerhof",8.331298265100001,49.8213042412,"de:7339:32778"
"6034341","Kirn (Nahe), Sonderschule",7.4773729397,49.7851733527,"de:7133:34341"
"6030701","Kirn (Nahe), Niederberg",7.471422642599999,49.7880351909,"de:7133:30701"
"6030715","Kirn (Nahe), Krankenhaus",7.4570825304,49.794408845300005,"de:7133:30715"
"6030734","Kirn (Nahe), Binger Landstraße",7.4735981545,49.7881897408,"de:7133:30734"
"6030707","Kirn (Nahe), Niederbergbrücke",7.4766284408,49.7867730159,"de:7133:30707"
"6030732","Kirn (Nahe), Bürgermeister-Tschepke-Straße",7.457822918,49.795587570500004,"de:7133:30732"
"6032789","Weinolsheim, Dalheimer Straße",8.2712272202,49.81827211350001,"de:7339:32789"
"6030718","Kirn (Nahe), Friedhof",7.4552417992999995,49.789834716,"de:7133:30718"
"6032779","Ludwigshöhe (Rheinhessen), Abzw.",8.346301159,49.8268651695,"de:7339:32779"
"6030708","Kirn (Nahe), Hellbergschule",7.4820647421,49.7861250362,"de:7133:30708"
"6030704","Kirn (Nahe), Stettiner Straße",7.4843721498,49.786056328499996,"de:7133:30704"
"6032805","Dalheim (Rheinhessen), Ortsmitte",8.295215242400001,49.8266110088,"de:7339:32805"
"6030746","Kirn (Nahe), Mercedes Schmidt",7.484325178300001,49.786226549199995,"de:7133:30746"
"6030714","Kirn (Nahe), Steinbergbrücke",7.4595427741,49.797417695899995,"de:7133:30714"
"6032807","Dalheim (Rheinhessen), Friedhof",8.2960846465,49.828953906699994,"de:7339:32807"
"6030706","Kirn (Nahe), Fickert",7.4833820664,49.7870773782,"de:7133:30706"
"6032780","Dienheim, B9",8.3499632374,49.8388075712,"de:7339:32780"
"6030736","Kirn (Nahe), Amthofstraße",7.4580248356,49.7883522408,"de:7133:30736"
"6034342","Kirn (Nahe), Kindergarten/Steinenbergstraße",7.461521868199999,49.798522939600005,"de:7133:34342"
"6034233","Dienheim, Bahnhof",8.3570116892,49.8408787694,"de:7339:34233"
"6034232","Dienheim, Siliussteinhalle",8.3539437468,49.8415899818,"de:7339:34232"
"6032847","Friesenheim (Rheinhessen), Dorfplatz",8.253439849000001,49.834594283,"de:7339:32847"
"6032808","Dalheim (Rheinhessen), Tierpension",8.300823704699999,49.8347726637,"de:7339:32808"
"6030712","Kirn (Nahe), Marktplatz",7.459459649999999,49.7860245838,"de:7133:30712"
"6032795","Friesenheim (Rheinhessen), Alte Schule",8.2564511057,49.8358363782,"de:7339:32795"
"6032804","Friesenheim (Rheinhessen), Gaustraße",8.2576313165,49.83592485449999,"de:7339:32804"
"6032860","Oppenheim, Verbandsgemeindeverwaltung",8.3542587849,49.84612309879999,"de:7339:32860"
"6034366","Hochstetten (Nahe), Friedhof",7.4995563867,49.800262331800006,"de:7133:34366"
"6030695","Karlshof (Dhaun), Am Windrad",7.480600969399999,49.8107240341,"de:7133:30695"
"6032794","Undenheim, Grundschule",8.2327827816,49.840816029399996,"de:7339:32794"
"6030717","Kirn (Nahe), Berger Weg",7.450536022,49.7888907503,"de:7133:30717"
"6030705","Kirn (Nahe), Meckenbacher Weg",7.4625333771,49.7836826963,"de:7133:30705"
"6035000","Idar-Oberstein, Bahnhof",7.321329185800001,49.6993972637,"de:7134:35000"
"6030725","Kirn (Nahe), Häuser Kuntz",7.461369681300001,49.7835953225,"de:7133:30725"
"6032784","Oppenheim, Realschule plus",8.3674777849,49.8538470736,"de:7339:32784"
"6030744","Kirn (Nahe), Große Brücke",7.4570665207,49.7831065307,"de:7133:30744"
"6030723","Kirn (Nahe), Lohweg",7.4563864896,49.7826568998,"de:7133:30723"
"6032810","Dexheim, Dalheimer Straße",8.3123626336,49.8434908013,"de:7339:32810"
"6032797","Köngernheim, Osterberg",8.2520678803,49.8433425235,"de:7339:32797"
"6032823","Oppenheim, Grundschule Gautor",8.352717207,49.8522462292,"de:7339:32823"
"6032785","Oppenheim, Gymnasium",8.362593559899999,49.8562118937,"de:7339:32785"
"6035005","Struth-Neuweg, Struthbrücke",7.3445089282,49.7038400051,"de:7134:35005"
"6032834","Köngernheim, Am Judenpfad",8.241282372,49.845807900900006,"de:7339:32834"
"6032840","Oppenheim, Gymnasium Nord",8.36398741,49.857028712,"de:7339:32840"
"6032829","Köngernheim, Gaustraße",8.2463575181,49.845787037,"de:7339:32829"
"6032787","Oppenheim, Postplatz",8.358079139600001,49.855818385300005,"de:7339:32787"
"6032811","Dexheim, Bürgermeisteramt",8.316813661,49.846304248,"de:7339:32811"
"6032814","Dexheim, Schlossstraße",8.3171401101,49.8468186458,"de:7339:32814"
"6030753","Kronweiler, Ost",7.263607799100001,49.660412845,"de:7134:30753"
"6035002","Oberstein (Idar-O.), Wüstlautenbach",7.323934706699999,49.7014311195,"de:7134:35002"
"6032540","Heidesheim (Rhein), Sandmühle",8.1275598728,49.9981659516,"de:7339:32540"
"6032549","Heidesheim (Rhein), Montessori-Schule",8.130951506499999,50.0011313272,"de:7339:32549"
"6032812","Dexheim, Turnhalle",8.313469701799999,49.8477859738,"de:7339:32812"
"6032813","Dexheim, Feuerwache",8.320530717899999,49.8489424002,"de:7339:32813"
"6032654","Stadecken, Ehrensäule",8.1286343843,49.9100470741,"de:7339:32654"
"6032519","Uhlerborn, Walterslebener Straße",8.1388148913,50.0052357017,"de:7339:32519"
"6032662","Stadecken, Kreuznacher Straße",8.1329479917,49.9093960863,"de:7339:32662"
"6032830","Nierstein, Fähre",8.3516593253,49.864809430799994,"de:7339:32830"
"6034343","Kirn-Sulzbach, Evangelische Kirche",7.4346825428,49.7649764894,"de:7133:34343"
"6032524","Budenheim, Hauptstraße",8.172752443,50.0240480406,"de:7339:32524"
"6035004","Finsterheck/Hohl, Breslauer Straße",7.330029358100001,49.695917411,"de:7134:35004"
"6032526","Budenheim, Gerhart-Hauptmann-Straße",8.1789858254,50.0267714704,"de:7339:32526"
"6032523","Budenheim, Kirche",8.1699162728,50.020997973499995,"de:7339:32523"
"6032522","Budenheim, Eaubonner Straße",8.168453912299999,50.0184072103,"de:7339:32522"
"6032525","Budenheim, Gh Wildenstein",8.189723696,50.0289147192,"de:7339:32525"
"6035017","Weierbach, Reistert",7.384908279699999,49.720559049,"de:7134:35017"
"6032820","Nierstein, Gutenbergstraße",8.3337903357,49.8645104188,"de:7339:32820"
"6035020","Weierbach, Simon",7.3967835647,49.7305516665,"de:7134:35020"
"6032798","Hahnheim, Grundschule",8.2474986496,49.861852047,"de:7339:32798"
"6032529","Budenheim, Parkallee",8.1941443941,50.0282891668,"de:7339:32529"
"6032817","Schwabsburg, Weed",8.312859057399999,49.8624283643,"de:7339:32817"
"6034415","Ellweiler, Kehrweg",7.1485352294,49.613860051100005,"de:7134:34415"
"6032663","Stadecken, Aussiedlerhof",8.1554741492,49.9085732279,"de:7339:32663"
"6032816","Schwabsburg, Kirche",8.313066925200001,49.863463535200005,"de:7339:32816"
"6032822","Nierstein, Bildstock",8.339579049,49.869425496800005,"de:7339:32822"
"6035009","Nahbollenbach, Friedhof",7.3786214213,49.706111814799996,"de:7134:35009"
"6032815","Schwabsburg, Tafelstein",8.3069433964,49.8637238169,"de:7339:32815"
"6032788","Nierstein, Realschule",8.3348782111,49.86936268469999,"de:7339:32788"
"6032818","Schwabsburg, Sportplatz",8.319692794,49.866055953099995,"de:7339:32818"
"6034425","Reiffelbach, Reiffelbacher Hof",7.6805691875,49.685694647199995,"de:7133:34425"
"6032821","Nierstein, Grundschule",8.3400993596,49.871055784999996,"de:7339:32821"
"6032521","Budenheim, Reitschule",8.169670587499999,50.008526251999996,"de:7339:32521"
"6032819","Nierstein, Rathaus",8.3364926727,49.8703159576,"de:7339:32819"
"6032642","Sörgenloch, Neustraße",8.2009507736,49.8802326893,"de:7339:32642"
"6032650","Essenheim, Elsheimer Straße",8.1516984691,49.929386257999994,"de:7339:32650"
"6032641","Sörgenloch, Waage",8.2014136521,49.8833826535,"de:7339:32641"
"6032539","Budenheim, Schoß Waldthausen",8.1799910292,50.007880343800004,"de:7339:32539"
"6032689","Sörgenloch, Seniorenresidenz",8.2010090669,49.885978206000004,"de:7339:32689"
"6032685","Essenheim, Römerberg",8.1582222232,49.9266646113,"de:7339:32685"
"6032649","Essenheim, Rathaus",8.1582463219,49.9316816172,"de:7339:32649"
"6032638","Nieder-Olm, Abzw. Goldberg",8.2010997939,49.89144522629999,"de:7339:32638"
"6032648","Essenheim, Finther Weg",8.1617678466,49.933424334,"de:7339:32648"
"6032640","Nieder-Olm, Goldberg",8.2076497307,49.891741878699996,"de:7339:32640"
"6032637","Nieder-Olm, 14 Morgen",8.2012218019,49.8958605365,"de:7339:32637"
"6032747","Zornheim, GS Hahnheimer Straße",8.2235586456,49.8864100019,"de:7339:32747"
"6034116","Callbach, Fa Anthes",7.6982615081,49.6983297946,"de:7133:34116"
"6032731","Zornheim, Hahnheimer Straße",8.2243093648,49.8873230913,"de:7339:32731"
"6032698","Nieder-Olm, DRK-Haus",8.2016264809,49.900017056299994,"de:7339:32698"
"6032791","Zornheim, Nieder-Olmer-Straße",8.2230452721,49.889787096999996,"de:7339:32791"
"6032997","Nieder-Olm, Schwimmbad/Festhalle",8.1942287591,49.90543230790001,"de:7339:32997"
"6032639","Nieder-Olm, Höhenweg",8.2130062075,49.8944036364,"de:7339:32639"
"6032799","Nieder-Olm, Zornheimer Straße",8.2115576417,49.8961829659,"de:7339:32799"
"6034115","Callbach, B420",7.696489333000001,49.706024407099996,"de:7133:34115"
"6032696","Nieder-Olm, Weinbergstraße",8.2111489353,49.896494864999994,"de:7339:32696"
"6032664","Nieder-Olm, Gewerbegebiet",8.187268142,49.9137361792,"de:7339:32664"
"6034400","Meisenheim, Abzw. Raumbach",7.6655770864,49.715473021600005,"de:7133:34400"
"6032643","Nieder-Olm, Selztalschule",8.201262029499999,49.9027027863,"de:7339:32643"
"6032730","Zornheim, Konrad-Adenauer-Straße",8.2247243115,49.8909581367,"de:7339:32730"
"6032803","Mommenheim (Rheinhessen), Gemeindehalle",8.2730051266,49.881407791099996,"de:7339:32803"
"6032697","Nieder-Olm, Breslauer Straße",8.2058127449,49.9002255975,"de:7339:32697"
"6032674","Nieder-Olm, Eckes Halle",8.1978830798,49.907525498400005,"de:7339:32674"
"6030748","Raumbach, Ort",7.650943496299999,49.7226314741,"de:7133:30748"
"6032699","Nieder-Olm, Pariser Straße",8.2012790901,49.9067307632,"de:7339:32699"
"6032835","Mommenheim (Rheinhessen), Burgunder Straße",8.2689917733,49.8845832907,"de:7339:32835"
"6033023","Nieder-Olm, Rheinhessenblick",8.2111927577,49.901494027000005,"de:07339:33023"
"6032790","Nieder-Olm, Grundschule",8.2024532095,49.9089775357,"de:7339:32790"
"6033024","Nieder-Olm, Rudi-Klos-Allee",8.2132148355,49.9046904819,"de:07339:33024"
"6033028","Nieder-Olm, Am Bauernberg",8.2119325602,49.906497913100004,"de:07339:33028"
"6032480","Nieder-Olm, Seniorenresidenz/Mühlweg",8.201462514600001,49.9141763655,"de:7339:32480"
"6033029","Nieder-Olm, Ebersheimer Straße",8.2080222795,49.909806861300005,"de:07339:33029"
"6033030","Nieder-Olm, Jahnstraße",8.203953024,49.914283383,"de:07339:33030"
"6033031","Nieder-Olm, Zum Loh",8.2069993849,49.912757831300006,"de:07339:33031"
"6032647","Ober-Olm, Kirche",8.1901038269,49.937302725600006,"de:7339:32647"
"6032644","Ober-Olm, Forsthaus",8.1899415021,49.9511472734,"de:7339:32644"
"6032646","Ober-Olm, Draiser Straße",8.1931046502,49.939454424,"de:7339:32646"
"6032645","Ober-Olm, Am Beinestein",8.1927798405,49.942221302899995,"de:7339:32645"
"6032666","Ober-Olm, Feuerwache",8.1978109481,49.938749808,"de:7339:32666"
"6032667","Ober-Olm, Lannerstraße",8.2020958408,49.938248891200004,"de:7339:32667"
"6032827","Nackenheim, Am Teuerborn",8.322220993,49.90806651,"de:7339:32827"
"6032825","Nackenheim, Gymnasium",8.3413919509,49.9223102472,"de:7339:32825"
"6032668","Klein-Winternheim, Bahnhofstraße",8.208593563099999,49.939570056499996,"de:7339:32668"
"6035019","Weierbach, Globus",7.403033786000001,49.731995696700004,"de:7134:35019"
"6035010","Mittelbollenbach, Huwers Mühle",7.3913957177,49.7013355937,"de:7134:35010"
"6032636","Klein-Winternheim, Quellborn",8.2175668698,49.9411683009,"de:7339:32636"
"6032828","Gau-Bischofsheim, Grundschule",8.2770562098,49.9120285996,"de:7339:32828"
"6030750","Bad Sobernheim, Freilichtmuseum",7.654758826999999,49.773773163200005,"de:7133:30750"
"6032871","Gau-Bischofsheim, Steigstr.",8.2693601826,49.9136616707,"de:7339:32871"
"6030727","Kronweiler, Süd",7.260317003199999,49.654419965,"de:7134:30727"
"6032635","Klein-Winternheim, Hechtsheimer Berg",8.2214553684,49.9445210033,"de:7339:32635"
"6032634","Klein-Winternheim, Gewerbegebiet",8.2201977614,49.9507970505,"de:7339:32634"
"6030759","Meddersheim, Neubaugebiet",7.6176721542,49.775377790099995,"de:7133:30759"
"6035013","Mittelbollenbach, Kreßtel",7.4071523635,49.694297194,"de:7134:35013"
"6030756","Meddersheim, Gemeindehalle",7.620468267100001,49.777631940700005,"de:7133:30756"
"6035018","Weierbach, Kreissparkasse",7.3947276719,49.7268546831,"de:7134:35018"
"6030757","Meddersheim, Kindergarten",7.6106210257999996,49.7762825164,"de:7133:30757"
"6034286","Hargesheim, Hunsrückstraße",7.8235574442,49.8647376508,"de:7133:34286"
"6032602","Badenheim, Bahnhof",7.9731017096,49.84215227319999,"de:7339:32602"
"6032601","Badenheim, Kirche",7.9681180078,49.8424586857,"de:7339:32601"
"6032600","Badenheim, Anfang",7.9660283042,49.844615884,"de:7339:32600"
"6032541","Heidesheim (Rhein), Mainzer Straße",8.121500022,49.996996427,"de:7339:32541"
"6032652","Elsheim, Kirche",8.1241532744,49.9161000929,"de:7339:32652"
"6032651","Elsheim, Mainzer Straße",8.125817231100001,49.9195650942,"de:7339:32651"
"6032724","Heidesheim (Rhein), Am Rehkampf",8.1209469129,49.9952031011,"de:7339:32724"
"6033000","Planig, Mercedes",7.9016731917000005,49.858553679299995,"de:7133:33000"
"6032996","Guldental, Heddesheim Schule",7.8396456909,49.8916568262,"de:7133:32996"
"6030742","Bad Sobernheim, Dr.-Herrmann-Straße",7.6424321273,49.7861362254,"de:7133:30742"
"6033020","Guldental, Alte Kelter",7.8422444527,49.8906488342,"de:7133:33020"
"6032542","Heidesheim (Rhein), Freier Platz",8.113517810400001,49.9949578106,"de:7339:32542"
"6032551","Heidesheim (Rhein), Bahnhofstraße",8.1129597533,49.9957267445,"de:7339:32551"
"6032728","Wackernheim, Kleine Hohl",8.123402798999999,49.97517248530001,"de:7339:32728"
"6032543","Heidenfahrt, Ort",8.1001229148,50.0102377614,"de:7339:32543"
"6032545","Heidenfahrt, Kirchenweg",8.0990408974,50.006920814800004,"de:7339:32545"
"6032727","Wackernheim, Große Hohl",8.1191079441,49.9744656732,"de:7339:32727"
"6032729","Wackernheim, Rathausplatz",8.116156031400001,49.979603886700005,"de:7339:32729"
"6032544","Heidenfahrt, Auxonner Straße",8.0955739679,50.008053653699996,"de:7339:32544"
"6034049","Genheim, Ortsmitte",7.8170169143,49.9394667389,"de:7339:34049"
"6032657","Jugenheim (Rheinhessen), Helferich-Haus",8.0852936459,49.89021245280001,"de:7339:32657"
"6032546","Wackernheim, Mühlstraße",8.1134894388,49.98283817870001,"de:7339:32546"
"6032615","Trechtingshausen, Sooneckstraße",7.8475227335,50.0114035384,"de:7339:32615"
"6032658","Jugenheim (Rheinhessen), Mitte",8.0874130071,49.894427856,"de:7339:32658"
"6032656","Jugenheim (Rheinhessen), Rieslingstraße",8.0823135877,49.8925175437,"de:7339:32656"
"6035014","Kirchenbollenbach, Ort",7.4165082319,49.6926001972,"de:7134:35014"
"6032612","Wolfsheim, Wendeplatz",8.0456854256,49.8733592344,"de:7339:32612"
"6032607","Sprendlingen (Rheinhessen), Wißberghalle",7.9957802211,49.8608002327,"de:7339:32607"
"6032692","Sprendlingen (Rheinhessen), Am alten Sportplatz",7.9932108633,49.860625114099996,"de:7339:32692"
"6032605","Sprendlingen (Rheinhessen), Markt",7.987276969100001,49.860393638699996,"de:7339:32605"
"6032614","Trechtingshausen, Bahnhof",7.8523935358,50.0089883241,"de:7339:32614"
"6032611","Wolfsheim, Mitte",8.0418785199,49.8731120737,"de:7339:32611"
"6032604","Sprendlingen (Rheinhessen), Grundschule 1",7.9835615397,49.8611523402,"de:7339:32604"
"6032872","Sprendlingen (Rheinhessen), Bahnhofstraße",7.9792020763,49.861446719899995,"de:7339:32872"
"6032693","Sprendlingen (Rheinhessen), Kreuznacher Straße",7.9795393101,49.861944187700004,"de:7339:32693"
"6032669","Sprendlingen (Rheinhessen), Zotzenheimer Straße",7.9849832550999995,49.86233360879999,"de:7339:32669"
"6034414","Ellweiler, Mühlenstraße",7.1435946468,49.6135021808,"de:7134:34414"
"6034012","Waldalgesheim, West",7.8274734457,49.9506046695,"de:7339:34012"
"6032609","St Johann (Rheinhessen), Neugasse",8.0174482308,49.868385307,"de:7339:32609"
"6032867","Sprendlingen (Rheinhessen), Regionalschule",7.9925603988,49.8644855571,"de:7339:32867"
"6032613","Trechtingshausen, Morgenbachtal",7.8547748210999995,50.0044715059,"de:7339:32613"
"6035016","Idar-Oberstein, Schulzentrum Bein",7.3910691047,49.7200423462,"de:7134:35016"
"6032670","Sprendlingen (Rheinhessen), IGS",7.9921812555,49.8653274087,"de:7339:32670"
"6032719","Schwabenheim (Selz), Elsheimer Straße",8.0990997839,49.927551344799994,"de:7339:32719"
"6032690","Sprendlingen (Rheinhessen), nördl. Wiesbach.",7.985913945000001,49.8663786675,"de:7339:32690"
"6030739","Monzingen, Soonwaldstraße",7.5904172676999995,49.8031651309,"de:7133:30739"
"6032722","Schwabenheim (Selz), Grundschule",8.0970932136,49.927607676499996,"de:7339:32722"
"6032718","Schwabenheim (Selz), Markt",8.097459969900001,49.931089954,"de:7339:32718"
"6034011","Waldalgesheim, Rathaus",7.8347925832000005,49.9516044516,"de:7339:34011"
"6034350","Monzingen, Elekrizitätswerk",7.5888647542,49.8054390028,"de:7133:34350"
"6032714","Schwabenheim (Selz), Friedensstraße",8.0946312242,49.931904060899996,"de:7339:32714"
"6032716","Schwabenheim (Selz), Kindergarten",8.0911759261,49.928253776000005,"de:7339:32716"
"6030754","Meckenbach (Kirn), Ort",7.5074817478,49.7774188674,"de:7133:30754"
"6032796","Engelstadt, An der Kirchenpforte",8.0638577506,49.9019633077,"de:7339:32796"
"6032717","Engelstadt, Ort",8.0675966774,49.9051401985,"de:7339:32717"
"6032721","Bubenheim (Rheinhessen), Ort",8.0803034626,49.921407057299994,"de:7339:32721"
"6030731","Feilbingert, Grundschule",7.8041054584000005,49.7787189899,"de:7133:30731"
"6032594","Nieder-Ingelheim, Heidesheimer Straße",8.0778239001,49.9805913812,"de:7339:32594"
"6032661","Großwinternheim, Kirche",8.083786402500001,49.9419065773,"de:7339:32661"
"6032595","Nieder-Ingelheim, Im Herstel",8.0742168808,49.982558605,"de:7339:32595"
"6034039","Rümmelsheim, Schule",7.857035377700001,49.934958816999995,"de:7133:34039"
"6032560","Nieder-Ingelheim, Steingasse",8.0760562024,49.9767922424,"de:7339:32560"
"6034040","Rümmelsheim, Ortsmitte",7.8591805992,49.9337751521,"de:7133:34040"
"6032726","Großwinternheim, Ort",8.080103746,49.9436216517,"de:7339:32726"
"6032561","Nieder-Ingelheim, Oberböhl",8.0722024626,49.9807264027,"de:7339:32561"
"6034052","Rümmelsheim, Rathaus",7.8601311047,49.934225045999995,"de:7133:34052"
"6032894","Nieder-Ingelheim, Untere Stiftstraße",8.072800957,49.9793286361,"de:7339:32894"
"6032896","Nieder-Ingelheim, Sternbornstraße",8.0708864501,49.9817318257,"de:7339:32896"
"6032562","Nieder-Ingelheim, Linde",8.0700275797,49.98216549239999,"de:7339:32562"
"6032725","Großwinternheim, Alte Grundschule",8.077952444,49.941734504500005,"de:7339:32725"
"6034037","Burg Layen, Abzw. Dorsheim",7.864327178700001,49.9287457974,"de:7133:34037"
"6030696","Hochstetten (Nahe), Bahnbrücke",7.5100997992,49.797997661699995,"de:7133:30696"
"6032592","Nieder-Ingelheim, Natalie-von-Harder-Straße",8.0712634718,49.978803875900006,"de:7339:32592"
"6034038","Burg Layen, Schlossgut",7.8648738093,49.930971891599995,"de:7133:34038"
"6032575","Nieder-Ingelheim, Francois-Lachenal-Platz",8.0708245421,49.976255995399995,"de:7339:32575"
"6035015","Nahbollenbach, Post",7.3712733598,49.7156476233,"de:7134:35015"
"6034330","Simmertal, Ulrich-Fabry-Straße",7.524173746100001,49.8075016505,"de:7133:34330"
"6032895","Nieder-Ingelheim, Am Langenberg",8.066242165,49.9832409609,"de:7339:32895"
"6032869","Großwinternheim, Kreisel",8.0760896072,49.9459003879,"de:7339:32869"
"6032558","Nieder-Ingelheim, Ottonenstraße",8.0692505344,49.9769086976,"de:7339:32558"
"6034010","Weiler (Bingen), West",7.8615073187,49.95444999080001,"de:7339:34010"
"6032723","Ober-Hilbersheim, Kindergarten",8.030054529000001,49.897388027400005,"de:7339:32723"
"6032590","Nieder-Ingelheim, Krankenhaus",8.068927049500001,49.9741639389,"de:7339:32590"
"6032559","Nieder-Ingelheim, Kleiner Markt",8.066003865999999,49.9761004292,"de:7339:32559"
"6032563","Nieder-Ingelheim, Kohgasse",8.064006733800001,49.9784399072,"de:7339:32563"
"6034036","Dorsheim, Bürgerhaus",7.8753523829,49.925391700999995,"de:7133:34036"
"6032700","Ober-Hilbersheim, Ort",8.0298383982,49.9005330132,"de:7339:32700"
"6034035","Dorsheim, Ortsmitte",7.8754208736999995,49.9260397076,"de:7133:34035"
"6032588","Nieder-Ingelheim, Grundstraße",8.064376128500001,49.9752062318,"de:7339:32588"
"6034009","Weiler (Bingen), Mitte",7.866553894,49.9567381078,"de:7339:34009"
"6032893","Nieder-Ingelheim, Yellow/Realschule",8.0609554069,49.9797728598,"de:7339:32893"
"6034046","Langenlonsheim, Nord",7.899695128399999,49.905242784900004,"de:7133:34046"
"6032858","Nieder-Ingelheim, Im Blumengarten",8.058404103200001,49.9819099613,"de:7339:32858"
"6032566","Nieder-Ingelheim, Winzerkeller/Friedhof",8.062446463699999,49.9755053372,"de:7339:32566"
"6032564","Nieder-Ingelheim, Starenweg",8.0610432137,49.977409015300005,"de:7339:32564"
"6032859","Nieder-Ingelheim, Kreuzbergstraße",8.0642351689,49.9709704715,"de:7339:32859"
"6032589","Nieder-Ingelheim, Altenzentrum",8.0630250242,49.9715540966,"de:7339:32589"
"6032632","Ober-Ingelheim, Friedhof",8.0635041769,49.9684112133,"de:7339:32632"
"6034008","Weiler (Bingen), Ost",7.8707515863,49.9583973791,"de:7339:34008"
"6032660","Ober-Ingelheim, Neuweg",8.0654530021,49.9599037153,"de:7339:32660"
"6032608","Ingelheim, Zentrum am Kreisel",8.0563528889,49.9798524162,"de:7339:32608"
"6032702","Nieder-Hilbersheim, Mitte",8.0428499915,49.9140643743,"de:7339:32702"
"6035007","Nahbollenbach, Festplatz",7.3691200983,49.714520366500004,"de:7134:35007"
"6032857","Nieder-Ingelheim, Max-Planck-Straße",8.052306720699999,49.9821300647,"de:7339:32857"
"6032565","Nieder-Ingelheim, Neues Rathaus",8.0572011637,49.974968364700004,"de:7339:32565"
"6034047","Bingerbrück, Elisenhöhe",7.8758088362,49.9662505079,"de:7339:34047"
"6032631","Ober-Ingelheim, Breitbachstraße",8.0600909976,49.966882175500004,"de:7339:32631"
"6032630","Ober-Ingelheim, Marktplatz",8.0606901155,49.9640279756,"de:7339:32630"
"6032659","Ober-Ingelheim, Taunusstraße/WBZ",8.0572688737,49.9693587093,"de:7339:32659"
"6032557","Ober-Ingelheim, Grundschule",8.058620037,49.9651170643,"de:7339:32557"
"6034024","Bingerbrück, Wilhelm-Beumer-Weg",7.8781422744,49.96420520069999,"de:7339:34024"
"6034045","Laubenheim (Nahe), Weidenpfad",7.9005361371,49.913567325,"de:7133:34045"
"6034054","Bingerbrück, Im Bangert",7.8792792142999994,49.9626607747,"de:7339:34054"
"6034044","Laubenheim (Nahe), Hohlstraße",7.8967371705,49.9183593623,"de:7133:34044"
"6034203","Bingerbrück, Wilhelm-Hacker-Straße",7.8811375624,49.966670625400006,"de:7339:34203"
"6032772","Dorn-Dürkheim, Gartenfeldstraße",8.265023102299999,49.7691156542,"de:7339:32772"
"6032629","Ober-Ingelheim, Altegasse",8.0564035234,49.9629952366,"de:7339:32629"
"6034043","Laubenheim (Nahe), Kirche",7.896156685,49.9199991704,"de:7133:34043"
"6032598","Ober-Ingelheim, Am Mühlborn",8.0538057175,49.9675413774,"de:7339:32598"
"6032771","Wintersheim, Ort",8.2818302607,49.7778162924,"de:7339:32771"
"6032770","Eimsheim, Abzw. Wintersheim",8.2862561873,49.7941081728,"de:7339:32770"
"6032774","Dolgesheim, Grundschule",8.2613715584,49.794752549799995,"de:7339:32774"
"6032773","Dolgesheim, Ort",8.2616038239,49.795005774100005,"de:7339:32773"
"6032769","Eimsheim, Kirche",8.2906892922,49.7958346486,"de:7339:32769"
"6034202","Bingerbrück, Friedrichstraße",7.8823064975,49.9649466627,"de:7339:34202"
"6032765","Guntersblum, Grundschule",8.341810752599999,49.79517399229999,"de:7339:32765"
"6032766","Guntersblum, Eimsheimer Straße",8.3442937976,49.7995216573,"de:7339:32766"
"6032776","Uelversheim, Grundschule",8.2868680372,49.8082546006,"de:7339:32776"
"6032777","Uelversheim, Ort",8.2880880515,49.8093769635,"de:7339:32777"
"6034006","Bingerbrück, Hochhaus",7.8822736433000005,49.9639573572,"de:7339:34006"
"6034201","Bingerbrück, Prinzenkopfstraße",7.883614350499999,49.966856311,"de:7339:34201"
"6032628","Ober-Ingelheim, Selztalstraße",8.0538856707,49.963460239899995,"de:7339:32628"
"6032599","Ober-Ingelheim, Im Brühl",8.0532485646,49.9653880513,"de:7339:32599"
"6032855","Frei-Weinheim, Friedhof",8.0315991019,49.990581248199994,"de:7339:32855"
"6032986","Bingerbrück, Schloßstraße",7.8852252154,49.965909778800004,"de:7339:32986"
"6032966","Horrweiler, Ortsmitte",7.9645701719,49.89856630680001,"de:7339:32966"
"6032974","Bingerbrück, Gutenbergstraße",7.8864756181999995,49.9654812331,"de:7339:32974"
"6032703","Appenheim, Aussiedlerhof",8.0404647374,49.9262182174,"de:7339:32703"
"6034004","Bingerbrück, Karl-Wolff-Straße",7.8874203738999995,49.9662185491,"de:7339:34004"
"6034003","Bingerbrück, Abzw. Hbf",7.8886411237,49.968289139,"de:7339:34003"
"6034420","Horrweiler, Aspisheimer Straße",7.972371287800001,49.900227051,"de:7339:34420"
"6034005","Bingerbrück, Stromberger Straße",7.887860251599999,49.964064971599996,"de:7339:34005"
"6034007","Bingerbrück, Friedhof",7.8871545274,49.961423899299994,"de:7339:34007"
"6032627","Bingerbrück, Rupertsberg",7.8886555891,49.9658437792,"de:7339:32627"
"6032883","Ingelheim, Fähre",8.0201398759,49.993820640200006,"de:7339:32883"
"6032584","Frei-Weinheim, Talstraße (Fähre)",8.0234334769,49.990953388200005,"de:7339:32584"
"6032922","Bingen am Rhein, Kulturzentrum",7.8913861039,49.9671196153,"de:7339:32922"
"6034001","Bingen am Rhein, Fruchtmarkt",7.892530438700001,49.9688837464,"de:7339:34001"
"6034204","Bingerbrück, Franz-Kirsten-Straße",7.890125564200001,49.9625312476,"de:7339:34204"
"6034135","Daxweiler, Ingelheimer Straße",7.7501888179,49.9669975791,"de:7133:34135"
"6032585","Frei-Weinheim, Bleichstraße",8.0258254809,49.9885190243,"de:7339:32585"
"6034026","Bingerbrück, Drususstraße",7.8905306942,49.962490167199995,"de:7339:34026"
"6032853","Frei-Weinheim, Heinrich-Wieland-Straße",8.0278442525,49.98660294649999,"de:7339:32853"
"6032572","Frei-Weinheim, Herrmannstraße",8.0271252392,49.986992514,"de:7339:32572"
"6034033","Münster-Sarmsheim, Trollmühle",7.8956077223,49.9348917991,"de:7339:34033"
"6032953","Bingen am Rhein, Schlossbergstraße",7.8922017361000005,49.964376217799995,"de:7339:32953"
"6032921","Bingen am Rhein, Puricelliplatz",7.8929537841999995,49.9662265085,"de:7339:32921"
"6032580","Frei-Weinheim, Leinpfad",8.0294377298,49.9843326408,"de:7339:32580"
"6032579","Frei-Weinheim, Nahering",8.0316199902,49.9818964023,"de:7339:32579"
"6032576","Ingelheim-West, Albertstraße",8.0382455208,49.9740666287,"de:7339:32576"
"6032578","Ingelheim-West, Kiefernstraße",8.0333623312,49.979834069800006,"de:7339:32578"
"6034027","Bingerbrück, Mühestraße/Drususbrücke",7.8920003467,49.9597889829,"de:7339:34027"
"6032573","Frei-Weinheim, Albert-Schweitzer-Schule",8.024770303099999,49.9869098192,"de:7339:32573"
"6032581","Frei-Weinheim, Schifferstraße",8.0247147167,49.9869003615,"de:7339:32581"
"6032577","Ingelheim-West, Theodor-Fliedner-Straße",8.0354907653,49.9772804301,"de:7339:32577"
"6032586","Ingelheim-West, Albrecht-Dürer-Straße",8.038070769599999,49.9737415148,"de:7339:32586"
"6032920","Bingen am Rhein, Schmittstraße/RWE",7.8940601031,49.9653919207,"de:7339:32920"
"6033027","Bingen am Rhein, Schmittstraße",7.8939271984,49.964500564599994,"de:7339:33027"
"6032583","Frei-Weinheim, Winkeler Straße",8.0193621335,49.9895434899,"de:7339:32583"
"6033025","Bingen am Rhein, Gaustraße",7.8938717204,49.962054536699995,"de:7339:33025"
"6032505","Stromberg (Hunsrück), Gerbereiplatz",7.7719132721,49.9442218395,"de:7133:32505"
"6032923","Bingen am Rhein, Hospitalstraße",7.896905190599999,49.9689793533,"de:7339:32923"
"6032968","Aspisheim, Gehrenstraße",7.980365035699999,49.9053234672,"de:7339:32968"
"6032852","Frei-Weinheim, Kindergemeinschaftshaus",8.0254142874,49.984712504200004,"de:7339:32852"
"6032952","Bingen am Rhein, Drususbrücke",7.8940126938,49.9601588195,"de:7339:32952"
"6034023","Bingen am Rhein, Dr. Sieglitz-Straße",7.895334726,49.963291221000006,"de:7339:34023"
"6032845","Bingen am Rhein, Brücke 5",7.8988484742,49.970562204900006,"de:7339:32845"
"6035012","Mittelbollenbach, Treffpunkt",7.3988911791000005,49.698517202199994,"de:7134:35012"
"6034082","Stromberg (Hunsrück), Kindergarten",7.7771299331,49.9450861156,"de:7133:34082"
"6034019","Stromberg (Hunsrück), Verbandsgemeinde",7.7777377387,49.9447418747,"de:7133:34019"
"6034032","Münster-Sarmsheim, Günster/Süd",7.8966687564999996,49.9408897939,"de:7339:34032"
"6034063","Bingen am Rhein, Hospital/Bürgerbüro",7.897873991799999,49.9680625052,"de:7339:34063"
"6032967","Aspisheim, Germaniastraße",7.9811520489,49.906292401799995,"de:7339:32967"
"6032705","Appenheim, Mitte",8.0332185597,49.930608515299994,"de:7339:32705"
"6034031","Münster-Sarmsheim, Brücke",7.8961180025,49.9442651102,"de:7339:34031"
"6034083","Stromberg (Hunsrück), Grundschule",7.7817784275,49.944730422099994,"de:7133:34083"
"6034081","Stromberg (Hunsrück), Friedrichsheck",7.7824306931,49.9498081305,"de:7133:34081"
"6032954","Bingen am Rhein, Holzhauser Straße",7.8989468612,49.9680816792,"de:7339:32954"
"6034018","Stromberg (Hunsrück), Binger Höhe",7.7828200377,49.9465215498,"de:7133:34018"
"6034017","Stromberg (Hunsrück), Ruheweg",7.7835858195,49.9470960062,"de:7133:34017"
"6033019","Bingen am Rhein, Burg Klopp",7.8982404633000005,49.966052046,"de:7339:33019"
"6034015","Stromberg (Hunsrück), Ost",7.787122195,49.9483108306,"de:7133:34015"
"6034016","Stromberg (Hunsrück), Königsberger Straße",7.7870698763999995,49.945954671,"de:7133:34016"
"6034021","Warmsroth, Wendeplatz",7.7872091868,49.9603864879,"de:7133:34021"
"6032582","Frei-Weinheim, Hallgartener Straße",8.0199573191,49.9863298431,"de:7339:32582"
"6032924","Bingen am Rhein, Eisel",7.8958881895,49.9573715444,"de:7339:32924"
"6034030","Münster-Sarmsheim, Kirche",7.896290334,49.947089870300005,"de:7339:34030"
"6032904","Bingen am Rhein, Feuerwehr",7.8993991623,49.9671958804,"de:7339:32904"
"6032902","Bingen am Rhein, St. Martin (FH Altbau)",7.9002062372,49.9684802241,"de:7339:32902"
"6034050","Warmsroth, Ortsmitte",7.7902194614,49.955383021799996,"de:7133:34050"
"6034029","Münster-Sarmsheim, Stumpfer Turm",7.8966038662999996,49.949223677899994,"de:7339:34029"
"6032941","Sponsheim, Zum Flößchen",7.9159250876,49.9214802409,"de:7339:32941"
"6034014","Warmsroth, Abzw.",7.7919722342,49.9488199591,"de:7133:34014"
"6032939","Sponsheim, B50",7.914148023899999,49.9230999598,"de:7339:32939"
"6033026","Bingen am Rhein, Rupertusstraße",7.8996784777,49.9659488079,"de:7339:33026"
"6032574","Ingelheim-West, Rembrandtstr./MGH",8.0317918246,49.973329682400006,"de:7339:32574"
"6034028","Münster-Sarmsheim, B9 Bäumchen",7.8977362755,49.952111502799994,"de:7339:34028"
"6032918","Bingen am Rhein, Goethestraße",7.9011855229000005,49.965261803599994,"de:7339:32918"
"6032905","Bingen am Rhein, Finanzamt",7.9018536667,49.9665268392,"de:7339:32905"
"6034013","Roth (Stromberg), Abzw.",7.800774425999999,49.9489741974,"de:7133:34013"
"6032993","Sponsheim, In der Weide",7.9170161921,49.9231267659,"de:7339:32993"
"6032901","Bingen am Rhein, Edeka",7.9036696085,49.968809687400004,"de:7339:32901"
"6035008","Nahbollenbach, Mühlenstraße",7.3703632018,49.7130093056,"de:7134:35008"
"6032571","Ingelheim-West, IGS/MGH",8.029886274399999,49.9731159763,"de:7339:32571"
"6032942","Sponsheim, Raab Karcher",7.9117557736999995,49.9285349951,"de:7339:32942"
"6032938","Sponsheim, Römerstraße",7.922166463800001,49.9213585702,"de:7339:32938"
"6032917","Bingen am Rhein, Mozartstr./Friedhof",7.9031910198,49.9634916048,"de:7339:32917"
"6032951","Büdesheim (b Bingen), Scharlachberg",7.9013099703,49.95366483989999,"de:7339:32951"
"6034066","Sponsheim, DEG",7.9163669674,49.925997777199996,"de:7339:34066"
"6032506","Schweppenhausen, Gasthaus Pfalz",7.8003378183,49.9261507934,"de:7133:32506"
"6034064","Sponsheim, Bauhof",7.9163812942,49.9259799293,"de:7339:34064"
"6032990","Büdesheim (b Bingen), Scharlachberggelände",7.901544496600001,49.9525432078,"de:7339:32990"
"6032906","Bingen am Rhein, Rochusallee",7.9051528658,49.9660994785,"de:7339:32906"
"6033008","Büdesheim (b Bingen), EKZ",7.9026836859,49.948400226100006,"de:7339:33008"
"6032704","Appenheim, Auf der Pforte",8.0285313157,49.935828980400004,"de:7339:32704"
"6032915","Bingen am Rhein, Hungerborn/Mitte",7.9051862881999995,49.9646253031,"de:7339:32915"
"6032568","Ingelheim-West, Weimarer Straße",8.0269026489,49.971751383699996,"de:7339:32568"
"6032943","Dietersheim (Bingen), Stadtwerke",7.9101607132,49.9350383869,"de:7339:32943"
"6032984","Büdesheim (b Bingen), Rochus-Realschule",7.9045459319,49.9473838755,"de:7339:32984"
"6032937","Bingen am Rhein, Winfriedstraße",7.909226329899999,49.96903286879999,"de:7339:32937"
"6034410","Aspisheim, Aussiedlerhöfe",7.9739556216,49.91216294270001,"de:7339:34410"
"6032622","Manubach, Ortsmitte",7.7608137454,50.031458860600004,"de:7339:32622"
"6032907","Bingen am Rhein, Pfarrer-Heberer-Straße",7.9084138922000005,49.966741569499995,"de:7339:32907"
"6032944","Dietersheim (Bingen), Kirche",7.9096929173,49.9384864739,"de:7339:32944"
"6034065","Dietersheim (Bingen), Schule",7.9116049904,49.935852127299995,"de:7339:34065"
"6032914","Bingen am Rhein, Hungerborn",7.9086855373,49.9652066983,"de:7339:32914"
"6032671","Breitscheid (Hunsrück), Ort",7.7096890501,50.0563997802,"de:7339:32671"
"6032619","Oberheimbach (Bingen), Ortsmitte",7.785873253199999,50.0229216712,"de:7339:32619"
"6032950","Büdesheim (b Bingen), Berlinstraße",7.9062534813,49.951967318399994,"de:7339:32950"
"6034068","Büdesheim (b Bingen), Keppsmühlstraße",7.9067209478,49.9516300722,"de:7339:34068"
"6032633","Oberdiebach, Kindergarten",7.776803080400001,50.0305944876,"de:7339:32633"
"6032625","Oberdiebach, Ortsmitte",7.7770889069999996,50.0325305139,"de:7339:32625"
"6032885","Bingen am Rhein, Hafen",7.9130232171,49.9706508689,"de:7339:32885"
"6032507","Windesheim, Bahnhofstraße",7.8151577394,49.9084651045,"de:7133:32507"
"6034051","Büdesheim (b Bingen), Hassia",7.9072544912,49.949603172500005,"de:7339:34051"
"6032955","Büdesheim (b Bingen), Weinstraße",7.9071205875,49.9524430099,"de:7339:32955"
"6032908","Bingen am Rhein, Mittelpfad",7.9119692412,49.967934766199996,"de:7339:32908"
"6032681","Winzberg (Kr Mainz), Ort",7.7706168809,50.0400144033,"de:7339:32681"
"6032945","Dietersheim (Bingen), Tiergarten",7.9110741960999995,49.940864033000004,"de:7339:32945"
"6032911","Bingen am Rhein, Grüne Bank",7.9115578224,49.9651617447,"de:7339:32911"
"6032949","Büdesheim (b Bingen), Helmutstraße",7.909246040499999,49.950880623,"de:7339:32949"
"6032910","Bingen am Rhein, Dr.-Gebauer-Straße",7.9140360499,49.9665245878,"de:7339:32910"
"6034034","Büdesheim (b Bingen), Pestalozzistraße",7.911057480399999,49.9484071783,"de:7339:34034"
"6032948","Büdesheim (b Bingen), Mitte",7.9112115908,49.950224769500004,"de:7339:32948"
"6032936","Bingen am Rhein, Gaswerk",7.9172187619,49.9694223853,"de:7339:32936"
"6033011","Büdesheim (b Bingen), Hochstattstraße",7.911438522899999,49.9531399222,"de:7339:33011"
"6032946","Büdesheim (b Bingen), Löwenentertainment",7.913214588200001,49.9448040989,"de:7339:32946"
"6032947","Büdesheim (b Bingen), Neue Schule",7.9124287312999995,49.948150312900005,"de:7339:32947"
"6032672","Steeg (Bacharach), Ort",7.7487570012,50.0544627892,"de:7339:32672"
"6032909","Bingen am Rhein, Josef-Knettel-Straße",7.9162639565,49.9672466941,"de:7339:32909"
"6032995","Bingen am Rhein, Am Rheinberg",7.9178044984,49.9694098667,"de:7339:32995"
"6032555","Sporkenheim, Dorfplatz",8.009911579,49.977101033800004,"de:7339:32555"
"6032913","Bingen am Rhein, Hildegardishaus",7.9185248124,49.9646334819,"de:7339:32913"
"6032680","Medenscheid, Ort",7.7725438121,50.0449257617,"de:7339:32680"
"6032980","Büdesheim (b Bingen), Römergarten-Residenz",7.9154944921,49.953096979200005,"de:7339:32980"
"6033012","Büdesheim (b Bingen), Im Kirschgarten",7.9174918854,49.944178756999996,"de:7339:33012"
"6032679","Neurath (Hunsrück), Ort",7.7670971490000005,50.0493544376,"de:7339:32679"
"6032711","Gau-Algesheim, Gärtnerei",8.0175439089,49.965145272899996,"de:7339:32711"
"6032972","Büdesheim (b Bingen), Dromersheimer Chaussee",7.9170690339,49.9456403156,"de:7339:32972"
"6032935","Bingen am Rhein, Villa Sachsen",7.9257554613000005,49.969789417099996,"de:7339:32935"
"6032618","Niederheimbach, Talstraße",7.8010928838,50.030425297499995,"de:7339:32618"
"6032962","Büdesheim (b Bingen), Breite Straße",7.9196792318,49.946671616,"de:7339:32962"
"6032673","Steeg (Bacharach), Nauheim",7.755901261399999,50.0562927525,"de:7339:32673"
"6034355","Auen (KH), Hoxmühle",7.568165264299999,49.8454567653,"de:7133:34355"
"6032960","Büdesheim (b Bingen), Am Entenbach",7.919298273,49.9487539383,"de:7339:32960"
"6032963","Büdesheim (b Bingen), Wilhelmstraße",7.9193713198,49.9504718638,"de:7339:32963"
"6032621","Rheindiebach, Wehrturm",7.7908849279000005,50.041755672899995,"de:7339:32621"
"6033016","Dromersheim, Untergasse",7.9611174895,49.922594958699996,"de:7339:33016"
"6032684","Rheindiebach, Grundschule Petersackerhof",7.797509653300001,50.038102305100004,"de:7339:32684"
"6032957","Büdesheim (b Bingen), Kapellchen",7.920300362700001,49.9531687632,"de:7339:32957"
"6032912","Bingen am Rhein, Rochuskapelle",7.924836089099999,49.966004775200005,"de:7339:32912"
"6032691","Neurath (Hunsrück), Burg Stahleck",7.764691325799999,50.057681266900005,"de:7339:32691"
"6032876","Niederheimbach, Kindergarten",7.807365074,50.0330252905,"de:7339:32876"
"6032969","Dromersheim, Mitte",7.9648734871,49.9227813707,"de:7339:32969"
"6032617","Niederheimbach, Champtoceaux Platz",7.805766084199999,50.0344653553,"de:7339:32617"
"6032623","Bacharach, Bahnhof",7.7696351801,50.0560345085,"de:7339:32623"
"6032708","Gau-Algesheim, Schule",8.0148042573,49.9545938808,"de:7339:32708"
"6032620","Niederheimbach, Bahnhof",7.8053903744,50.036106796700004,"de:7339:32620"
"6032616","Niederheimbach, B9",7.813773404400001,50.0295575789,"de:7339:32616"
"6032709","Gau-Algesheim, Ockenheimer Straße",8.013468431,49.95927570879999,"de:7339:32709"
"6032887","Niederheimbach, Fähre",7.8088514767,50.0338766895,"de:7339:32887"
"6033014","Dromersheim, Im Schwendel",7.958421378000001,49.9242790465,"de:7339:33014"
"6034356","Seesbach, Dorfplatz",7.5467483374999995,49.8456128955,"de:7133:34356"
"6032683","Bacharach, Markt",7.7680607712,50.0597130071,"de:7339:32683"
"6032707","Gau-Algesheim, Radsporthalle",8.0138629502,49.9508727016,"de:7339:32707"
"6032959","Büdesheim (b Bingen), Am Langenstein",7.922964637100001,49.9511705883,"de:7339:32959"
"6032720","Gau-Algesheim, Binger Straße",8.0115165655,49.9620372441,"de:7339:32720"
"6032682","Bacharach, Evangelischer Kindergarten",7.7682269475000005,50.0614050273,"de:7339:32682"
"6033015","Dromersheim, Schule",7.963175764800001,49.9246722691,"de:7339:33015"
"6034055","Büdesheim (b Bingen), FH Neubau",7.923969961,49.9535804595,"de:7339:34055"
"6032715","Gau-Algesheim, Regionalbad",8.004826639000001,49.9688040537,"de:7339:32715"
"6032970","Dromersheim, Rheinhessenstraße",7.9649298526,49.9253532506,"de:7339:32970"
"6033006","Büdesheim (b Bingen), Sebold",7.932370109200001,49.9391918254,"de:7339:33006"
"6034069","Dromersheim, Kurmainzstr./Kettelerstr.",7.9604088373,49.9270570543,"de:7339:34069"
"6032973","Dromersheim, Kurmainzstraße",7.9606710840999995,49.9271672935,"de:7339:32973"
"6032934","Kempten (Bingen), Kempten",7.93696523,49.9690474959,"de:7339:32934"
"6034056","Kempten (Bingen), Wendelin-Kamp-Straße",7.9407677906,49.9685428148,"de:7339:34056"
"6032940","Bingen am Rhein, Hochbaum-Platz",7.938486627500001,49.962615031599995,"de:7339:32940"
"6032987","Gaulsheim, Hindenburgbrücke",7.946311322800001,49.968098781500004,"de:7339:32987"
"6032999","Kempten (Bingen), Kempter Eck",7.9444366847,49.9645843358,"de:7339:32999"
"6030737","Auen (KH), Abzw.",7.5817888578999995,49.823667741799994,"de:7133:30737"
"6032676","Henschhausen, Ort",7.7518867304,50.077009267899996,"de:7339:32676"
"6032931","Gaulsheim, Bahnhof/AMC",7.9508992166,49.9673671356,"de:7339:32931"
"6032994","Gaulsheim, Bingen-Gaulsheim",7.9511148962,49.967063398700006,"de:7339:32994"
"6034061","Kempten (Bingen), Ockenheimer Graben",7.9475990926,49.9620956363,"de:7339:34061"
"6032930","Gaulsheim, Treffelsheimerstraße",7.9559149046,49.9668279637,"de:7339:32930"
"6033005","Kempten (Bingen), Kendermann",7.9466895599,49.9597048279,"de:7339:33005"
"6034067","Kempten (Bingen), MKS/Honda",7.945958892899999,49.9574235253,"de:7339:34067"
"6032929","Gaulsheim, Kirche",7.960440602299999,49.9663830859,"de:7339:32929"
"6032985","Bingen am Rhein, Globus-Logistik",7.9504900518,49.96053943730001,"de:7339:32985"
"6030781","Rüdesheim (Bad Kreuznach), Roxheimer Straße",7.812317553400001,49.8477559609,"de:7133:30781"
"6032928","Gaulsheim, Turnhalle",7.965426482900001,49.9659241531,"de:7339:32928"
"6032926","Ockenheim, Frankenstraße",7.967886104500001,49.940834793,"de:7339:32926"
"6032978","Ockenheim, Michelstraße",7.9714714325,49.9412532297,"de:7339:32978"
"6032706","Ockenheim, Winzerhalle",7.9755871311,49.9436002688,"de:7339:32706"
"6032925","Ockenheim, Post",7.971717302699999,49.9427928352,"de:7339:32925"
"6032848","Ockenheim, Friedhof",7.9686045682,49.9450308931,"de:7339:32848"
"6032927","Ockenheim, Poveglianostraße",7.964413575799999,49.9481583298,"de:7339:32927"
"6034057","Gaulsheim, Marienhof",7.962394994599999,49.9558633866,"de:7339:34057"
"6032979","Ockenheim, Bahnhof",7.9662604446000005,49.9504045117,"de:7339:32979"
"6034103","Hüffelsheim, Soonwaldstraße",7.796308165299999,49.82220017,"de:7133:34103"
"6034331","Simmertal, Camping. Haumühle",7.5038563277999994,49.8144431992,"de:7133:34331"
"6030084","Planig, Industriegebiet",7.907944542,49.8604470525,"de:7133:30084"
"6030546","Hüffelsheim, Rathaus",7.7992168201,49.822032525500006,"de:7133:30546"
"6030585","Simmertal, Giloy",7.5215172297,49.8135279036,"de:7133:30585"
"6030596","Kallenfels, Ort",7.4397770615,49.79611031980001,"de:7133:30596"
"6030597","Kirn (Nahe), Abzw. Wartenstein",7.4308734533,49.7999822769,"de:7133:30597"
"6030547","Hüffelsheim, Sportplatz",7.7973155486,49.82136546299999,"de:7133:30547"
"6030611","Dhaun, Schloss",7.500172512300001,49.8149440627,"de:7133:30611"
"6030613","Horbach (Simmertal), Ort",7.5138611828,49.8235091935,"de:7133:30613"
"6030607","Kallenfels, Turnerheim",7.4343184549,49.799120739,"de:7133:30607"
"6030548","Hüffelsheim, Abzw. Niederhausen",7.781397468700001,49.8171802435,"de:7133:30548"
"6030593","Kirn (Nahe), Dominikschule",7.4597884196,49.791423750099995,"de:7133:30593"
"6030688","Kirn (Nahe), Breslauer Straße",7.473820406600001,49.7868619523,"de:7133:30688"
"6030687","Hüffelsheim, Lindenhof",7.78873738,49.827084398299995,"de:7133:30687"
"6030654","Gonratherhof, Ort",7.547172776800001,49.8189143353,"de:7133:30654"
"6030598","Hahnenbach (Bad Kreuznach), Campingplatz",7.4226401972,49.8066949461,"de:7133:30598"
"6030619","Hahnenbach (Bad Kreuznach), Neustraße",7.4220090154,49.8073067567,"de:7133:30619"
"6030594","Kirn (Nahe), Josef-Görres-Straße",7.4603047916,49.7970411943,"de:7133:30594"
"6030599","Hahnenbach (Bad Kreuznach), Dorfplatz",7.418445011,49.810090451,"de:7133:30599"
"6030574","Kirn (Nahe), Bahnhof",7.4645504338,49.785768450999996,"de:7133:30574"
"6030576","Kirn (Nahe), Steinbruch",7.4853274124,49.790159863,"de:7133:30576"
"6030620","Oberhausen (Kirn), Kindergarten",7.4478039724,49.806153500300006,"de:7133:30620"
"6030573","Kirn (Nahe), Schulzentrum",7.4450454461,49.7925126561,"de:7133:30573"
"6030600","Oberhausen (Kirn), Kirche",7.4488611536,49.808721183900005,"de:7133:30600"
"6030621","Oberhausen (Kirn), Alte Schule",7.449006584299999,49.8106922258,"de:7133:30621"
"6030690","Hochstetten (Nahe), St. Johannisberg",7.4975407323,49.8007577167,"de:7133:30690"
"6030689","Hochstetten (Nahe), Karlshof",7.482321055299999,49.8103689336,"de:7133:30689"
"6030572","Kirn (Nahe), Westring",7.4558429247,49.7857786443,"de:7133:30572"
"6030570","Kirn (Nahe), Obersteiner Straße",7.45484909,49.7799120366,"de:7133:30570"
"6030569","Kirn (Nahe), Abzw. Becherbach",7.452140214899999,49.773411108,"de:7133:30569"
"6030605","Schneppenbach (Bad Kreuznach), Ort",7.408755049300001,49.845437535100004,"de:7133:30605"
"6030568","Kirn (Nahe), Gewerbegebiet  Allweiden",7.4485435433000005,49.770827450599995,"de:7133:30568"
"6030604","Bruschied, Ort",7.4068269119000005,49.8347204094,"de:7133:30604"
"6030680","Kirn-Sulzbach, Bahnhof",7.4362119841,49.7631718884,"de:7133:30680"
"6030616","Weitersborn, Ort",7.5273472876,49.849890674200005,"de:7133:30616"
"6030658","Langenthal (Hunsrück), Ort",7.5749957415,49.8316135788,"de:7133:30658"
"6030617","Schwarzerden (Bad Kreuznach), Ortsmitte",7.5114152038999995,49.8597393845,"de:7133:30617"
"6030608","Rudolfshaus, Ort",7.3989278513,49.8242895597,"de:7133:30608"
"6030566","Kirn-Sulzbach, Abzw.",7.4398559421999995,49.7612159272,"de:7133:30566"
"6030592","Königsau, Ort",7.487067281600001,49.855558035399994,"de:7133:30592"
"6030618","Schwarzerden (Bad Kreuznach), Feuerwehr",7.514094087199999,49.862183381899996,"de:7133:30618"
"6030644","Auen (KH), Ort",7.5974811021,49.8313033373,"de:7133:30644"
"6030567","Kirn-Sulzbach, Haus Schönborn",7.4359923059,49.76223382,"de:7133:30567"
"6030615","Seesbach, Gemeindehaus",7.544184603600001,49.849033349,"de:7133:30615"
"6030591","Kellenbach, Gh. Pullig",7.4897037459,49.84726654,"de:7133:30591"
"6030603","Hennweiler, Auf dem Wasem",7.435867954900001,49.8230315768,"de:7133:30603"
"6030622","Hennweiler, Grundschule",7.4316493955,49.821544963300006,"de:7133:30622"
"6030602","Hennweiler, Gemeindehaus",7.4358628281,49.820603857399995,"de:7133:30602"
"6030590","Kellenbach, Lützelsoon",7.4952185600000005,49.845198334600006,"de:7133:30590"
"6030601","Hennweiler, Oberhausener Straße",7.4391138345,49.8184717836,"de:7133:30601"
"6030589","Heinzenberg (Bad Kreuznach), Ort",7.485265131899999,49.824218031099996,"de:7133:30589"
"6030587","Brauweiler (Bad Kreuznach), Abzw.",7.4916165154,49.8175124446,"de:7133:30587"
"6030684","Meisenheim, Bodelschwinghalle",7.664118248199999,49.698381703500004,"de:7133:30684"
"6030676","Meisenheim, BITO",7.662243299,49.7045730736,"de:7133:30676"
"6030647","Waldfriede(Seesbach), Ort",7.5500264428,49.8545552016,"de:7133:30647"
"6030672","Meisenheim, Spinnerei",7.6614510975,49.7046448455,"de:7133:30672"
"6030675","Meisenheim, Lindenallee",7.6690924621,49.7065850882,"de:7133:30675"
"6030667","Meisenheim, Gymnasium",7.6655068909,49.709430055400006,"de:7133:30667"
"6030674","Meisenheim, Bahnhof",7.666146778299999,49.7098600155,"de:7133:30674"
"6030670","Meisenheim, Regionale Schule",7.6607163609,49.710696501399994,"de:7133:30670"
"6030668","Meisenheim, Kindergarten",7.6625386582,49.7114908044,"de:7133:30668"
"6030671","Meisenheim, Grundschule",7.661560995099999,49.7122527671,"de:7133:30671"
"6030673","Meisenheim, Raumbacher Straße",7.6658276113,49.713920411299995,"de:7133:30673"
"6030666","Raumbach, Bahnhof",7.6635480872,49.7237216287,"de:7133:30666"
"6030665","Rehborn, Turnplatz",7.6852769157,49.7346608305,"de:7133:30665"
"6030664","Rehborn, Ost",7.6905434612,49.7353588423,"de:7133:30664"
"6030660","Rehborn, Abzw. Lettweiler",7.6997170627,49.7398858359,"de:7133:30660"
"6030661","Lettweiler, Ort",7.7249725569,49.734385098599994,"de:7133:30661"
"6030659","Odernheim am Glan, Charlottenhof",7.7012037665,49.7538389212,"de:7133:30659"
"6030559","Odernheim am Glan, Friedhof",7.7057820999,49.7637984569,"de:7133:30559"
"6030558","Odernheim am Glan, Gh Löwen",7.704454666199999,49.767254231399995,"de:7133:30558"
"6030560","Odernheim am Glan, Staudernheimer Straße",7.699423645,49.7690320918,"de:7133:30560"
"6030631","Kirschroth, Ort",7.5730152294,49.7618711444,"de:7133:30631"
"6030561","Staudernheim, Ortsmitte",7.6883133764,49.7758930544,"de:7133:30561"
"6030662","Daubach (Bad Kreuznach), Daubach, Abzw.",7.6321055726,49.8426502413,"de:7133:30662"
"6030642","Daubach (Bad Kreuznach), Kirche",7.6333722339,49.8445712976,"de:7133:30642"
"6030632","Meddersheim, Gh Christmann",7.6171709971,49.7773768588,"de:7133:30632"
"6030643","Daubach (Bad Kreuznach), Gemeindehaus",7.6345164286000005,49.8464009857,"de:7133:30643"
"6030691","Volxheim, Birkenweg",7.9285827549,49.8195957431,"de:7133:30691"
"6030562","Staudernheim, Steuerwald Abzw. Bf",7.6904785999000005,49.7790105085,"de:7133:30562"
"6030624","Bad Sobernheim, Bahnhof",7.6492558211,49.7829521349,"de:7133:30624"
"6030645","Rehbach (Sobernheim), Ortseingang",7.6389917528,49.8494386541,"de:7133:30645"
"6030657","Bad Sobernheim, Poststraße",7.6548193528,49.78312472969999,"de:7133:30657"
"6030623","Bad Sobernheim, Schulzentrum",7.6633476512,49.783043565300005,"de:7133:30623"
"6030663","Staudernheim, Bahnhof",7.6938897216,49.7807303486,"de:7133:30663"
"6030564","Bad Sobernheim, Schwimmbad",7.6687436907999995,49.7832495243,"de:7133:30564"
"6030565","Bad Sobernheim, Staudernheimer Straße",7.659940699999999,49.7842270311,"de:7133:30565"
"6030646","Rehbach (Sobernheim), Forsthaus Kallweiler",7.579108667500001,49.8644008752,"de:7133:30646"
"6030625","Bad Sobernheim, Bahnhofstraße",7.6475178657,49.785026821100004,"de:7133:30625"
"6030633","Meddersheim, Kurhaus Menschel",7.603831437399999,49.782090193600006,"de:7133:30633"
"6030692","Bad Sobernheim, Leinenborn",7.6690693999,49.7870745233,"de:7133:30692"
"6030627","Bad Sobernheim, Friedhof",7.647564129,49.7873560839,"de:7133:30627"
"6030626","Bad Sobernheim, Industrie",7.6418838078,49.787370589300004,"de:7133:30626"
"6030648","Bad Sobernheim, Leinenbornhalle",7.6690349302000005,49.788332894599996,"de:7133:30648"
"6030628","Bad Sobernheim, Berliner Straße",7.651107197,49.7902925362,"de:7133:30628"
"6030557","Duchroth, Hof Schönblick",7.7313478808,49.7803731345,"de:7133:30557"
"6030649","Nußbaum (Bad Kreuznach), Abzw.",7.615600807000001,49.7891186468,"de:7133:30649"
"6030556","Duchroth, Immerheiser",7.738621693,49.782592412599996,"de:7133:30556"
"6030555","Duchroth, Gh Pfälzerhof",7.739226807800001,49.7844242009,"de:7133:30555"
"6030563","Monzingen, Bahnhof",7.5874810008999996,49.7937875028,"de:7133:30563"
"6030638","Monzingen, Raiffeisenbank",7.5905125994,49.7946156346,"de:7133:30638"
"6030635","Nußbaum (Bad Kreuznach), Ortsmitte",7.6135825493,49.799982888200006,"de:7133:30635"
"6030636","Monzingen, Kindergarten",7.5961113536,49.7984149373,"de:7133:30636"
"6030639","Monzingen, Schule",7.5905611445,49.797250655199996,"de:7133:30639"
"6030637","Monzingen, Friedhof",7.5921775443,49.7985110872,"de:7133:30637"
"6030629","Bad Sobernheim, Maasberg",7.6418772146,49.8049932587,"de:7133:30629"
"6030679","Merxheim (Nahe), Friedhof",7.5665223158,49.7937819588,"de:7133:30679"
"6030650","Merxheim (Nahe), Altes Rathaus",7.560204969499999,49.792768569799996,"de:7133:30650"
"6030554","Oberhausen (Nahe), Gemeindehaus",7.7575074821,49.790699599,"de:7133:30554"
"6030634","Merxheim (Nahe), Ortsmitte",7.562474366200001,49.7944601186,"de:7133:30634"
"6030630","Bad Sobernheim, Am Dörndich",7.6423526897,49.8088560448,"de:7133:30630"
"6030553","Niederhausen (Nahe), Hermannshöhle",7.7637975055,49.7912973229,"de:7133:30553"
"6030651","Merxheim (Nahe), Kindergarten",7.554233190200001,49.7950859111,"de:7133:30651"
"6030552","Niederhausen (Nahe), Abzw. Domäne",7.7726054111,49.7922900272,"de:7133:30552"
"6030652","Weiler (Bad Kreuznach), Abzw.",7.5628976404,49.80174827530001,"de:7133:30652"
"6030653","Weiler (Bad Kreuznach), Ortseingang",7.560503897,49.8065828331,"de:7133:30653"
"6030655","Martinstein, Alte Schule",7.5458685652,49.802147307599995,"de:7133:30655"
"6030656","Martinstein, Bahnübergang",7.5404677795,49.8029695647,"de:7133:30656"
"6030551","Niederhausen (Nahe), Seehof",7.7824970463000005,49.7988229832,"de:7133:30551"
"6030582","Martinstein, Bahnhof",7.5371095371,49.8037724095,"de:7133:30582"
"6030549","Niederhausen (Nahe), Gh Nahetal",7.7851226922,49.802141273100005,"de:7133:30549"
"6030550","Niederhausen (Nahe), Hüffelsheimer Straße",7.7805674280999995,49.804862708900004,"de:7133:30550"
"6030581","Simmertal, Gh. Linde",7.5320278902,49.805515409099996,"de:7133:30581"
"6030579","Hochstädten (Nahe), Ort",7.517113070300001,49.79940931389999,"de:7133:30579"
"6030681","Hochstetten (Nahe), Bahnhof",7.5108422556,49.7986995312,"de:7133:30681"
"6030580","Hochstetten (Nahe), Haus Ott",7.5123239286,49.800211109100005,"de:7133:30580"
"6030578","Hochstetten (Nahe), Kirche",7.506152586300001,49.798072735599995,"de:7133:30578"
"6030583","Simmertal, Herrenstraße",7.5248741064999995,49.8077713115,"de:7133:30583"
"6030577","Hochstetten (Nahe), Schule",7.5038294401,49.7990857607,"de:7133:30577"
"6030686","Ebernburg, Abzw. Wieneke",7.8376801885,49.8041995965,"de:7133:30686"
"6030683","Ebernburg, Künstlerbahnhof",7.8406332968,49.806773637300005,"de:7133:30683"
"6030060","Bad Kreuznach, Ferdinand-Porsche-Straße",7.8841735126,49.8466444242,"de:7133:30060"
"6030348","Dalberg (Bad Kreuznach), Jörg",7.728736416599999,49.8944503748,"de:7133:30348"
"6030367","Gebroth, Ortsmitte",7.658694316,49.87811603350001,"de:7133:30367"
"6030370","Spall, Abzw.",7.6923285517,49.8851175447,"de:7133:30370"
"6030544","Traisen (Bad Kreuznach), Ortseingang",7.8134602604,49.820371954500004,"de:7133:30544"
"6030543","Traisen (Bad Kreuznach), Brunnenplatz",7.817548574,49.8202608715,"de:7133:30543"
"6030362","Spall, Ortsmitte",7.6813648216,49.88352787549999,"de:7133:30362"
"6030420","Schloßböckelheim, Scholländerhof",7.764039471399999,49.8156298587,"de:7133:30420"
"6030373","Weinsheim (Bad Kreuznach), Am Hinterberg",7.7652722027,49.8392715467,"de:7133:30373"
"6030436","Roxheim (Bad Kreuznach), Vogeleck",7.803380736399999,49.8645042596,"de:7133:30436"
"6030392","Winterbach (Bad Kreuznach), Kreershäuschen",7.627333753299999,49.8869469728,"de:7133:30392"
"6030356","Gebroth, Forsthaus",7.663007502399999,49.8851698707,"de:7133:30356"
"6030349","Spabrücken, Schlossweg",7.7157580218,49.89838033390001,"de:7133:30349"
"6030366","Spall, Hof Lötzbeyer",7.67771512,49.8882605678,"de:7133:30366"
"6030350","Spabrücken, Gemeindehaus",7.7126236063,49.8990019323,"de:7133:30350"
"6030452","Spabrücken, Huberstr./Hauptstr.",7.7100526934,49.8998904531,"de:7133:30452"
"6030422","Daxweiler, Gemeindehaus",7.7528034759,49.965605149999995,"de:7133:30422"
"6030372","Spabrücken, Kindergarten",7.7073317632,49.8990959275,"de:7133:30372"
"6030352","Spabrücken, Schule",7.7087724746,49.899876209300004,"de:7133:30352"
"6030391","Burgsponheim, Brauchsmühle",7.7315779657,49.8327220019,"de:7133:30391"
"6030385","Burgsponheim, Tal",7.7116006884,49.829157050999996,"de:7133:30385"
"6030353","Spabrücken, Huberstr./Nord",7.7090853651,49.901713856300006,"de:7133:30353"
"6030351","Spabrücken, Unterhub",7.7153084730999995,49.9069257928,"de:7133:30351"
"6030357","Münchwald, Neubaugebiet",7.6768841494,49.894733628000004,"de:7133:30357"
"6030354","Spabrücken, Tanneneck",7.7069578101000005,49.9052775685,"de:7133:30354"
"6030360","Münchwald, Ortsmitte",7.675251379700001,49.8969267848,"de:7133:30360"
"6030359","Münchwald, Struthof",7.6670641938,49.896023796499996,"de:7133:30359"
"6030383","Burgsponheim, Ackermannsmühle",7.7250548802,49.8339271954,"de:7133:30383"
"6030374","Mandel, Kreuznacher Straße",7.7758025896000005,49.854434202899995,"de:7133:30374"
"6030361","Münchwald, Soonwaldhaus",7.6706356459,49.9002815764,"de:7133:30361"
"6030377","Mandel, Wiegehaus",7.775064884800001,49.8550108303,"de:7133:30377"
"6030384","Burgsponheim, Wendeplatz",7.7195225618,49.8355026115,"de:7133:30384"
"6030375","Mandel, Ortsmitte",7.7703169463,49.8546908517,"de:7133:30375"
"6030380","Sponheim, Annenhof",7.7273349296,49.8392120288,"de:7133:30380"
"6030378","Mandel, Schule",7.7683985384,49.8557584091,"de:7133:30378"
"6030423","Becherbach (Pfalz), Ort",7.680760917700001,49.6540112783,"de:7133:30423"
"6030434","Becherbach (Pfalz), Raiffeisen",7.681228492300001,49.654133491,"de:7133:30434"
"6030376","Mandel, Weinsheimer",7.762134992299999,49.8537946115,"de:7133:30376"
"6030405","Gutenberg (Bad Kreuznach), Feuerwehr",7.7987858514,49.8787254675,"de:7133:30405"
"6030381","Sponheim, Kreuznacher Straße",7.7258392946,49.8437540814,"de:7133:30381"
"6030379","Sponheim, Gh Alte Abtei",7.728153884499999,49.844561714700006,"de:7133:30379"
"6030390","Sponheim, Kindergarten",7.7277243964,49.845033530200006,"de:7133:30390"
"6030415","Jeckenbach, Deslocher Straße",7.6087658602,49.7091222531,"de:7133:30415"
"6030429","Bockenau, Waldböckelheimer Straße",7.6809548171,49.837264112999996,"de:7133:30429"
"6030450","Schweinschied, Hauptstraße",7.5697863606,49.700312606800004,"de:7133:30450"
"6030451","Abtweiler, Ort",7.6560357372,49.74364932780001,"de:7133:30451"
"6030386","Bockenau, Wokelsberg",7.6832244451,49.838153056500005,"de:7133:30386"
"6030382","Sponheim, Quelle",7.7230427188,49.845413641,"de:7133:30382"
"6030421","Bockenau, Grundschule",7.6799840707,49.838709625899995,"de:7133:30421"
"6030435","Hundsbach (Bad Kreuznach), Welschröther Hof",7.531646759,49.7156153659,"de:7133:30435"
"6030503","Bad Münster am Stein, Grundschule",7.8466010079,49.8163906526,"de:7133:30503"
"6030509","Ebernburg, Schöne Aussicht",7.8341497235,49.809486862899995,"de:7133:30509"
"6030507","Ebernburg, Mitte",7.8378258803,49.809721573400005,"de:7133:30507"
"6030502","Bad Münster am Stein, Weinbergstraße",7.8485029246,49.8158790844,"de:7133:30502"
"6030505","Bad Münster am Stein, Abzw. Norheim",7.8423102845,49.8098563475,"de:7133:30505"
"6030506","Ebernburg, Bahnhof",7.8405347221,49.8074110174,"de:7133:30506"
"6030399","Rüdesheim (Bad Kreuznach), Am Wiesenberg",7.8255434221,49.8459216265,"de:7133:30399"
"6030514","Volxheim, Kreuznacher Straße",7.9243900651,49.817533951,"de:7133:30514"
"6030512","Volxheim, Markt",7.9283699779,49.8172740974,"de:7133:30512"
"6030510","Volxheim, Raiffeisenstraße",7.923262685399999,49.818242768599994,"de:7133:30510"
"6030447","Frei-Weinheim, Neumühle",8.0448860807,49.98721192719999,"de:7339:30447"
"6030400","Gensingen, Tankstelle",7.9221590692,49.9010661091,"de:7339:30400"
"6030515","Ebernburg, Hof Fenske",7.8209268649,49.794454917900005,"de:7133:30515"
"6030395","Altenbamberg, Nord",7.8316270044000005,49.792495298199995,"de:7133:30395"
"6030501","Hackenheim, Mitte",7.9015649483,49.8246566436,"de:7133:30501"
"6030396","Altenbamberg, Gh Linde",7.8315987245,49.7867407103,"de:7133:30396"
"6030397","Altenbamberg, Abzw. Steigerhof",7.8327006895,49.782490027799994,"de:7133:30397"
"6030513","Volxheim, Untergasse",7.9300183643999995,49.820031576,"de:7133:30513"
"6030500","Hackenheim, Bergstraße",7.897764957700001,49.826140066,"de:7133:30500"
"6030438","Bad Kreuznach, Friedhof/Pfalzsprung",7.8774610005,49.836896342500005,"de:7133:30438"
"6030456","Bad Kreuznach, Bosenheimer Str./Bahnhof",7.8676417376000005,49.841871802899995,"de:7133:30456"
"6030473","Bad Kreuznach, John-F.-Kennedy-Str.",7.8763373272,49.8391961475,"de:07133:30473"
"6030474","Bad Kreuznach, Eberhard-Anheuser-Str.",7.8743168322,49.840597130300004,"de:07133:30474"
"6030433","Hargesheim, Dorfplatz",7.828068626099999,49.863974133099994,"de:7133:30433"
"6030411","Bad Kreuznach, Media-Markt/Wöllsteiner Straße",7.873999953299999,49.8458627776,"de:7133:30411"
"6030389","Gebroth, Bornbach",7.654066412,49.877927552399996,"de:7133:30389"
"6030530","Pleitersheim, Anfang",7.9510656284,49.835733316,"de:7133:30530"
"6030532","Pleitersheim, Mitte",7.9536512163,49.8363770501,"de:7133:30532"
"6030441","Neu-Bamberg, Wöllsteiner Str.",7.9266846713,49.7998518926,"de:7133:30441"
"6030531","Pleitersheim, Friedhofstraße",7.953925444099999,49.837197701899996,"de:7133:30531"
"6030440","Bad Kreuznach, Beinbrech/Nikolaus-Otto-Straße",7.8884905955999995,49.8524131342,"de:7133:30440"
"6030413","Bad Kreuznach, Backhaus Lüning",7.8926891246999995,49.8512395149,"de:7133:30413"
"6030455","Ingelheim-West, Neisser Straße",8.0247730929,49.9715896596,"de:7339:30455"
"6030398","Hochstätten (Pfalz), Friedhof",7.832590527200001,49.7656845136,"de:7133:30398"
"6030403","Hochstätten (Pfalz), Am Dorfbrunnen",7.8315933875,49.76443369,"de:7133:30403"
"6030406","Hochstätten (Pfalz), Am Bahnhof",7.829638145,49.7632001606,"de:7133:30406"
"6030476","Bad Kreuznach, Seeberflur",7.900455108499999,49.852167544299995,"de:07133:30476"
"6030402","Winzenheim, Winzenheimer Höhe",7.8656324156999995,49.8653635906,"de:7133:30402"
"6030475","Bad Kreuznach, Am Grenzgraben",7.8981534380000005,49.8543215145,"de:07133:30475"
"6030430","Braunweiler, Kindergarten",7.7457138934,49.868219614199994,"de:7133:30430"
"6030388","Bockenau, Daubacher Brücke",7.6593380134,49.8508355301,"de:7133:30388"
"6030529","Pfaffen-Schwabenheim, Schule",7.954861338900001,49.847311975699995,"de:7133:30529"
"6030525","Pfaffen-Schwabenheim, Gewerbegebiet",7.9436949069,49.8505644372,"de:7133:30525"
"6030528","Pfaffen-Schwabenheim, Mühlteich",7.9507921568999995,49.850305184899995,"de:7133:30528"
"6030526","Pfaffen-Schwabenheim, Mitte",7.9468059278,49.8507365847,"de:7133:30526"
"6030428","Wallhausen (Bad Kreuznach), Cremerstraße",7.7688115171,49.888768790499995,"de:7133:30428"
"6030539","Norheim, Abzw. Hüffelsheim",7.8121011916,49.810036289799996,"de:7133:30539"
"6030541","Norheim, Bahnhof",7.8118978312000005,49.8086945352,"de:7133:30541"
"6030365","Argenschwang, Schule",7.698927972499999,49.8823955504,"de:7133:30365"
"6030404","Winterbach (Bad Kreuznach), Gartenstraße",7.6355946044000005,49.87824218550001,"de:7133:30404"
"6030364","Argenschwang, Süd",7.7005922272,49.8820815394,"de:7133:30364"
"6030363","Argenschwang, Ortsmitte",7.6994399393999995,49.8814662247,"de:7133:30363"
"6030427","Langenlonsheim, WIV",7.9073797687,49.89413074,"de:7133:30427"
"6030393","Winterbach (Bad Kreuznach), Augustin",7.6346698922,49.8764960241,"de:7133:30393"
"6030442","Winterbach (Bad Kreuznach), Abzw. Gebroth",7.6388688709,49.8746122984,"de:7133:30442"
"6030527","Pfaffen-Schwabenheim, Binger Straße",7.9532823484,49.8528271678,"de:7133:30527"
"6030443","Winterbach (Bad Kreuznach), Abzw. Ippenschied",7.6381752519,49.874541218,"de:7133:30443"
"6030545","Hüffelsheim, Post",7.8026618266000005,49.823219007700004,"de:7133:30545"
"6030453","Argenschwang, Brunnenstraße",7.6986004738,49.878013240200005,"de:7133:30453"
"6030520","Hallgarten (Pfalz), Am Festplatz",7.790508288800001,49.757673484899996,"de:7133:30520"
"6030519","Dreiweiherhof, Dreiweiherhof",7.793263491,49.7562636169,"de:7133:30519"
"6030521","Hallgarten (Pfalz), Schöne Aussicht",7.7882434797,49.7600055144,"de:7133:30521"
"6030523","Hallgarten (Pfalz), Wendeplatz",7.7873219999,49.7624504647,"de:7133:30523"
"6030407","Waldlaubersheim, Gewerbepark",7.8261584264,49.923286067899994,"de:7133:30407"
"6030417","Schloßböckelheim, Wendeplatz",7.747518408,49.808610326600004,"de:7133:30417"
"6030522","Hallgarten (Pfalz), Marktplatz",7.7886454175,49.7617000547,"de:7133:30522"
"6030537","Pfaffen-Schwabenheim, Schleifmühle",7.9569859832,49.859073269499994,"de:7133:30537"
"6030426","Waldlaubersheim, Genheimer Straße",7.830888163299999,49.9281079895,"de:7133:30426"
"6030414","Langenlonsheim, Regionalschule",7.8966656004999995,49.8952431061,"de:7133:30414"
"6030424","Allenfeld, Feuerwehr",7.668099274,49.8675070687,"de:7133:30424"
"6030425","Waldlaubersheim, Rathaus",7.8309023048,49.928099141100006,"de:7133:30425"
"6030431","Wallhausen (Bad Kreuznach), Sportplatz",7.759303565,49.8905196239,"de:7133:30431"
"6030516","Feilbingert, Bingert",7.8026209343,49.7814909147,"de:7133:30516"
"6030518","Feilbingert, Markt",7.8067421254,49.7753834789,"de:7133:30518"
"6030517","Feilbingert, Friedhof",7.8043193015000005,49.7773635352,"de:7133:30517"
"6030017","Bad Kreuznach, Rheinstraße",7.8718599468,49.833856974099994,"de:7133:30017"
"6030317","Zotzenheim, Ort",7.9674305295000005,49.874091639,"de:7339:30317"
"6030344","Schöneberg (Hunsrück), Schule",7.7514801748,49.9213556237,"de:7133:30344"
"6030318","Biebelsheim, Ost",7.9419917692,49.87444681269999,"de:7133:30318"
"6030343","Schöneberg (Hunsrück), Abzw. Spabrücken",7.745871083899999,49.915334121899996,"de:7133:30343"
"6030324","Gutenberg (Bad Kreuznach), Kirche",7.7986858464,49.880513637199996,"de:7133:30324"
"6030319","Biebelsheim, Ortsmitte",7.938885614999999,49.8733485207,"de:7133:30319"
"6030327","Gutenberg (Bad Kreuznach), Nofs",7.7963032804,49.8817656556,"de:7133:30327"
"6030329","St. Katharinen (Bad Kreuznach), Ortsmitte",7.769138160200001,49.8671578909,"de:7133:30329"
"6030328","St. Katharinen (Bad Kreuznach), Abzw. Sommerloch",7.771048799600001,49.8686077239,"de:7133:30328"
"6030347","Dalberg (Bad Kreuznach), Kirche",7.7333206145,49.8963796437,"de:7133:30347"
"6030346","Dalberg (Bad Kreuznach), Ost",7.735485944,49.8971405303,"de:7133:30346"
"6030330","Braunweiler, Klosterweg",7.7482572416,49.866691644599996,"de:7133:30330"
"6030341","Wallhausen (Bad Kreuznach), Wiesenmühle",7.752031318599999,49.893516528700005,"de:7133:30341"
"6030321","Gensingen, Grundschule",7.9230386482999995,49.8978195766,"de:7339:30321"
"6030331","Braunweiler, Kirche",7.7472054536999995,49.8670219469,"de:7133:30331"
"6030340","Bad Kreuznach, Dr.-Jacob-Gelände",7.8722266133000005,49.8473830057,"de:7133:30340"
"6030332","Sommerloch, Zehnmorgen",7.760920555999999,49.8751892741,"de:7133:30332"
"6030333","Sommerloch, Tullius",7.7613988601,49.876614962299996,"de:7133:30333"
"6030335","Wallhausen (Bad Kreuznach), Siedlung",7.7774928299,49.8877637119,"de:7133:30335"
"6030338","Wallhausen (Bad Kreuznach), Schule",7.7687709529,49.888174954899995,"de:7133:30338"
"6030337","Wallhausen (Bad Kreuznach), Gh Stadt Bad Kreuznach",7.7685079225,49.8892151169,"de:7133:30337"
"6030336","Wallhausen (Bad Kreuznach), Traubenstraße",7.764444598599999,49.8870230595,"de:7133:30336"
"6030334","Wallhausen (Bad Kreuznach), Kindergarten",7.7623359465999995,49.886766813,"de:7133:30334"
"6030339","Wallhausen (Bad Kreuznach), Edeka",7.7642264141,49.889574175899995,"de:7133:30339"
"6030342","Hergenfeld, Jäckel",7.7610317583,49.904015570599995,"de:7133:30342"
"6030345","Schweppenhausen, Bahnhof",7.7960511876,49.9260344634,"de:7133:30345"
"6030320","Planig, Abzw. Biebelsheim",7.9185538197,49.864925048900005,"de:7133:30320"
"6030032","Bad Kreuznach, Königsberger Straße",7.871089485300001,49.831125199,"de:7133:30032"
"6008199","Bingen am Rhein, Stadtbahnhof",7.902727140300001,49.9697987589,"de:7339:8199"
"6030159","Waldlaubersheim, Ortsmitte",7.8307770001999994,49.9286732955,"de:7133:30159"
"6030174","Stromberg (Hunsrück), Bahnhof",7.7668299647,49.946874188200006,"de:7133:30174"
"6030172","Stromberg (Hunsrück), Löwenzeilermühle",7.7861128452,49.9385721286,"de:7133:30172"
"6030164","Schöneberg (Hunsrück), Gh Lang",7.7563575506,49.9223071043,"de:7133:30164"
"6030239","Winterburg, Halle",7.65234564,49.8597635623,"de:7133:30239"
"6030235","Entenpfuhl, Ort",7.595902327799999,49.8675904844,"de:7133:30235"
"6030161","Roth (Stromberg), Mitte",7.80061679,49.942975649800005,"de:7133:30161"
"6030225","Hüffelsheim, Kuckucksplatz",7.7976497821,49.8235807321,"de:7133:30225"
"6030259","Boos (Nahe), Bahnstraße",7.7194747938,49.7946464221,"de:7133:30259"
"6030169","Schweppenhausen, Sägewerk",7.7951087895,49.9314372088,"de:7133:30169"
"6030137","Bretzenheim (Bad Kreuznach), Zehn Morgen",7.893339715700001,49.8726891593,"de:7133:30137"
"6030258","Oberstreit, Ortsmitte",7.69621111,49.796679854699995,"de:7133:30258"
"6030260","Boos (Nahe), Ortsmitte",7.7167512746,49.7931147822,"de:7133:30260"
"6030175","Stromberg (Hunsrück), Wandesleben",7.7653601763,49.949322064899995,"de:7133:30175"
"6030227","Schloßböckelheim, Rotherhof",7.7545845433,49.816409809,"de:7133:30227"
"6030141","Langenlonsheim, Verbandsgemeinde",7.9006272398,49.894237771899995,"de:7133:30141"
"6030217","Rüdesheim (Bad Kreuznach), Friedhof",7.817812018900001,49.845384526699995,"de:7133:30217"
"6030072","Planig, Römerdorf",7.9139818404,49.8653588507,"de:7133:30072"
"6030230","Schloßböckelheim, Tal",7.7429732357,49.8092264773,"de:7133:30230"
"6030232","Schloßböckelheim, Schule",7.7462513419,49.810331916500004,"de:7133:30232"
"6030138","Bretzenheim (Bad Kreuznach), Haus Riedle",7.8960008795,49.8749532623,"de:7133:30138"
"6030142","Langenlonsheim, Kirche",7.9000770614,49.895787983299996,"de:7133:30142"
"6030218","Rüdesheim (Bad Kreuznach), Ortsmitte",7.813368755100001,49.845141343200005,"de:7133:30218"
"6030160","Genheim, Kirche",7.8188919712,49.939126205,"de:7339:30160"
"6030075","Planig, Kirche",7.9123620927,49.8625384984,"de:7133:30075"
"6030305","Rüdesheim (Bad Kreuznach), Grundschule",7.8107416474,49.8468137351,"de:7133:30305"
"6030188","Stromberg (Hunsrück), Schule",7.7818512434,49.944605314,"de:7133:30188"
"6030316","Welgesheim, Ort",7.961535325400001,49.881069897100005,"de:7339:30316"
"6030202","Schweppenhausen, Feuerwehr",7.7978846091000005,49.9262332924,"de:7133:30202"
"6030219","Rüdesheim (Bad Kreuznach), Abzw. Mandel",7.8071946244,49.845176902599995,"de:7133:30219"
"6030070","Planig, Mitte",7.9103690054,49.8614858323,"de:7133:30070"
"6030146","Guldental, Kleine Brücke",7.850932136,49.889323639900006,"de:7133:30146"
"6030143","Guldental, Tankstelle",7.8496853269,49.889670920200004,"de:7133:30143"
"6030264","Steinhardt, Post",7.6729266399,49.8049932108,"de:7133:30264"
"6030228","Schloßböckelheim, Schloß",7.7435361301,49.806265509599996,"de:7133:30228"
"6030173","Stromberg (Hunsrück), Mühle Weinzheimer",7.7785622086999995,49.942439895599996,"de:7133:30173"
"6030237","Winterbach (Bad Kreuznach), Kreuzung",7.6384660512,49.8745895878,"de:7133:30237"
"6030145","Guldental, Raiffeisen",7.844047765,49.89206041400001,"de:7133:30145"
"6030147","Guldental, Bahnhof",7.840762143699999,49.8938527869,"de:7133:30147"
"6030148","Guldental, Naheweinstraße",7.8362853431,49.8977100296,"de:7133:30148"
"6030091","Winzenheim, Dreieck",7.8723794536,49.8724962758,"de:7133:30091"
"6030252","Waldböckelheim, Friedhof",7.7250888872,49.816763551099996,"de:7133:30252"
"6030069","Planig, Bosenbergstraße",7.909685043900001,49.8585033994,"de:7133:30069"
"6030092","Winzenheim, Schlesienstraße",7.8699579989,49.8731290494,"de:7133:30092"
"6030125","Tiefenthal (Bad Kreuznach), Freyhof",7.8933577316,49.753639089400004,"de:7133:30125"
"6030168","Schweppenhausen, Schule",7.799978782,49.923782470199995,"de:7133:30168"
"6030306","Ingelheim-West, Binger Straße",8.032563757,49.972374111099995,"de:7339:30306"
"6030263","Bad Sobernheim, Hüttenbergstraße",7.6570932337,49.787269068,"de:7133:30263"
"6030167","Schweppenhausen, Bergstraße",7.800878755599999,49.9234321387,"de:7133:30167"
"6030166","Schweppenhausen, Laubsägewerk",7.799570559799999,49.9183477316,"de:7133:30166"
"6030124","Tiefenthal (Bad Kreuznach), Ort",7.9060010592,49.7603855595,"de:7133:30124"
"6030123","Hof Iben, Ort",7.9222444013999995,49.7745907917,"de:7133:30123"
"6030248","Waldböckelheim, Schule",7.7187013249,49.8155422714,"de:7133:30248"
"6030162","Waldalgesheim, Schule",7.828982352,49.9487138437,"de:7339:30162"
"6030083","Bad Kreuznach, Mercedes",7.9016733954,49.8585446903,"de:7133:30083"
"6030090","Winzenheim, Unter den Gärten",7.8704237242,49.869860878100006,"de:7133:30090"
"6030093","Winzenheim, Marktplatz",7.8665012346,49.8716297942,"de:7133:30093"
"6030106","Winzenheim, Marktstraße",7.8662047221,49.8712223031,"de:7133:30106"
"6030156","Windesheim, Ost",7.8213904021000005,49.9057863592,"de:7133:30156"
"6030201","Langenlonsheim, Weidenstraße",7.903428599600001,49.8995958897,"de:7133:30201"
"6030094","Winzenheim, Obere Gartenstraße",7.8629137898,49.8715587166,"de:7133:30094"
"6030107","Winzenheim, Am Kreuz",7.866386075,49.8694168929,"de:7133:30107"
"6030157","Windesheim, Abzw. Waldlaubersheim",7.8177830566,49.90870767,"de:7133:30157"
"6030261","Staudernheim, Abzw. Boos",7.6931879287000005,49.7810101566,"de:7133:30261"
"6030262","Staudernheim, Brücke",7.6914479324,49.7811703503,"de:7133:30262"
"6030117","Fürfeld (Bad Kreuznach), Thalermühle",7.910737018000001,49.7751216026,"de:7133:30117"
"6030095","Winzenheim, Honigberg",7.8599616853,49.87168258449999,"de:7133:30095"
"6030089","Winzenheim, Waldhilbersheimer Straße",7.8691135238,49.8663955819,"de:7133:30089"
"6030238","Winterburg, Ortsmitte",7.650524987999999,49.863212952699996,"de:7133:30238"
"6030116","Fürfeld (Bad Kreuznach), Ibener Straße",7.8949257259,49.7768600837,"de:7133:30116"
"6030127","Fürfeld (Bad Kreuznach), Steiger Weg",7.8884780133,49.7764927431,"de:7133:30127"
"6030082","Bad Kreuznach, Michelin",7.8849556383,49.8579805774,"de:7133:30082"
"6030115","Fürfeld (Bad Kreuznach), Turnhalle",7.8902711088,49.7782272196,"de:7133:30115"
"6030133","Bad Kreuznach, Rotlay Mühle",7.8755994197,49.8608302958,"de:7133:30133"
"6030122","Neu-Bamberg, Ev. Kirche",7.920793656500001,49.7930359442,"de:7133:30122"
"6030170","Schweppenhausen, Aumühle",7.7920767463,49.934049008799995,"de:7133:30170"
"6030088","Winzenheim, Waldalgesheimer Straße",7.8663988876,49.864112348999996,"de:7133:30088"
"6030280","Kirn (Nahe), Gymnasium",7.4526954628999995,49.7904211518,"de:7133:30280"
"6030199","Bosenheim, An der Pforte",7.9114801213,49.8479289074,"de:7133:30199"
"6030111","Bosenheim, Im Gärtchen",7.91887893,49.8459841379,"de:7133:30111"
"6030105","Winzenheim, Wendeplatz",7.851451329700001,49.8703668621,"de:7133:30105"
"6030315","Gensingen, Gesundheitsforum/Nahetal",7.9284341349,49.8936438203,"de:7339:30315"
"6030121","Neu-Bamberg, Mitte",7.921297943900001,49.797221472800004,"de:7133:30121"
"6030068","Bosenheim, Rheingaustraße",7.911579307399999,49.845987788500004,"de:7133:30068"
"6030067","Bosenheim, Mitte",7.9139323859,49.8452186427,"de:7133:30067"
"6030081","Bad Kreuznach, odd AG/Otto-Meffert-Straße",7.8842598789,49.8531637161,"de:7133:30081"
"6030064","Bad Kreuznach, Bosenheimer Kreisel",7.8945333252,49.8496387328,"de:7133:30064"
"6030066","Bosenheim, Parkstraße",7.915473299099999,49.8440822183,"de:7133:30066"
"6030080","Bad Kreuznach, Sandweg",7.8806245927,49.851609210999996,"de:7133:30080"
"6030296","Neu-Bamberg, Festplatz",7.9217240527,49.7974232394,"de:7133:30296"
"6030065","Bosenheim, Sportplatz",7.913346925999999,49.8421831999,"de:7133:30065"
"6030204","Breitenfelserhof, Ort",7.8304402566,49.8775115127,"de:7133:30204"
"6030061","Bad Kreuznach, Aldi Schwabenheimer Weg",7.886110153,49.848892805199995,"de:7133:30061"
"6030129","Neu-Bamberg, In der Lohe",7.9248631794,49.7999339176,"de:7133:30129"
"6030132","Bad Kreuznach, Güterbahnhof",7.867482068499999,49.855257829799996,"de:7133:30132"
"6030120","Neu-Bamberg, Bahnhof",7.9156739119,49.800270920200006,"de:7133:30120"
"6030063","Bad Kreuznach, Riegelgrube/Hela/Januschs",7.887046979199999,49.8474542512,"de:7133:30063"
"6030108","Bad Kreuznach, Büttenweg",7.86324004,49.856466075200004,"de:7133:30108"
"6030153","Breitenfelserhof, Abzw.",7.8179829647,49.8839935954,"de:7133:30153"
"6030079","Bad Kreuznach, Seitz-Werke",7.8762315993,49.849759539599994,"de:7133:30079"
"6030314","Gensingen, Bahnhofstraße",7.9273300114,49.895737485,"de:7339:30314"
"6030086","Bad Kreuznach, Otto-Hersing-Straße",7.862532704,49.854013592499996,"de:7133:30086"
"6030131","Bad Kreuznach, Pfingstwiese",7.8644245499,49.852206961700006,"de:7133:30131"
"6030062","Bad Kreuznach, Kaufland",7.8787950714,49.8465386049,"de:7133:30062"
"6030104","Bad Kreuznach, SZ Heidenmauer",7.873300370200001,49.848445388200005,"de:7133:30104"
"6030059","Bad Kreuznach, Tilgesbrunnen",7.8805403729,49.8456204024,"de:7133:30059"
"6030078","Bad Kreuznach, Heidenmauer",7.8727069948,49.8482508112,"de:7133:30078"
"6030057","Bad Kreuznach, Korellengarten",7.8828366302,49.8443208698,"de:7133:30057"
"6030085","Bad Kreuznach, Doktor-Geisenheyner-Straße",7.8618380492,49.8522085799,"de:7133:30085"
"6030215","Hargesheim, Alfred-Delp-Schule",7.8338130899000005,49.866864195999995,"de:7133:30215"
"6030071","Planig, Bahnhof",7.9163128024,49.8705953961,"de:7133:30071"
"6030056","Bad Kreuznach, Matthias-Grünewald-Straße",7.8849541313,49.842929663300005,"de:7133:30056"
"6030130","Bad Kreuznach, Brückes",7.8623489114,49.850586223200004,"de:7133:30130"
"6030114","Frei-Laubersheim, Sandhof",7.8955055788,49.7977788356,"de:7133:30114"
"6030077","Bad Kreuznach, Gensinger Straße",7.8692073351000005,49.8474704882,"de:7133:30077"
"6030053","Bad Kreuznach, Optische Werke",7.8751391879,49.8441026076,"de:7133:30053"
"6030054","Bad Kreuznach, Dürerstraße",7.8786331927,49.8427158684,"de:7133:30054"
"6030055","Bad Kreuznach, St.-Franziskus-Kirche",7.885165091199999,49.8404052226,"de:7133:30055"
"6030013","Bad Kreuznach, Hohe Bell",7.888447179300001,49.839142024699996,"de:7133:30013"
"6030074","Bad Kreuznach, AOK",7.8722675859999995,49.843229565,"de:7133:30074"
"6030195","Bad Kreuznach, Stadthaus",7.8592043156,49.848307584800004,"de:7133:30195"
"6030012","Bad Kreuznach, Weyroth",7.8896705603,49.837319581399996,"de:7133:30012"
"6030119","Frei-Laubersheim, Bahnstraße",7.904016031499999,49.7998106551,"de:7133:30119"
"6030096","Bad Kreuznach, Stadthaus/VFL-Halle",7.857605945,49.847689454,"de:7133:30096"
"6030200","Bad Kreuznach, Pfalzsprung",7.881286974299999,49.838569676700004,"de:7133:30200"
"6030313","Gensingen, Gh Adler",7.925882573000001,49.896362445799994,"de:7339:30313"
"6030046","Bad Kreuznach, Holzmarkt/Otto-Zimmer-Platz",7.8555312735,49.8478128544,"de:7133:30046"
"6030044","Bad Kreuznach, Stadtwerke",7.8608711812,49.8454198774,"de:7133:30044"
"6030152","Hargesheim, Tankstelle",7.8203953799,49.8672140197,"de:7133:30152"
"6030118","Frei-Laubersheim, Senger",7.899892158399999,49.7991242435,"de:7133:30118"
"6030150","Hargesheim, Mitte",7.827158931,49.8624814239,"de:7133:30150"
"6030158","Waldlaubersheim, Ost",7.8371224433,49.9277480685,"de:7133:30158"
"6030128","Bad Kreuznach, Dr. Martin-Luther-King-Schule",7.882856406799999,49.8368225703,"de:7133:30128"
"6030253","Waldböckelheim, Anlage",7.7208242384,49.8161861008,"de:7133:30253"
"6030113","Frei-Laubersheim, Backhauspforte",7.8974491998000005,49.799658482699996,"de:7133:30113"
"6030052","Bad Kreuznach, Lämmerbrücke",7.8674614629,49.8418520605,"de:7133:30052"
"6030051","Bad Kreuznach, Bourger Platz/Energieeck",7.8616121831,49.84406052160001,"de:7133:30051"
"6030002","Bad Kreuznach, Konrad-Frey-Halle",7.8698210988,49.8408231336,"de:7133:30002"
"6030011","Bad Kreuznach, Richard-Wagner-Straße",7.8857036956,49.8351147013,"de:7133:30011"
"6030005","Bad Kreuznach, Friedhof/Alzeyer Str.",7.8759669636,49.837780971,"de:7133:30005"
"6030076","Bad Kreuznach, Alzeyer Straße",7.87592506,49.8377895558,"de:7133:30076"
"6030047","Bad Kreuznach, Schlosspark",7.8500542007,49.84775867410001,"de:7133:30047"
"6030257","Waldböckelheim, Marienpforterhof",7.684381880899999,49.8077761691,"de:7133:30257"
"6030134","Bad Kreuznach, Weinbauschule",7.8469155438,49.848770465399994,"de:7133:30134"
"6030097","Bad Kreuznach, Salinenplatz/GALERIA Kaufhof",7.8618557262,49.841976999500005,"de:7133:30097"
"6030010","Bad Kreuznach, Im Ellenfeld",7.8821798904,49.8348110575,"de:7133:30010"
"6030001","Bad Kreuznach, Lina-Hilger-Gymnasium",7.8669143907,49.8396798848,"de:7133:30001"
"6030009","Bad Kreuznach, Gluckstraße",7.8856854109,49.8328847567,"de:7133:30009"
"6030149","Hargesheim, Sägewerk",7.8263545636,49.858364402099994,"de:7133:30149"
"6030006","Bad Kreuznach, Rewe Kreisel/Alzeyer Straße",7.8785557316000006,49.8346412011,"de:7133:30006"
"6030014","Bad Kreuznach, Ringstraße",7.8664236580999995,49.8386680962,"de:7133:30014"
"6030048","Bad Kreuznach, Krummer Kranz",7.8463205615,49.8468944193,"de:7133:30048"
"6030135","Bad Kreuznach, Spelzgrund",7.8411366301,49.848542033200005,"de:7133:30135"
"6030025","Bad Kreuznach, Waldemarstraße",7.8650217706,49.8379800585,"de:7133:30025"
"6030008","Bad Kreuznach, Ob. Richard-Wagner-Straße",7.884412982100001,49.831397997399996,"de:7133:30008"
"6030007","Bad Kreuznach, Studtstraße",7.8802145314,49.8326342543,"de:7133:30007"
"6030049","Bad Kreuznach, Agnesienberg",7.844770316700001,49.8460158503,"de:7133:30049"
"6030098","Bad Kreuznach, Badeallee/Kreisverwaltung",7.8583246519,49.8396046285,"de:7133:30098"
"6030015","Bad Kreuznach, Friedhof/Mannheimer Straße",7.8689983528,49.8355643649,"de:7133:30015"
"6030003","Bad Kreuznach, Aldi Alzeyer Str.",7.8817079017000005,49.831165148900006,"de:7133:30003"
"6030026","Bad Kreuznach, Diakonie",7.8631332739,49.837296225100005,"de:7133:30026"
"6030018","Bad Kreuznach, Raabestraße",7.8755239605,49.8329035504,"de:7133:30018"
"6030171","Stromberg (Hunsrück), Felsmühle",7.7889281965,49.9374057583,"de:7133:30171"
"6030112","Frei-Laubersheim, Mitte",7.8990778212,49.8013462936,"de:7133:30112"
"6030043","Bad Kreuznach, Darmstädter Hof",7.888825939299999,49.8280687392,"de:7133:30043"
"6030050","Bad Kreuznach, Agnesienberg/Schule",7.8421224267,49.845108323999995,"de:7133:30050"
"6030110","Frei-Laubersheim, Abzw.",7.9010770733,49.8032353972,"de:7133:30110"
"6030042","Bad Kreuznach, Uhlandstraße",7.880508439700001,49.83013759119999,"de:7133:30042"
"6030024","Bad Kreuznach, Kolbergerstraße",7.8732150554,49.8323686504,"de:7133:30024"
"6030016","Bad Kreuznach, Neufelder Weg",7.8697129871,49.8335303731,"de:7133:30016"
"6030251","Waldböckelheim, Ortsmitte",7.7165039977,49.816138354,"de:7133:30251"
"6030136","Bad Kreuznach, Völkerring",7.8357193367,49.8477325281,"de:7133:30136"
"6030236","Ippenschied, Ortsmitte",7.6313646118,49.8674210171,"de:7133:30236"
"6030022","Bad Kreuznach, Adalbert-Stifter-Straße",7.8782354787,49.829854886199996,"de:7133:30022"
"6030020","Bad Kreuznach, Wielandstraße",7.876835665400001,49.8302818961,"de:7133:30020"
"6030023","Bad Kreuznach, Kleiststraße",7.8744915712,49.8300703567,"de:7133:30023"
"6030241","Winterburg, Abzw. Allenfeld",7.653333044,49.859766042,"de:7133:30241"
"6030027","Bad Kreuznach, Berufsschule",7.859513171200001,49.8351747633,"de:7133:30027"
"6030311","Gensingen, Abzw. Bahnhof",7.9375670865000005,49.896676831,"de:7339:30311"
"6030099","Bad Kreuznach, Oranienpark",7.8536270229000005,49.8366092326,"de:7133:30099"
"6030031","Bad Kreuznach, St.-Wolfgang-Kirche",7.868228273800001,49.8310343718,"de:7133:30031"
"6030220","Weinsheim (Bad Kreuznach), Stangenberg",7.7873159767,49.839468208999996,"de:7133:30220"
"6030033","Bad Kreuznach, Kleistschule",7.8720160595,49.829533814899996,"de:7133:30033"
"6030139","Bretzenheim (Bad Kreuznach), Naheweinstraße",7.897998929100001,49.879467728399995,"de:7133:30139"
"6030028","Bad Kreuznach, St.-Franziska-Stift",7.859487216000001,49.8333223586,"de:7133:30028"
"6030030","Bad Kreuznach, Stettiner Straße",7.8652232533,49.8305554529,"de:7133:30030"
"6030205","Bad Kreuznach, Lohrer Mühle",7.8282664079,49.8460121086,"de:7133:30205"
"6030029","Bad Kreuznach, Im Schönefeld",7.8600876625,49.8314311575,"de:7133:30029"
"6030034","Bad Kreuznach, Doktor-Velten-Straße",7.869505752599999,49.828106769899996,"de:7133:30034"
"6030100","Bad Kreuznach, Moltkestraße",7.8524741683,49.8336307937,"de:7133:30100"
"6030272","Boos (Nahe), Abzw. Bahnhof",7.7289557781000005,49.8022853408,"de:7133:30272"
"6030035","Bad Kreuznach, August-Bechter-Straße",7.8672702564999994,49.8256304046,"de:7133:30035"
"6030216","Rüdesheim (Bad Kreuznach), Abzw. Hüffelsheim",7.8211305729000005,49.8449957313,"de:7133:30216"
"6030036","Bad Kreuznach, Hans-Klauer-Weg",7.866508517500001,49.8249216609,"de:7133:30036"
"6030101","Bad Kreuznach, Karlshalle",7.8491679185,49.830028591200005,"de:7133:30101"
"6030037","Bad Kreuznach, Jugendherberge",7.863243055800001,49.82371186940001,"de:7133:30037"
"6030038","Bad Kreuznach, Kuhberg",7.8640708002999995,49.822191505899994,"de:7133:30038"
"6030102","Bad Kreuznach, Salinental",7.8496947138,49.824810028600005,"de:7133:30102"
"6030039","Bad Kreuznach, Tierheim",7.8654354279,49.8191029595,"de:7133:30039"
"6030109","Bad Kreuznach, Theodorshalle",7.8513013346000005,49.8226950799,"de:7133:30109"
"6030040","Bad Kreuznach, Gut Rheingrafenhof",7.865239495700001,49.8150011282,"de:7133:30040"
"6030254","Waldböckelheim, Gemeindehaus",7.7192977727,49.8176887482,"de:7133:30254"
"6009125","Dorn-Dürkheim, Ort",8.269930823200001,49.7686161911,"de:7339:9125"
"6030221","Weinsheim (Bad Kreuznach), Ost",7.7731122073,49.8387523615,"de:7133:30221"
"6030222","Weinsheim (Bad Kreuznach), Ortsmitte",7.766587922699999,49.8372805424,"de:7133:30222"
"6030284","Griebelschied, Ort",7.3997358365000006,49.7989451438,"de:7134:30284"
"6030270","Heimberg (ü Kirn), Ort",7.4990817036,49.756729227099996,"de:7133:30270"
"6030223","Weinsheim (Bad Kreuznach), West",7.7625702809,49.8361947741,"de:7133:30223"
"6030203","Windesheim, Rosengarten",7.8114338051,49.9098745513,"de:7133:30203"
"6030269","Heimweiler, Gemeinschaftshaus",7.495456668399999,49.756367521,"de:7133:30269"
"6030206","Meddersheim, Meisenheimerstraße",7.6148883733,49.77562328409999,"de:7133:30206"
"6030194","Stromberg (Hunsrück), IGS",7.789542534900001,49.945692783199995,"de:7133:30194"
"6030165","Eckenroth, Haus Juliane",7.7817824791,49.9246717455,"de:7133:30165"
"6030271","Limbach (Kirn), Ort",7.5409010267,49.74136665300001,"de:7133:30271"
"6030265","Kirn (Nahe), Krebsweiler Straße",7.457227609599999,49.7736587719,"de:7133:30265"
"6030155","Windesheim, Rathaus",7.8160194333,49.905111293400005,"de:7133:30155"
"6030154","Windesheim, Ziegelhütte",7.812198512799999,49.8974389243,"de:7133:30154"
"6030268","Krebsweiler, Ort",7.486843878999999,49.755733877800004,"de:7133:30268"
"6030266","Heimweiler, Krebsweiler Mühlen",7.477774500400001,49.7612706601,"de:7133:30266"
"6030267","Heimweiler, Dr. Bingold",7.4814165489999995,49.7588727958,"de:7133:30267"
"6030300","Roxheim (Bad Kreuznach), Friedhof",7.8141089708,49.8649021643,"de:7133:30300"
"6030140","Langenlonsheim, Kloningersmühle",7.8996624012,49.888312605100005,"de:7133:30140"
"6030302","Roxheim (Bad Kreuznach), Birkenberghalle",7.808932957500001,49.86157639980001,"de:7133:30302"
"6030292","Becherbach (Kirn), Ort",7.4996639497999995,49.7410018901,"de:7133:30292"
"6030282","Bergen (Kirn), Gemeindehaus",7.4205300635,49.7814454803,"de:7134:30282"
"6030312","Gensingen, Handelshof",7.9260982453999995,49.9023253994,"de:7339:30312"
"6030301","Roxheim (Bad Kreuznach), Evangelische Kirche",7.8114783118,49.8644077041,"de:7133:30301"
"6030233","Schloßböckelheim, Abzw. Niederthäler Hof",7.7384233447,49.8046725027,"de:7133:30233"
"6030281","Bergen (Kirn), Post",7.4161483633,49.7808282159,"de:7134:30281"
"6030298","Meddersheim, Lohmühle",7.6142739553,49.7572378083,"de:7133:30298"
"6030304","Roxheim (Bad Kreuznach), Katholische Kirche",7.808707752199999,49.8645141441,"de:7133:30304"
"6030103","Ippesheim (KH), Gh. Stadt Bad Kreuznach",7.9205264124,49.878151100000004,"de:7133:30103"
"6030186","Daxweiler, Kirche",7.7519369757,49.9656947339,"de:7133:30186"
"6030214","Hundsbach (Bad Kreuznach), Ort",7.553396585200001,49.7242689316,"de:7133:30214"
"6030176","Dörrebach, Weinberger Hof",7.7505656606999995,49.94273520429999,"de:7133:30176"
"6030207","Bärweiler, Hottenmühle",7.6135414504,49.7508002843,"de:7133:30207"
"6030208","Bärweiler, Abzw.",7.6171789037,49.748299213399996,"de:7133:30208"
"6030209","Bärweiler, Denkmal",7.599634913099999,49.7417047126,"de:7133:30209"
"6030211","Abtweiler, Abzw.",7.633898429,49.7483446657,"de:7133:30211"
"6030187","Stromberger Neuhütte, Junkermühle",7.7426144473,49.9613234247,"de:7133:30187"
"6030210","Bärweiler, Ortseingang",7.6087042919000005,49.7433155057,"de:7133:30210"
"6030283","Berschweiler (b Kirn), Ort",7.3920242747,49.7713157964,"de:7134:30283"
"6030247","Burgsponheim, Ortsmitte",7.7158037395,49.833150772399996,"de:7133:30247"
"6030212","Lauschied, Ort",7.6207612866000005,49.740384617400004,"de:7133:30212"
"6030310","Grolsheim, Süd",7.916583985999999,49.9069841256,"de:7339:30310"
"6030242","Bockenau, Winterburger Straße",7.6747097907,49.837381715,"de:7133:30242"
"6030163","Neupfalz (Schönebg.), Forstamt",7.7320778215,49.9310622168,"de:7133:30163"
"6030243","Bockenau, Deutsches Haus",7.6803989258,49.837257787800006,"de:7133:30243"
"6009123","Hillesheim (Rheinhessen), Ort",8.2572187363,49.773849106200004,"de:7339:9123"
"6030185","Seibersbach, Autishof",7.7353289027,49.960120391100006,"de:7133:30185"
"6030273","Schweinschied, Ortsmitte",7.5762860279,49.700851227200005,"de:7133:30273"
"6030189","Stromberger Neuhütte, Schwesternhaus",7.7298915708000004,49.967082896,"de:7133:30189"
"6030178","Dörrebach, Süd",7.724778694299999,49.9432278783,"de:7133:30178"
"6030184","Seibersbach, Silbernagel",7.7244678371,49.9602802322,"de:7133:30184"
"6030276","Desloch, Feuerwehr",7.6284565703,49.718887835400004,"de:7133:30276"
"6030190","Stromberger Neuhütte, Ölmühle",7.7141350448,49.9761879763,"de:7133:30190"
"6030213","Desloch, Ort",7.6320738529,49.7189665637,"de:7133:30213"
"6030277","Jeckenbach, Ort",7.6080325495,49.7090684883,"de:7133:30277"
"6009120","Guntersblum, Bahnhof",8.3511092628,49.7915491149,"de:7339:9120"
"6030275","Löllbach, Langwiese",7.5989152273,49.6992209463,"de:7133:30275"
"6030274","Löllbach, Ort",7.5938700256,49.68910746,"de:7133:30274"
"6030286","Callbach, Abzw. Reiffelbach",7.694428943499999,49.7073768765,"de:7133:30286"
"6030244","Bockenau, Mainzer Straße",7.6810130949,49.8371658737,"de:7133:30244"
"6030290","Roth b Becherbach, Mitte",7.6745672457,49.6750343238,"de:7133:30290"
"6030287","Callbach, Gh Bernhard",7.6997292585,49.70306671110001,"de:7133:30287"
"6030291","Becherbach (Pfalz), Friedhof",7.680572906299999,49.6563558873,"de:7133:30291"
"6030073","Ippesheim (KH), Mitte",7.921016874799999,49.8779938267,"de:7133:30073"
"6030182","Seibersbach, Gh Linde",7.7161450436,49.9614202034,"de:7133:30182"
"6030181","Dörrebach, Nord",7.7167598803,49.946672906299995,"de:7133:30181"
"6030246","Sponheim, Haus Kiltz",7.72577027,49.843735340799995,"de:7133:30246"
"6030183","Seibersbach, Alte Schule",7.7188246126,49.961809454800004,"de:7133:30183"
"6030288","Schmittweiler Callb, Ortsmitte",7.704285563300001,49.69124923259999,"de:7133:30288"
"6030293","Becherbach (Pfalz), Kindergarten",7.680077400399999,49.6547048189,"de:7133:30293"
"6030180","Dörrebach, Ortsmitte",7.7203543743,49.945103227500006,"de:7133:30180"
"6030245","Bockenau, Friedhof",7.6813240924,49.8349306235,"de:7133:30245"
"6030308","Horrweiler, Süd",7.9609262031000005,49.8977874854,"de:7339:30308"
"6030278","Breitenheim, Ortseingang",7.627249087199999,49.697761880200005,"de:7133:30278"
"6030294","Gangloff, Kreuzung",7.7026429221,49.6654706751,"de:7133:30294"
"6030279","Breitenheim, Post",7.632613558,49.6987514303,"de:7133:30279"
"6030297","Becherbach (Pfalz), Römerhof",7.6915881943999995,49.6582521442,"de:7133:30297"
"6030303","Roxheim (Bad Kreuznach), Schauß Mühle",7.7866950743,49.866506726900006,"de:7133:30303"
"6030289","Reiffelbach, Linde",7.6863550107,49.6874957279,"de:7133:30289"
"6030309","Grolsheim, Ortsmitte",7.914685454300001,49.9096996077,"de:7339:30309"
"6030193","Seibersbach, Grundschule",7.720656678499999,49.964203266000005,"de:7133:30193"
"6008085","Oppenheim, Bahnhof",8.3582414717,49.8572128541,"de:7339:8085"
"6004861","Selzen, Ortseingang",8.2528871822,49.86506961520001,"de:7339:4861"
"6006241","Nieder-Olm, Selztalcenter",8.177335684700001,49.9140438057,"de:7339:6241"
"6006888","Selzen, Bahnhofstraße",8.2499843551,49.8647991443,"de:7339:6888"
"6005375","Nieder-Olm, Schulzentrum",8.1974232911,49.903350607700006,"de:7339:5375"
"6004862","Mommenheim (Rheinhessen), Abzw. Nierstein",8.265465367900001,49.8813063641,"de:7339:4862"
"6004864","Mommenheim (Rheinhessen), Hindenburgstraße",8.2663881393,49.8828496232,"de:7339:4864"
"6004865","Mommenheim (Rheinhessen), Bahnhofstraße",8.2725560315,49.8835178068,"de:7339:4865"
"6008191","Gau-Algesheim, Bahnhof",8.0161144841,49.9614199868,"de:7339:8191"
"6004863","Mommenheim (Rheinhessen), Denkmal",8.2652777103,49.8845058895,"de:7339:4863"
"6008005","Welgesheim, Bahnhof",7.9566634117,49.8785806566,"de:7339:8005"
"6008183","Bingen am Rhein, Hauptbahnhof",7.8835428336,49.968743692,"de:7339:8183"
"6008008","Nieder-Olm, Bahnhof",8.2046872492,49.90518977920001,"de:7339:8008"
"6005368","Nieder-Olm, Kirche",8.2029321303,49.91032943850001,"de:7339:5368"
"6004898","Dorn-Dürkheim, Bahnhof",8.2519414201,49.770353669600006,"de:7339:4898"
"6005635","Wolfsheim, Ringstraße",8.0391178775,49.8727206141,"de:7339:5635"
"6005639","Jugenheim (Rheinhessen), Gemeindehalle",8.080846039099999,49.8943130822,"de:7339:5639"
"6008184","Laubenheim (Nahe), Bahnhof",7.8972582026,49.9187149595,"de:7133:8184"
"6005369","Nieder-Olm, Gutenbergstraße",8.203243326599999,49.9159507906,"de:7339:5369"
"6005637","St Johann (Rheinhessen), Danziger Straße",8.0140036428,49.8667646914,"de:7339:5637"
"6005638","Sprendlingen (Rheinhessen), Gartenstraße",7.9910135453999995,49.859949684300005,"de:7339:5638"
"6004866","Lörzweiler, Ortseingang",8.2943024083,49.89797435170001,"de:7339:4866"
"6004867","Lörzweiler, Kirche",8.2986044034,49.89981655930001,"de:7339:4867"
"6004868","Lörzweiler, Rheinstraße",8.3020342198,49.9003856715,"de:7339:4868"
"6004899","Hillesheim (Rheinhessen), Abzw. Bahnhof",8.255364435499999,49.7707353391,"de:7339:4899"
"6008004","Sprendlingen (Rheinhessen), Bahnhof",7.9815320979,49.859111581899995,"de:7339:8004"
"6008196","Budenheim, Bahnhof",8.1739468395,50.0268256427,"de:7339:8196"
"6005633","Wolfsheim, Sender",8.0555923368,49.873979761300006,"de:7339:5633"
"6008083","Nackenheim, Bahnhof",8.3419350472,49.919238512899994,"de:7339:8083"
"6008179","Bretzenheim (Bad Kreuznach), Bahnhof",7.8982570256999995,49.8742374571,"de:7133:8179"
"6008194","Uhlerborn, Bahnhof",8.1429821191,50.0109396179,"de:7339:8194"
"6004871","Harxheim (Rheinhessen), Mitte",8.2645738046,49.904290073300004,"de:7339:4871"
"6004870","Harxheim (Rheinhessen), Weserstraße",8.2719855216,49.9038872672,"de:7339:4870"
"6008009","Klein-Winternheim, Bahnhof",8.207157691399999,49.9396321831,"de:7339:8009"
"6005365","Klein-Winternheim, Breitenstein",8.2096284087,49.935917891100004,"de:7339:5365"
"6008084","Nierstein, Bahnhof",8.3427137959,49.8721405236,"de:7339:8084"
"6004869","Harxheim (Rheinhessen), Friedenstraße",8.279433126499999,49.9048058478,"de:7339:4869"
"6004872","Gau-Bischofsheim, Küchelberg",8.2807585581,49.905542318500004,"de:7339:4872"
"6005370","Klein-Winternheim, Elxlebener Platz",8.211783177800001,49.94045486739999,"de:7339:5370"
"6004873","Gau-Bischofsheim, Lörzweiler Straße",8.2764274428,49.9103164443,"de:7339:4873"
"6004875","Gau-Bischofsheim, Abzweigung",8.2686922086,49.9136394822,"de:7339:4875"
"6008182","Münster-Sarmsheim, Bahnhof",7.8981825482,49.9478181271,"de:7339:8182"
"6008193","Heidesheim (Rhein), Bahnhof",8.1110958358,49.996971180299994,"de:7339:8193"
"6008180","Langenlonsheim, Bahnhof",7.899854220800001,49.901306282700006,"de:7133:8180"
"6008175","Hochstätten (Pfalz), Bahnhof",7.829123645199999,49.763815353,"de:7133:8175"
"6004874","Gau-Bischofsheim, Bahnhof",8.2799481394,49.9151034208,"de:7339:4874"
"6004876","Bodenheim (Rhein), Gaustraße",8.3038625221,49.92618200570001,"de:7339:4876"
"6008178","Bad Kreuznach, Bahnhof",7.8664630391,49.8423368107,"de:7133:8178"
"6008189","Bad Münster am Stein, Umgehungsstraße/Bf",7.8465017957,49.813548493,"de:7133:8189"
"6008176","Altenbamberg, Bahnhof",7.8307739679,49.7869661635,"de:7133:8176"
"6008177","Bad Münster am Stein, Bahnhof",7.8469499485,49.8134001027,"de:7133:8177"
"6008190","Gensingen, Bahnhof",7.9382215472999995,49.897932555299995,"de:7339:8190"
"6008192","Ingelheim, Bahnhof",8.0536073051,49.9762427728,"de:7339:8192"
"6004854","Hahnheim, Sonnenhof",8.2367749664,49.8556952167,"de:7339:4854"
"6004853","Undenheim, Bahnhof",8.2377787209,49.841379423,"de:7339:4853"
"6004856","Hahnheim, Wahlheimer Hof",8.2275752044,49.8675201857,"de:7339:4856"
"6004860","Selzen, Turnhalle",8.2561735335,49.8602896418,"de:7339:4860"
"6004857","Hahnheim, Volksbank",8.2377455153,49.8629571842,"de:7339:4857"
"6004858","Hahnheim, Bahnhofstraße",8.239722025099999,49.8602009836,"de:7339:4858"
"6004855","Hahnheim, Freier Platz",8.2351836034,49.8604858328,"de:7339:4855"
"17050130","Horbruch, Ort",7.2386691688,49.888897209,"de:7134:13237"
"15016885","Pracht (Westerw), Niederhausen",7.6409621355,50.768941585,"de:7133:16885"
"6004852","Undenheim, Staatsrat-Schwamb-Straße",8.2258718391,49.840041858,"de:7339:4852"
"6000644","Herrstein, Handwerkskammer",7.335148424400001,49.782983756499995,"de:7134:644"
"6004831","Köngernheim, Römer",8.2463660374,49.8452386516,"de:7339:4831"
"6004832","Harxheim (Rheinhessen), Kirche",8.2633356912,49.9042372671,"de:7339:4832"
"6003098","Ockenheim, Dreschplatz",7.9664288445,49.945137407,"de:7339:3098"
"6004851","Undenheim, Rathaus",8.2180780176,49.8397198596,"de:7339:4851"
"6004836","Gau-Bischofsheim, Bildstock",8.2725623341,49.9145988381,"de:7339:4836"
"6004849","Bodenheim (Rhein), Bahnhof",8.3116204953,49.9300403226,"de:7339:4849"
"15013237","Horbruch, Ort",7.2386691688,49.888897209,"de:7134:13237"
