"stop_id","stop_name","stop_lon","stop_lat","stop_code"
"24016865","Bocholt, Am Kreuzberg",6.63176,51.8379,"de:5554:16865"
"24034674","Raesfeld, Bonhoff",6.77745,51.75938,"de:5554:34674"
"24061552","Westerkappeln, Schoppmeyer",7.88539,52.35438,"de:5566:61552"
"24064145","Westerkappeln, Roter Berg",7.88154,52.36096,"de:5566:64145"
"24061547","Mettingen (Westf), Neuenkirchener Str.",7.79248,52.36028,"de:5566:61547"
"24061566","Hopsten, Teskersweg",7.59196,52.34479,"de:5566:61566"
"24061052","Recke, Don-Bosco-Schule",7.73485,52.35022,"de:5566:61052"
"24061628","Recke, Kreuzung Schulstraße",7.72991,52.35171,"de:5566:61628"
"24062237","Steinbeck (b Ibbenb), Abzw. Göskenkamp",7.71601,52.35387,"de:5566:62237"
"24035489","Raesfeld, Schloss",6.82981,51.76719,"de:5554:35489"
"24064422","Hopsten, Hörsteler Str.",7.59478,52.35775,"de:5566:64422"
"24063974","Recke, Neuenkirchener Str. 60",7.74798,52.36678,"de:5566:63974"
"24061425","Hopsten, Abzw. Hauernweg",7.61443,52.35861,"de:5566:61425"
"24035488","Raesfeld, Rathaus",6.83771,51.7687,"de:5554:35488"
"24064409","Hopsten, Feldkampstr.",7.59947,52.36828,"de:5566:64409"
"24068079","Hopsten, Wiesenstr.",7.64428,52.36967,"de:05566:68079"
"24035304","Raesfeld, Hoher Kamp",6.83811,51.77364,"de:5554:35304"
"24061378","Hopsten, Buschkampstr.",7.62327,52.38903,"de:5566:61378"
"24060019","Halverde, Kreienfeld",7.69115,52.39997,"de:5566:60019"
"24063962","Halverde, Am Leuchtturm",7.66862,52.41187,"de:5566:63962"
"24061432","Halverde, Kiebitzweg",7.66843,52.41465,"de:5566:61432"
"24063956","Schale, Bergstr.",7.59411,52.43046,"de:5566:63956"
"24060219","Schale, Eichholzstr.",7.61002,52.44768,"de:5566:60219"
"24061608","Schale, Hollensteder Str.",7.6508,52.4522,"de:5566:61608"
"24061535","Suderwick, Grenze",6.49864,51.86088,"de:5554:61535"
"24061536","Suderwick, Zur Mühle",6.50576,51.85983,"de:5554:61536"
"24035997","Isselburg, Schulzentrum",6.45678,51.83836,"de:5554:35997"
"24061534","Suderwick, Keminksweide",6.51305,51.86078,"de:5554:61534"
"24061607","Schale, Abzw. Listweg",7.6586,52.45842,"de:5566:61607"
"24061550","Schale, An den Eckelkämpen",7.63873,52.4638,"de:5566:61550"
"24061532","Suderwick, Berkendiek",6.52642,51.8615,"de:5554:61532"
"24063627","Westerbeck(W-kappel), Im Hook",7.82661,52.33583,"de:5566:63627"
"24061305","Westerbeck(W-kappel), Hügelstraße",7.83313,52.32456,"de:5566:61305"
"24061533","Suderwick, Karrenweg",6.53602,51.86195,"de:5554:61533"
"24064143","Westerkappeln, Schemme",7.89782,52.34201,"de:5566:64143"
"24061530","Spork (Bocholt), Sporker Ring",6.55025,51.86275,"de:5554:61530"
"24061529","Spork (Bocholt), Heidefeldweg",6.55679,51.86278,"de:5554:61529"
"24064142","Westerkappeln, Hollmann",7.88949,52.33958,"de:5566:64142"
"24060011","Wersen, RWE",7.94871,52.32917,"de:5566:60011"
"24065536","Westerkappeln, Einkaufszentrum",7.87192,52.31463,"de:5566:65536"
"24064214","Westerkappeln, Stadion",7.88373,52.31654,"de:5566:64214"
"24064140","Westerkappeln, Altenheim",7.88328,52.31053,"de:5566:64140"
"24063559","Ladbergen, B475",7.83461,52.11752,"de:5566:63559"
"24061394","Laggenbeck, Konermann",7.82446,52.26623,"de:5566:61394"
"24063626","Kattenvenne, Abzw. Mühlenweg",7.90685,52.11251,"de:5566:63626"
"24061513","Mussum, Pendeweg",6.54082,51.81243,"de:5554:61513"
"24063977","Westerkappeln, Zum Lotter Bf",7.90483,52.29171,"de:5566:63977"
"24063538","Lengerich (Westf), Abzw. Johannesstr.",7.82707,52.16475,"de:5566:63538"
"24064189","Lengerich (Westf), Abzw. Strohdamm",7.82225,52.17928,"de:5566:64189"
"24064108","Westerkappeln, Up Hinnau",7.91159,52.2869,"de:5566:64108"
"24061521","Barlo, Barlo Grenze",6.68382,51.91721,"de:5554:61521"
"24068700","Lengerich (Westf), Abzw. Schrotweg",7.8302,52.1896,"de:05566:68700"
"24061039","Lotte, Westerfeld",7.92647,52.2853,"de:5566:61039"
"24035340","Vardingholt, Zum Venn",6.73929,51.88667,"de:5554:35340"
"24061055","Lotte, Torfkuhlenweg",7.91506,52.28221,"de:5566:61055"
"24064204","Lotte, Riegeweg",7.90871,52.27805,"de:5566:64204"
"24063347","Lengerich (Westf), Auf der Laar",7.85524,52.18674,"de:5566:63347"
"24035339","Vardingholt, Reyerdingst.",6.72623,51.88129,"de:5554:35339"
"24061427","Lengerich (Westf), Niedermarker See",7.8811,52.1573,"de:5566:61427"
"24063551","Lotte, Kreisel Atterfeld",7.95545,52.27355,"de:5566:63551"
"24063539","Lengerich (Westf), Höster Str.",7.89639,52.15996,"de:5566:63539"
"24063624","Osterberg (Lotte), Schonhorst Esch",7.8981,52.24659,"de:5566:63624"
"24035338","Vardingholt, Kiwittstegge",6.71419,51.87731,"de:5554:35338"
"24061073","Lengerich (Westf), Galgenknapp",7.88017,52.18813,"de:5566:61073"
"24061612","Lotte, Zum Knüll",7.92586,52.23897,"de:5566:61612"
"24064064","Lienen/Kr Steinfurt, Holperdorp 51",7.97415,52.16825,"de:5566:64064"
"24060804","Dreierwalde, Hopstener Str.",7.51395,52.34227,"de:5566:60804"
"24064120","Altenberge (Westf), Rustemeier",7.52069,52.06369,"de:5566:64120"
"24060805","Dreierwalde, Schule",7.50434,52.33359,"de:5566:60805"
"24060806","Dreierwalde, Weikamp",7.50898,52.3298,"de:5566:60806"
"24035341","Vardingholt, Gronauer Str.",6.74947,51.87602,"de:5554:35341"
"24064121","Altenberge (Westf), Abzw. L555",7.53422,52.06838,"de:5566:64121"
"24060933","Oeding, Grenzweg",6.79698,51.9365,"de:5554:60933"
"24035337","Vardingholt, Möllenbeck",6.70254,51.87263,"de:5554:35337"
"24064115","Nordwalde, Borgmeier",7.50816,52.08328,"de:5566:64115"
"24035742","Brock (Ostbevern), Sendker",7.78521,52.07536,"de:5570:35742"
"24064114","Nordwalde, Iker",7.51315,52.083,"de:5566:64114"
"24060232","Westerode (Greven), Beckers Kreuz",7.56555,52.06614,"de:5566:60232"
"24060238","Westerode (Greven), Hof Bisping",7.5413,52.07329,"de:5566:60238"
"24060364","Oeding, Kantstr.",6.80641,51.94016,"de:5554:60364"
"24035127","Ostbevern, Abzw. Pumpmeier",7.74683,52.06625,"de:5570:35127"
"24035391","Brock (Ostbevern), Wonnemann",7.77534,52.07487,"de:5570:35391"
"24063385","Hopsten, Speckelnstr.",7.58214,52.34179,"de:5566:63385"
"24035336","Vardingholt, Burloer Diek",6.69141,51.86541,"de:5554:35336"
"24061546","Mettingen (Westf), Abzw. Breslauerring",7.77737,52.3279,"de:5566:61546"
"24064122","Greven (Westf), Abzw. Am Voßkotten",7.54573,52.075,"de:5566:64122"
"24064454","Oeding, Woorteweg",6.81461,51.93574,"de:5554:64454"
"24036795","Brock (Ostbevern), Höppener",7.77325,52.07976,"de:5570:36795"
"24060214","Gimbte, Averkamp",7.63722,52.06265,"de:5566:60214"
"24035335","Vardingholt, Spoler/Schule",6.69904,51.85976,"de:5554:35335"
"24060220","Gimbte, Kibitzheide",7.6435,52.06371,"de:5566:60220"
"24035343","Vardingholt, Boomstegge",6.70786,51.85782,"de:5554:35343"
"24064113","Nordwalde, Rausse",7.53582,52.08643,"de:5566:64113"
"24060224","Gimbte, Schlage",7.64028,52.06588,"de:5566:60224"
"24060223","Aldrup (Greven), Rickermann",7.61282,52.06982,"de:5566:60223"
"24063815","Uffeln (Ibbenbüren), Nordbahnstr.",7.63697,52.33741,"de:5566:63815"
"24035334","Vardingholt, Spolerstraße",6.70058,51.85271,"de:5554:35334"
"24060258","Guntrup, Brückenüberführung L587",7.66344,52.06984,"de:5566:60258"
"24061522","Barlo, Kortenhorn",6.64214,51.8693,"de:5554:61522"
"24064702","Greven (Westf), Gaststätte Zum Aatal",7.61298,52.07259,"de:5566:64702"
"24035344","Vardingholt, Kölner Str.",6.69238,51.85215,"de:5554:35344"
"24035331","Vardingholt, Im Schlatt",6.69222,51.85189,"de:5554:35331"
"24035333","Vardingholt, Wissingkamp",6.69741,51.85112,"de:5554:35333"
"24060201","Guntrup, Hof Wortkötter",7.67032,52.07151,"de:5566:60201"
"24064453","Oeding, Reithalle",6.8367,51.93846,"de:5554:64453"
"24035330","Vardingholt, Brukter Str.",6.69153,51.84922,"de:5554:35330"
"24035345","Rhede (Westf), Edith-Stein-Str.",6.69254,51.84769,"de:5554:35345"
"24061523","Giethorst, Vardinghorster Str.",6.64862,51.8578,"de:5554:61523"
"24037020","Brock (Ostbevern), Gebhardt",7.75675,52.08673,"de:5570:37020"
"24036796","Brock (Ostbevern), Korthorst",7.75411,52.08755,"de:5570:36796"
"24063523","Rodde (Rheine), Kanalhafen",7.50317,52.29323,"de:5566:63523"
"24064110","Nordwalde, Abzw. Mühlenbach",7.54751,52.09217,"de:5566:64110"
"24065523","Westerode (Greven), Siedlung Voßkotten",7.57942,52.0836,"de:5566:65523"
"24060190","Guntrup, Abzw. Laumann",7.66629,52.07619,"de:5566:60190"
"24036581","Rhede (Westf), Am Prinzenbusch",6.70991,51.84,"de:5554:36581"
"24062099","Rodde (Rheine), Hafenstr./Kreuzung",7.50886,52.29145,"de:5566:62099"
"24060847","Greven (Westf), Drees",7.61499,52.07961,"de:5566:60847"
"24064124","Greven (Westf), Abzw. Altenberge",7.55406,52.09414,"de:5566:64124"
"24061050","Schmedehausen, Hof Rosendahl",7.74138,52.08927,"de:5566:61050"
"24035432","Rhede (Westf), Rathaus",6.69429,51.83955,"de:5554:35432"
"24035326","Rhede (Westf), Friedhof",6.68474,51.84077,"de:5554:35326"
"24060246","Westerode (Greven), Holling",7.56271,52.09194,"de:5566:60246"
"24064253","Ladbergen, Abzw. Bremer Str.",7.78329,52.10581,"de:5566:64253"
"24036582","Rhede (Westf), Paßkamp",6.70796,51.83762,"de:5554:36582"
"24036580","Rhede (Westf), Beethovenstraße",6.71245,51.8374,"de:5554:36580"
"24060812","Hörstel, Postmeierweg",7.56588,52.31408,"de:5566:60812"
"24060236","Westerode (Greven), Gaststätte Wermelt",7.55912,52.09514,"de:5566:60236"
"24061279","Rodde (Rheine), Auf dem Brink",7.51416,52.29051,"de:5566:61279"
"24061484","Stenern, Otto-Kemper-Ring",6.62853,51.85693,"de:5554:61484"
"24036579","Rhede (Westf), Mühlenweg",6.71556,51.83627,"de:5554:36579"
"24065528","Guntrup, Hof Hellmann",7.65262,52.07995,"de:5566:65528"
"24060192","Guntrup, Hof Austmann",7.65942,52.08274,"de:5566:60192"
"24035329","Rhede (Westf), Bahnhofstraße",6.69764,51.83689,"de:5554:35329"
"24060136","Greven (Westf), Johannesschule",7.61241,52.0875,"de:5566:60136"
"24036806","Rhede (Westf), Rudolf-Diesel-Str.",6.69955,51.83593,"de:5554:36806"
"24060187","Schmedehausen, Landskrone Wemmer",7.70248,52.08807,"de:5566:60187"
"24060003","Greven (Westf), Bahnhof",7.59969,52.08997,"de:5566:60003"
"24060196","Guntrup, Hof Greweling",7.66835,52.08502,"de:5566:60196"
"24060783","Hörstel, Hagenort",7.58352,52.31216,"de:5566:60783"
"24060171","Schmedehausen, Hof Frische",7.72939,52.09444,"de:5566:60171"
"24036578","Rhede (Westf), Hohes Rott",6.7127,51.83461,"de:5554:36578"
"24060851","Südlohn, Tünte",6.85864,51.93852,"de:5554:60851"
"24062235","Ladbergen, Bremer Str.",7.76156,52.10508,"de:5566:62235"
"24061483","Stenern, von-Behring-Straße",6.62411,51.85557,"de:5554:61483"
"24064707","Greven (Westf), Kreisel/Grimmstr.",7.5902,52.09342,"de:5566:64707"
"24063554","Giethorst, Kurzer Weg",6.63077,51.85191,"de:5554:63554"
"24060119","Greven (Westf), Marienschulzentrum",7.6231,52.08818,"de:5566:60119"
"24060121","Greven (Westf), Westtor/Nordwalder Str.",7.59617,52.09268,"de:5566:60121"
"24060128","Greven (Westf), Westtor/Emsdettener Str.",7.5957,52.09341,"de:5566:60128"
"24060100","Greven (Westf), Abzw. Bahnhof",7.59933,52.09321,"de:5566:60100"
"24061482","Stenern, Virchow-Eck",6.62567,51.85317,"de:5554:61482"
"24060848","Emsdetten, Hof Lintel",7.50962,52.13101,"de:5566:60848"
"24061506","Bocholt, Bahia-Bad",6.61073,51.86186,"de:5554:61506"
"24060189","Schmedehausen, Spieker/Freese",7.69279,52.09017,"de:5566:60189"
"24035346","Rhede (Westf), Am Hüning",6.69603,51.83299,"de:5554:35346"
"24069001","Ibbenbüren, Kreuz Up Gadde",7.72367,52.31057,"de:05566:69001"
"24060115","Greven (Westf), Josefschulzentrum",7.59165,52.09525,"de:5566:60115"
"24035328","Rhede (Westf), Winkelhauser Esch",6.68955,51.83312,"de:5554:35328"
"24064587","Ladbergen, Hölter Feld 13",7.77031,52.11253,"de:5566:64587"
"24061517","Bocholt, Fissenstegge",6.62856,51.84956,"de:5554:61517"
"24035327","Rhede (Westf), Hallen-/Freibad",6.68633,51.83159,"de:5554:35327"
"24064151","Rodde (Rheine), Am Backhaus",7.53521,52.29053,"de:5566:64151"
"24064708","Greven (Westf), Stockkamp",7.58706,52.09703,"de:5566:64708"
"24060006","Greven (Westf), Ruhkamp",7.59367,52.09599,"de:5566:60006"
"24061505","Bocholt, Up de Welle",6.61417,51.85452,"de:5554:61505"
"24061518","Bocholt, Horststraße",6.62582,51.84799,"de:5554:61518"
"24035347","Rhede (Westf), Körnerstr./Wibbeltstr.",6.6952,51.82946,"de:5554:35347"
"24060105","Greven (Westf), Adlerapotheke",7.61298,52.09246,"de:5566:60105"
"24068096","Greven (Westf), Niederort",7.60786,52.09371,"de:05566:68096"
"24061481","Bocholt, Vereinsstraße",6.62701,51.84685,"de:5554:61481"
"24062097","Rodde (Rheine), Im Lied",7.52578,52.28299,"de:5566:62097"
"24061381","Bocholt, Domizil Diepenbrock",6.61746,51.85152,"de:5554:61381"
"24060009","Greven (Westf), Schründerring",7.58589,52.09921,"de:5566:60009"
"24060117","Greven (Westf), Wilhelmsplatz",7.60903,52.09451,"de:5566:60117"
"24062096","Rodde (Rheine), Bahnhof",7.52493,52.28134,"de:5566:62096"
"24060122","Greven (Westf), Grimmstr.",7.58987,52.09893,"de:5566:60122"
"24061486","Bocholt, Friedhof Nord",6.63488,51.84255,"de:5554:61486"
"24064945","Hemden, Genossenschaft",6.59043,51.86907,"de:5554:64945"
"24060016","Greven (Westf), Allensteiner",7.58194,52.10123,"de:5566:60016"
"24061006","Emsdetten, Hollingen 11",7.50332,52.14303,"de:5566:61006"
"24061487","Bocholt, Friedhof Süd",6.63675,51.84068,"de:5554:61487"
"24061480","Bocholt, Schwartzstraße",6.62516,51.84536,"de:5554:61480"
"24061072","Ladbergen, Schulenburger Weg 60",7.78918,52.12733,"de:5566:61072"
"24060169","Greven (Westf), Gerdemann",7.62918,52.09327,"de:5566:60169"
"24062095","Rodde (Rheine), Im Lau",7.53104,52.28334,"de:5566:62095"
"24061001","Emsdetten, Hollingen 18a",7.51096,52.13857,"de:5566:61001"
"24062236","Ladbergen, Wibbeler",7.74228,52.10667,"de:5566:62236"
"24062079","Emsdetten, Lintels Kotten",7.51516,52.13574,"de:5566:62079"
"24062107","Laggenbeck, Velper Str.",7.80783,52.26107,"de:5566:62107"
"24060127","Reckenfeld, Schwalbenweg",7.55275,52.11476,"de:5566:60127"
"24060108","Greven (Westf), Stettiner Str.",7.58669,52.10351,"de:5566:60108"
"24062109","Uffeln (Ibbenbüren), L501/Köster",7.63347,52.31073,"de:5566:62109"
"24061519","Bocholt, Kuckuckstraße",6.61914,51.84515,"de:5554:61519"
"24063505","Ladbergen, Telgter Damm 115",7.75531,52.1143,"de:5566:63505"
"24060104","Reckenfeld, Heimstättenwerg",7.54898,52.11801,"de:5566:60104"
"24060252","Greven (Westf), Gambrinus",7.61969,52.09819,"de:5566:60252"
"24062234","Ladbergen, Reithalle",7.77881,52.12669,"de:5566:62234"
"24035348","Krechting, Lönsweg/Krechting",6.69593,51.82346,"de:5554:35348"
"24061048","Schmedehausen, Schmedehausen, Postdamm",7.69003,52.09869,"de:5566:61048"
"24061285","Rodde (Rheine), Tovarstraße",7.53874,52.2818,"de:5566:61285"
"24060124","Reckenfeld, Rheinstr.",7.54785,52.12023,"de:5566:60124"
"24036694","Krommert, Vennebauer",6.74395,51.76993,"de:5554:36694"
"24064150","Greven (Westf), Polizei",7.61624,52.09981,"de:5566:64150"
"24060116","Reckenfeld, Kanalstr.",7.55168,52.11885,"de:5566:60116"
"24060780","Hörstel, Wiesenstr.",7.58367,52.29898,"de:5566:60780"
"24061488","Bocholt, Kreuzberg",6.63193,51.83732,"de:5554:61488"
"24060101","Reckenfeld, Adlerstr.",7.55593,52.11751,"de:5566:60101"
"24060174","Schmedehausen, Kirche",7.70137,52.1016,"de:5566:60174"
"24035468","Bocholt, St.-Josef-Gymnasium",6.61452,51.84457,"de:5554:35468"
"24061282","Rodde (Rheine), Edelbusch",7.53603,52.27778,"de:5566:61282"
"24061489","Bocholt, Tenkingstraße",6.63642,51.83474,"de:5554:61489"
"24063386","Ladbergen, Abzw. Feldweg",7.73683,52.11102,"de:5566:63386"
"24060255","Greven (Westf), Montargisstraße 21",7.61772,52.10146,"de:5566:60255"
"24060807","Hörstel, Schultenort",7.60895,52.30332,"de:5566:60807"
"24060103","Reckenfeld, Falkenstr.",7.55971,52.118,"de:5566:60103"
"24061485","Bocholt, Christuskirche",6.62375,51.83848,"de:5554:61485"
"24061038","Hörstel, Abzw. Herthaseestr.",7.59897,52.30062,"de:5566:61038"
"24060129","Reckenfeld, Wiesenstr.",7.53518,52.13123,"de:5566:60129"
"24060808","Hörstel, Oststr.",7.60431,52.30131,"de:5566:60808"
"24060113","Reckenfeld, Herbern-Abzweig",7.57973,52.11145,"de:5566:60113"
"24060126","Reckenfeld, Schule Grevener Str.",7.55811,52.11976,"de:5566:60126"
"24035349","Krechting, Proatecke",6.69691,51.82006,"de:5554:35349"
"24065524","Schmedehausen, Abzw. Schmedehausen",7.70105,52.10437,"de:5566:65524"
"24063916","Ladbergen, Ostbevener Damm",7.75952,52.12335,"de:5566:63916"
"24060256","Greven (Westf), Montargisstraße 63",7.61599,52.1045,"de:5566:60256"
"24061526","Holtwick (Bocholt), Hoves Esch",6.58672,51.8581,"de:5554:61526"
"24060000","Hörstel, Bahnhof",7.59188,52.29558,"de:5566:60000"
"24061528","Holtwick (Bocholt), Sperberstraße",6.59376,51.85251,"de:5554:61528"
"24061524","Holtwick (Bocholt), Adlerstraße",6.59815,51.84851,"de:5554:61524"
"24060836","Borken (Westf), Kreishaus",6.84396,51.85122,"de:5554:60836"
"24062662","Emsdetten, Sozialkaufhaus",7.50667,52.16338,"de:5566:62662"
"24061520","Bocholt, Am Schievegraben",6.60255,51.8454,"de:5554:61520"
"24060850","Emsdetten, Silberweg",7.5004,52.17457,"de:5566:60850"
"24061479","Bocholt, Bustreff",6.61332,51.83957,"de:5554:61479"
"24064452","Südlohn, Wienkamp",6.87494,51.96439,"de:5554:64452"
"24061515","Bocholt, Walramstraße",6.60318,51.84454,"de:5554:61515"
"24062087","Emsdetten, Abzw. Habichtshöhe",7.5049,52.16823,"de:5566:62087"
"24035350","Krommert, Renzelhook",6.71592,51.81643,"de:5554:35350"
"24061525","Holtwick (Bocholt), Aloysianastraße",6.58145,51.85901,"de:5554:61525"
"24060125","Reckenfeld, Schillerstr.",7.54365,52.13293,"de:5566:60125"
"24060007","Laggenbeck, Bahnhof",7.78164,52.26485,"de:5566:60007"
"24060834","Bocholt, Bahnhof",6.6201,51.83414,"de:5554:60834"
"24061490","Bocholt, Neutorplatz",6.61498,51.83597,"de:5554:61490"
"24061503","Bocholt, Windmühlenplatz",6.60413,51.8409,"de:5554:61503"
"24060835","Borken (Westf), Kettelerstr.",6.84723,51.84907,"de:5554:60835"
"24060106","Reckenfeld, Emsdettener Landstraße",7.54933,52.13005,"de:5566:60106"
"24060183","Schmedehausen, Hof Schulze Jochmaring",7.68274,52.10664,"de:5566:60183"
"24061496","Bocholt, Kinodrom",6.60906,51.83775,"de:5554:61496"
"24060809","Gravenhorst (Westf), Hüttenstr.",7.61158,52.2972,"de:5566:60809"
"24036805","Büngern, Büngerner Allee",6.68435,51.81565,"de:5554:36805"
"24063813","Dickenberg (Kr ST), Bergsiedlung 61",7.68643,52.29932,"de:5566:63813"
"24061033","Emsdetten, Josefschule",7.50424,52.17368,"de:5566:61033"
"24036728","Großemast, Bülten",6.84055,52.00059,"de:5554:36728"
"24062094","Rodde (Rheine), Klei",7.54757,52.27439,"de:5566:62094"
"24061053","Emsdetten, Brookweg",7.51156,52.1631,"de:5566:61053"
"24062663","Emsdetten, Abzw. Elsterstr.",7.51001,52.16639,"de:5566:62663"
"24061034","Emsdetten, Kattenbeck",7.50012,52.18814,"de:5566:61034"
"24060810","Gravenhorst (Westf), Schwarzer Weg",7.62038,52.29697,"de:5566:60810"
"24034815","Borken (Westf), Jeanette-Wolf-Str.",6.83585,51.83993,"de:5554:34815"
"24060114","Reckenfeld, Industriestr.",7.55352,52.13054,"de:5566:60114"
"24061497","Bocholt, Musikschule",6.61097,51.83454,"de:5554:61497"
"24065522","Schmedehausen, Airportallee",7.70175,52.11119,"de:5566:65522"
"24060109","Reckenfeld, Freilichtbühne",7.54204,52.13739,"de:5566:60109"
"24060782","Hörstel, Schulzentrum",7.59116,52.29064,"de:5566:60782"
"24060997","Emsdetten, Wildgrund",7.50576,52.17788,"de:5566:60997"
"24037027","Borken (Westf), EKZ Hovesath",6.83242,51.83611,"de:5554:37027"
"24060111","Reckenfeld, Grüner Grund",7.55621,52.13048,"de:5566:60111"
"24060995","Emsdetten, Matthias-Claudius-Str.",7.51448,52.16512,"de:5566:60995"
"24062081","Emsdetten, Eisengraben",7.50919,52.17422,"de:5566:62081"
"24062080","Emsdetten, Wältermann",7.52203,52.15679,"de:5566:62080"
"24061538","Bocholt, Friesenstr.",6.61564,51.83037,"de:5554:61538"
"24035359","Büngern, Büngerner Heide",6.68193,51.81265,"de:5554:35359"
"24060112","Reckenfeld, Grüner Grund/Ost",7.55813,52.13088,"de:5566:60112"
"24061035","Emsdetten, Schöpker",7.50525,52.18817,"de:5566:61035"
"24061491","Bocholt, Rheinstraße",6.6195,51.82819,"de:5554:61491"
"24063013","Hordt (Stadtlohn), Hilbert",6.86639,51.98734,"de:5554:63013"
"24062664","Emsdetten, Borghorster Str.",7.51278,52.17087,"de:5566:62664"
"24062661","Emsdetten, Haydnstr.",7.51837,52.16327,"de:5566:62661"
"24036803","Büngern, Abzw. Rhede",6.66001,51.81532,"de:5554:36803"
"24061498","Bocholt, Bayernstraße",6.60817,51.83231,"de:5554:61498"
"24062089","Elte, Süd",7.51335,52.23492,"de:5566:62089"
"24035358","Krommert, Vennweg",6.73466,51.80935,"de:5554:35358"
"24036651","Borken (Westf), Hovesath",6.83077,51.83212,"de:5554:36651"
"24036836","Borken (Westf), Nina-Winkel-Straße",6.83546,51.83439,"de:5554:36836"
"24061492","Bocholt, Büngerner Str.",6.63222,51.82191,"de:5554:61492"
"24034885","Greven (Westf), Siedlung Fiege",7.63429,52.11137,"de:5566:34885"
"24060998","Emsdetten, Mölljans",7.51688,52.16703,"de:5566:60998"
"24064330","Elte, Roßweg",7.5166,52.23694,"de:5566:64330"
"24061260","Elte, Wischmannstraße",7.52208,52.24386,"de:5566:61260"
"24035360","Büngern, Büngern Technik",6.6744,51.81138,"de:5554:35360"
"24061095","Emsdetten, Aechterhoek",7.50883,52.19066,"de:5566:61095"
"24060133","Herbern (Greven), Alte Schule",7.57956,52.1251,"de:5566:60133"
"24036818","Krommert, Raesfelder Weg",6.70986,51.80786,"de:5554:36818"
"24034864","Emsdetten, Neuenkirchener Str",7.5163,52.17253,"de:5566:34864"
"24037028","Borken (Westf), Hans-Böckler-Str.",6.84773,51.83845,"de:5554:37028"
"24060832","Borken (Westf), Wilbecke",6.85832,51.84495,"de:5554:60832"
"24060079","Bocholt, Sonnenscheinstr.",6.6261,51.82138,"de:5554:60079"
"24061032","Emsdetten, Frischholt",7.51259,52.1817,"de:5566:61032"
"24061499","Bocholt, Bruktererstraße",6.6033,51.83073,"de:5554:61499"
"24036840","Borken (Westf), Böltingsweg",6.83692,51.8318,"de:5554:36840"
"24037029","Borken (Westf), Windthorststr.",6.85203,51.83991,"de:5554:37029"
"24061046","Emsdetten, Weststr.",7.5165,52.17544,"de:5566:61046"
"24063827","Emsdetten, Steinkühler Stadion",7.51012,52.19557,"de:5566:63827"
"24062088","Elte, Dorfplatz",7.52368,52.24174,"de:5566:62088"
"24061045","Emsdetten, Bernhardstr.",7.51533,52.17888,"de:5566:61045"
"24060813","Bevergern, Saltenhof",7.56691,52.27399,"de:5566:60813"
"24062659","Emsdetten, Abzw. Schubertstr.",7.52616,52.16356,"de:5566:62659"
"24036838","Borken (Westf), Grütlohner Weg",6.84548,51.83529,"de:5554:36838"
"24060123","Reckenfeld, Postzentrum",7.55591,52.13884,"de:5566:60123"
"24061493","Biemenhorst, Mitte",6.627,51.81975,"de:5554:61493"
"24036837","Borken (Westf), Am Dyckhuser Baum",6.83765,51.83104,"de:5554:36837"
"24060831","Borken (Westf), Bahnhof",6.86588,51.84836,"de:5554:60831"
"24037024","Borken (Westf), Markt",6.86018,51.8439,"de:5554:37024"
"24062658","Emsdetten, ev. Friedhof",7.52897,52.16045,"de:5566:62658"
"24036835","Borken (Westf), Butenbomskamp",6.84056,51.8318,"de:5554:36835"
"24064999","Greven (Westf), Franz-Felix-See",7.69776,52.11802,"de:05566:64999"
"24036802","Bocholt, Haltermann",6.63527,51.81604,"de:5554:36802"
"24060785","Gravenhorst (Westf), Alte Schule",7.61941,52.28904,"de:5566:60785"
"24062665","Emsdetten, Zum Dorfgraben",7.52077,52.17244,"de:5566:62665"
"24060786","Reckenfeld, Abzw. Jägerklause",7.57289,52.13203,"de:5566:60786"
"24061494","Biemenhorst, Dannenkamp",6.62915,51.81769,"de:5554:61494"
"24036574","Krommert, Dreest",6.72288,51.80382,"de:5554:36574"
"24060077","Emsdetten, Abzw. Weststr.",7.52063,52.17563,"de:5566:60077"
"24061495","Biemenhorst, Ernst-Reuter-Straße",6.6273,51.81797,"de:5554:61495"
"24061703","Ladbergen, Zum Mühlenbach",7.75432,52.13969,"de:5566:61703"
"24060999","Emsdetten, Buckhoffschule",7.5243,52.17132,"de:5566:60999"
"24036722","Borken (Westf), St. Marien Hospital",6.86016,51.84155,"de:5554:36722"
"24036575","Krommert, Reithalle",6.7149,51.80324,"de:5554:36575"
"24064254","Ladbergen, Hötzel",7.71606,52.12484,"de:5566:64254"
"24060132","Herbern (Greven), Gaststätte Micheel",7.57489,52.13287,"de:5566:60132"
"24061502","Bocholt, Wiesenstraße",6.58847,51.83416,"de:5554:61502"
"24036839","Borken (Westf), Faktoreistraße",6.84889,51.83341,"de:5554:36839"
"24062652","Emsdetten, Feuerwache",7.52592,52.17248,"de:5566:62652"
"24061504","Lowick (Bocholt), Essing Esch",6.57976,51.8384,"de:5554:61504"
"24061029","Emsdetten, Dickmann",7.51723,52.19738,"de:5566:61029"
"24036714","Borken (Westf), Meisterstraße",6.85338,51.83524,"de:5554:36714"
"24060078","Emsdetten, Sautmann",7.52524,52.17705,"de:5566:60078"
"24062656","Emsdetten, Blumenstr.",7.54521,52.15493,"de:5566:62656"
"24061500","Bocholt, Arnikaweg",6.58651,51.83283,"de:5554:61500"
"24035357","Krommert, Am Essingholtbach",6.69203,51.80156,"de:5554:35357"
"24061501","Bocholt, Böggeringstraße",6.5839,51.83309,"de:5554:61501"
"24035356","Krommert, Brünener Str.",6.71022,51.80024,"de:5554:35356"
"24064135","Ibbenbüren, Alstedder Loh",7.74968,52.26396,"de:5566:64135"
"24035355","Krommert, Krommert/Schule",6.71469,51.79985,"de:5554:35355"
"24061087","Emsdetten, Marienhospital",7.5335,52.1694,"de:5566:61087"
"24065532","Hembergen, Berning",7.58667,52.13282,"de:5566:65532"
"24064293","Ibbenbüren, Kreisel Alstedder Loh",7.74895,52.26283,"de:5566:64293"
"24036841","Borken (Westf), Aquarius",6.86198,51.83695,"de:5554:36841"
"24061018","Ibbenbüren, Niedersachsenring",7.69339,52.28125,"de:5566:61018"
"24064499","Greven (Westf), Airportpark",7.69332,52.12555,"de:5566:64499"
"24065001","Emsdetten, Eichendorffstr.",7.52834,52.18471,"de:5566:65001"
"24062675","Emsdetten, Marienstr.",7.5351,52.17279,"de:5566:62675"
"24064252","Ibbenbüren, Wittenbrink",7.74217,52.26322,"de:5566:64252"
"24062655","Emsdetten, im Timpen",7.53793,52.17015,"de:5566:62655"
"24061377","Riesenbeck, Bergeshöveder Str. 223",7.60784,52.27659,"de:5566:61377"
"24062666","Emsdetten, Lindengrund",7.53244,52.18158,"de:5566:62666"
"24064255","Ladbergen, Tannenkamp",7.75989,52.15701,"de:5566:64255"
"24061507","Mussum, Öwerhook",6.6195,51.81362,"de:5554:61507"
"24060155","Hüttrup, Naturfreundehaus",7.66063,52.12492,"de:5566:60155"
"24063907","Mussum, Bürgerzentrum",6.61536,51.81459,"de:5554:63907"
"24065000","Emsdetten, Kleine Schweiz",7.53086,52.18855,"de:5566:65000"
"24064196","Riesenbeck, Kanalstr. 140",7.60681,52.27427,"de:5566:64196"
"24061508","Mussum, Im Winkel",6.6169,51.81291,"de:5554:61508"
"24062650","Emsdetten, Birkenweg",7.55303,52.16046,"de:5566:62650"
"24061587","Vreden, Am Stadtpark",6.81692,52.03325,"de:5554:61587"
"24061509","Mussum, In den Gärten",6.61447,51.81272,"de:5554:61509"
"24062233","Ibbenbüren, Brockwiesenstr.",7.69727,52.27544,"de:5566:62233"
"24035354","Krommert, Transformator",6.72645,51.79458,"de:5554:35354"
"24064901","Mussum, Wachtelschlag",6.59618,51.81879,"de:5554:64901"
"24060148","Hüttrup, Frühere Schule",7.66946,52.12802,"de:5566:60148"
"24061516","Mussum, Zum Waldschlößchen",6.61119,51.81149,"de:5554:61516"
"24060161","Pentrup, Tierheim",7.62058,52.13116,"de:5566:60161"
"24061085","Emsdetten, Konenhoek",7.54091,52.17841,"de:5566:61085"
"24062676","Ladbergen, Saerbecker Str. 32",7.71773,52.13884,"de:5566:62676"
"24062198","Ibbenbüren, Langenpool 231",7.74805,52.25204,"de:5566:62198"
"24060792","Riesenbeck, Abzw. Kanalstr.",7.61295,52.2724,"de:5566:60792"
"24061512","Mussum, Hardtstraße",6.60017,51.81423,"de:5554:61512"
"24063317","Ladbergen, Autohof",7.73494,52.14722,"de:5566:63317"
"24061586","Vreden, Gymnasium",6.81643,52.03798,"de:5554:61586"
"24060135","Hembergen, Hof Isfort-Robert",7.59408,52.14119,"de:5566:60135"
"24060784","Riesenbeck, Bergeshöveder",7.61554,52.27168,"de:5566:60784"
"24061510","Mussum, Grüner Weg",6.60568,51.81115,"de:5554:61510"
"24060803","Bevergern, Kösters",7.60618,52.26876,"de:5566:60803"
"24062108","Ibbenbüren, Ecke Tecklenburger Damm",7.7477,52.24825,"de:5566:62108"
"24063955","Ladbergen, Waldseestr. 65",7.72499,52.14546,"de:5566:63955"
"24060801","Riesenbeck, Nienkamp 80",7.6024,52.266,"de:5566:60801"
"24061511","Mussum, Mozartstraße",6.60129,51.81177,"de:5554:61511"
"24063917","Ladbergen, Waldseestr.",7.72856,52.15046,"de:5566:63917"
"24060800","Riesenbeck, Kreisverkehr",7.61494,52.26612,"de:5566:60800"
"24065531","Pentrup, Alte Schule",7.63415,52.1378,"de:5566:65531"
"24060791","Riesenbeck, Schöne Aussicht",7.63119,52.26829,"de:5566:60791"
"24061392","Sinningen Abspliß, Grundschule",7.55143,52.19032,"de:5566:61392"
"24065529","Hüttrup, Segelflugplatz",7.68024,52.13954,"de:5566:65529"
"24061379","Riesenbeck, Westring",7.61294,52.26227,"de:5566:61379"
"24061384","Veltrup (Emsdetten), Veltrup 2/3",7.55593,52.21424,"de:5566:61384"
"24061385","Veltrup (Emsdetten), Veltrup 12",7.55649,52.20752,"de:5566:61385"
"24060790","Riesenbeck, Am Teutohang",7.6431,52.26385,"de:5566:60790"
"24036577","Krommert, Linnhövel",6.72561,51.78755,"de:5554:36577"
"24061037","Brochterbeck, Feuerwehrhaus",7.74827,52.22124,"de:5566:61037"
"24036576","Krommert, Venderstiege",6.71338,51.78715,"de:5554:36576"
"24061011","Emsdetten, Sandhügel 31",7.59813,52.15913,"de:5566:61011"
"24061008","Emsdetten, Hilgenbrink",7.61145,52.15368,"de:5566:61008"
"24060766","Riesenbeck, Rählmann",7.59932,52.24712,"de:5566:60766"
"24060796","Riesenbeck, Nagels Damm",7.61348,52.25167,"de:5566:60796"
"24061585","Vreden, Krankenhaus Nord",6.81416,52.04689,"de:5554:61585"
"24061386","Saerbeck, Sinningen 71",7.56916,52.19141,"de:5566:61386"
"24061387","Saerbeck, Glanemann",7.57068,52.19001,"de:5566:61387"
"24061075","Saerbeck, Westladbergen 54",7.6764,52.15073,"de:5566:61075"
"24064183","Saerbeck, Bering",7.69201,52.15405,"de:5566:64183"
"24061103","Veltrup (Emsdetten), Veltrup 7-9",7.56877,52.20781,"de:5566:61103"
"24060789","Birgte, Abzw. Brumleystr.",7.65664,52.25644,"de:5566:60789"
"24063975","Brochterbeck, Schützenhof",7.74228,52.20881,"de:5566:63975"
"24061465","Saerbeck, Sinningen 87",7.57002,52.20359,"de:5566:61465"
"24061391","Saerbeck, Feldkamp",7.5806,52.17951,"de:5566:61391"
"24061575","Doemern, Reithalle",6.85777,52.04393,"de:05554:61575"
"24060797","Riesenbeck, Eschweg",7.61828,52.2494,"de:5566:60797"
"24062230","Saerbeck, Puckert",7.5762,52.18961,"de:5566:62230"
"24060793","Birgte, Brumleystr. 92",7.66717,52.25321,"de:5566:60793"
"24060799","Riesenbeck, Lager Wall",7.6284,52.25016,"de:5566:60799"
"24060798","Riesenbeck, Abzweig Eschweg",7.62554,52.24861,"de:5566:60798"
"24060788","Birgte, Alte Birgter Str.",7.6523,52.25161,"de:5566:60788"
"24061390","Saerbeck, Kreuzung",7.58583,52.18482,"de:5566:61390"
"24068500","Ladbergen, Abzw. Am Kanal",7.71241,52.17839,"de:05566:68500"
"24060794","Birgte, St.-Bonifatius-Schule",7.64905,52.24494,"de:5566:60794"
"24063016","Dörenthe, NaturaGart",7.67996,52.24203,"de:05566:63016"
"24064082","Eversum, Freizeitpark",7.31811,51.7043,"de:5558:64082"
"24060787","Birgte, Im Hoek",7.66292,52.24444,"de:5566:60787"
"24060714","Eversum, Zur Kiefer",7.3299,51.70098,"de:5558:60714"
"24064365","Olfen (Kr Coesfeld), Eversumer Heide",7.33527,51.70484,"de:5558:64365"
"24064489","Olfen (Kr Coesfeld), Zur Tanne",7.33471,51.70017,"de:5558:64489"
"24063315","Brochterbeck, Mühlenbach",7.71446,52.22237,"de:5566:63315"
"24063105","Kökelsum, Heidekrug",7.32981,51.73813,"de:5558:63105"
"24060802","Riesenbeck, Lager Damm",7.59984,52.22406,"de:5566:60802"
"24062657","Saerbeck, Seniorenzentrum",7.63099,52.17142,"de:5566:62657"
"24064184","Saerbeck, Sportzentrum",7.64155,52.17422,"de:5566:64184"
"24064007","Saerbeck, Riesenbecker Str. 51",7.6405,52.19875,"de:5566:64007"
"24064304","Keitlinghausen, Lütke-Dörhoff",8.14245,51.78991,"de:5570:64304"
"24064210","Oelde (Kr Warendorf), Lüringweg",8.13439,51.80456,"de:5570:64210"
"24065132","Ahmenhorst, Druffel",8.12503,51.81093,"de:5570:65132"
"24061003","Stromberg (Westf), Wappelhorst",8.24765,51.78709,"de:5570:61003"
"24064523","Stromberg (Westf), Freibad",8.19908,51.79727,"de:5570:64523"
"24064126","Oelde (Kr Warendorf), Vier-Jahreszeiten-Park",8.14398,51.81994,"de:5570:64126"
"24063564","Olfen (Kr Coesfeld), Geiping",7.42521,51.71919,"de:5558:63564"
"24064266","Stromberg (Westf), Linzel",8.24321,51.79324,"de:5570:64266"
"24060375","Oelde (Kr Warendorf), Thomas-Morus-Gymnasium",8.15085,51.82277,"de:5570:60375"
"24065133","Oelde (Kr Warendorf), Michael-Keller-Str.",8.15591,51.82199,"de:5570:65133"
"24060376","Oelde (Kr Warendorf), Von-Ketteler-Schule",8.14114,51.83376,"de:5570:60376"
"24064290","Oelde (Kr Warendorf), Döinghaus",8.16606,51.82331,"de:5570:64290"
"24061372","Oelde (Kr Warendorf), Am Landhagen",8.14184,51.84649,"de:5570:61372"
"24064897","Lette (Oelde), St.-Josef-Str.",8.1588,51.87724,"de:5570:64897"
"24064611","Olfen (Kr Coesfeld), Vosskamp",7.40851,51.72359,"de:5558:64611"
"24036749","Oester/Kr Warendorf, Harsewinkler Damm",8.14379,51.93318,"de:5570:36749"
"24064898","Lette (Oelde), Pfarrer-Laumann-Platz",8.16107,51.88456,"de:5570:64898"
"24060380","Lette (Oelde), Fürst-Bentheim-Str.",8.16245,51.88555,"de:5570:60380"
"24064263","Altendiestedde, Zum Berg",8.13956,51.73998,"de:5570:64263"
"24061311","Wadersloh, Am Haarstrang",8.22734,51.76098,"de:5570:61311"
"24061313","Diestedde, Tecklenborg",8.13621,51.72555,"de:5570:61313"
"24064324","Diestedde, Ramesohl",8.1414,51.72656,"de:5570:64324"
"24064076","Olfen (Kr Coesfeld), Zum Steverstrand",7.39229,51.70859,"de:5558:64076"
"24064264","Diestedde, Westhues",8.15567,51.73299,"de:5570:64264"
"24068062","Olfen (Kr Coesfeld), Schlosserstr.",7.39224,51.70429,"de:05558:68062"
"24064994","Diestedde, Friedhofstr.",8.17144,51.73898,"de:5570:64994"
"24064520","Wadersloh, Eichendorffstr.",8.17002,51.73668,"de:5570:64520"
"24064073","Olfen (Kr Coesfeld), Friedhof Ost",7.3866,51.71248,"de:5558:64073"
"24064522","Wadersloh, Baumhoer",8.22896,51.75417,"de:5570:64522"
"24063794","Wadersloh, Große Wienker",8.20104,51.74496,"de:5570:63794"
"24064521","Wadersloh, Waldstr.",8.17797,51.7367,"de:5570:64521"
"24064088","Olfen (Kr Coesfeld), Steveraue",7.38651,51.71971,"de:5558:64088"
"24064072","Olfen (Kr Coesfeld), Christuskirche",7.38363,51.71064,"de:5558:64072"
"24065135","Wadersloh, Bücker",8.21866,51.74674,"de:5570:65135"
"24064070","Olfen (Kr Coesfeld), Im Selken",7.38335,51.70847,"de:5558:64070"
"24064077","Olfen (Kr Coesfeld), Otto-Hahn-Str.",7.38509,51.70331,"de:5558:64077"
"24064133","Diestedde, Beckmann",8.15552,51.71472,"de:5570:64133"
"24062241","Diestedde, Neitemeier",8.15486,51.71188,"de:5570:62241"
"24064071","Olfen (Kr Coesfeld), KITA St. Vitus",7.38222,51.70971,"de:5558:64071"
"24064425","Wadersloh, Kleingartenanlage",8.25576,51.74155,"de:5570:64425"
"24064519","Wadersloh, Mozartstr.",8.24706,51.73941,"de:5570:64519"
"24064067","Olfen (Kr Coesfeld), St. Vitus Stift",7.38221,51.70678,"de:5558:64067"
"24060044","Rechede, Rechede 1",7.3856,51.72208,"de:5558:60044"
"24064306","Olfen (Kr Coesfeld), Leohaus",7.38156,51.70868,"de:5558:64306"
"24060013","Wadersloh, Krummer Weg",8.25986,51.73884,"de:5570:60013"
"24064998","Wadersloh, Rathaus",8.24803,51.73573,"de:5570:64998"
"24064973","Wadersloh, Meerweg",8.25677,51.73188,"de:5570:64973"
"24061601","Winkelhorst, Winkelhorst, Morfeld",8.18741,51.70665,"de:5570:61601"
"24064084","Vinnum, Campingplatz",7.43786,51.68668,"de:5558:64084"
"24061306","Wadersloh, Vechtel",8.22647,51.71886,"de:5570:61306"
"24064078","Olfen (Kr Coesfeld), Gottlieb-Daimler-Str.",7.3824,51.70089,"de:5558:64078"
"24064211","Liesborn, Kastanienplatz",8.26066,51.71191,"de:5570:64211"
"24064069","Olfen (Kr Coesfeld), Nordwall",7.37915,51.70904,"de:5558:64069"
"24063919","Liesborn, Abzw. Osthusen",8.26535,51.70375,"de:5570:63919"
"24064065","Olfen (Kr Coesfeld), Kirche",7.3797,51.70611,"de:5558:64065"
"24064066","Olfen (Kr Coesfeld), Markt",7.3792,51.70756,"de:5558:64066"
"24064068","Olfen (Kr Coesfeld), Wasserburg",7.3804,51.70355,"de:5558:64068"
"24065141","Göttingen (Westf), Luster-Haggeney",8.20899,51.68349,"de:5570:65141"
"24063920","Liesborn, Boombachweg",8.28074,51.69365,"de:5570:63920"
"24064213","Brockhausen (Ahlen), Rüsing",7.81753,51.78142,"de:5570:64213"
"24037031","Ostbevern, Spahn II",7.82418,52.05892,"de:5570:37031"
"24064589","Borbein, Linnenkamp",7.81647,51.79106,"de:5570:64589"
"24036545","Lehmbrock, Frönd",7.81682,52.04262,"de:5570:36545"
"24063012","Borbein, Große Huntrup",7.81358,51.80398,"de:5570:63012"
"24060901","Ahlen (Westf), Abzw. Im Seebrock",7.88196,51.78157,"de:5570:60901"
"24035308","Ostbevern, Grevener Damm",7.82955,52.04235,"de:5570:35308"
"24065145","Borbein, Wiggers",7.82986,51.80255,"de:5570:65145"
"24060879","Ahlen (Westf), Denkhoff",7.90084,51.78277,"de:5570:60879"
"24060900","Ahlen (Westf), Halene",7.88273,51.78669,"de:5570:60900"
"24064079","Olfen (Kr Coesfeld), Haus Rena",7.37363,51.70715,"de:5558:64079"
"24064983","Oelde (Kr Warendorf), Carl-Zeiss-Str./Oelde",8.11942,51.81064,"de:5570:64983"
"24035213","Ostbevern, Jäger",7.81796,52.03121,"de:5570:35213"
"24064075","Olfen (Kr Coesfeld), DRK-Regenbogen",7.37158,51.71344,"de:5558:64075"
"24060422","Olfen (Kr Coesfeld), Reddemann",7.38082,51.69269,"de:5558:60422"
"24060930","Ahlen (Westf), Naber",7.88461,51.78938,"de:5570:60930"
"24064186","Ostbevern, Buchenstr.",7.84248,52.03935,"de:5570:64186"
"24060899","Ahlen (Westf), Lentrup",7.88339,51.79173,"de:5570:60899"
"24060715","Vinnum, Borker Landweg",7.44464,51.68237,"de:5558:60715"
"24064074","Olfen (Kr Coesfeld), Rasselbande",7.37102,51.70141,"de:5558:64074"
"24067791","Borbein, Wißling",7.85872,51.79927,"de:5570:67791"
"24064340","Vinnum, Dortland",7.39774,51.6811,"de:5558:64340"
"24064185","Ostbevern, Wischhausstr.",7.85289,52.04019,"de:5570:64185"
"24060897","Ahlen (Westf), Halene-Kampen",7.88035,51.7958,"de:5570:60897"
"24061660","Olfen (Kr Coesfeld), Niewind",7.37355,51.72834,"de:5558:61660"
"24060878","Ahlen (Westf), Wasserturm (Guissen)",7.9033,51.79227,"de:5570:60878"
"24060896","Ahlen (Westf), Am Galgenberg",7.91146,51.79083,"de:5570:60896"
"24060321","Ahlen (Westf), Limbrock",7.88004,51.80024,"de:5570:60321"
"24036848","Füchtorf, Friedhof",8.03585,52.04698,"de:5570:36848"
"24060876","Vorhelm, Bahnhof",7.96449,51.79036,"de:5570:60876"
"24068035","Tetekum, Tüllinghofer Heide",7.44004,51.7448,"de:5558:68035"
"24061461","Olfen (Kr Coesfeld), Sternbusch",7.36485,51.71767,"de:5558:61461"
"24061471","Vinnum, Kindergarten",7.41313,51.6753,"de:5558:61471"
"24060935","Ahlen (Westf), Kampen",7.8792,51.80276,"de:5570:60935"
"24060892","Vorhelm, Kästnerstr.",7.95789,51.79192,"de:5570:60892"
"24036700","Vorhelm, Tophinke",7.93139,51.79403,"de:5570:36700"
"24035974","Vorhelm, Abzweig Alte Ladestraße",7.96291,51.79284,"de:5570:35974"
"24064257","Vinnum, Mengelkamp",7.4177,51.67386,"de:5558:64257"
"24060881","Vorhelm, Haarbachstr.",7.95908,51.79349,"de:5570:60881"
"24060064","Olfen (Kr Coesfeld), Buxkämper",7.37652,51.686,"de:5558:60064"
"24060939","Ahlen (Westf), Steltig",7.89741,51.80217,"de:5570:60939"
"24060877","Ahlen (Westf), Warendorfer Str.",7.90637,51.80289,"de:5570:60877"
"24036794","Isendorf (Ahlen), Ostkamp",7.92518,51.80128,"de:5570:36794"
"24036699","Vorhelm, Fährenkemper",7.93226,51.8008,"de:5570:36699"
"24061433","Sendenhorst, Friedhof",7.81686,51.84295,"de:5570:61433"
"24060893","Vorhelm, Schäringerfeld",7.96917,51.8,"de:5570:60893"
"24035206","Vorhelm, Kindergarten St. Marien",7.94843,51.80369,"de:5570:35206"
"24060894","Vorhelm, Wibbelt-Kapelle",7.97007,51.80361,"de:5570:60894"
"24036655","Vorhelm, Uhlenkamp",7.93459,51.80634,"de:5570:36655"
"24060352","Vorhelm, Hellbachhalle",7.93478,51.80675,"de:5570:60352"
"24060420","Olfen (Kr Coesfeld), Alter Postweg",7.35722,51.71327,"de:5558:60420"
"24064080","Kökelsum, Bauerncafe",7.36133,51.72659,"de:5558:64080"
"24064993","Sendenhorst, Stofferskamp",7.8367,51.84026,"de:5570:64993"
"24062242","Ennigerloh, Wiegard",8.0604,51.82472,"de:5570:62242"
"24064711","Ennigerloh, Schniederkötter",8.03885,51.8197,"de:5570:64711"
"24060906","Sendenhorst, Hardt 17",7.87019,51.83262,"de:5570:60906"
"24060955","Sendenhorst, Arens",7.87788,51.82971,"de:5570:60955"
"24063713","Ennigerloh, Pionierstr.",8.01081,51.82512,"de:5570:63713"
"24064187","Milte, Schuckenberg",7.95465,52.02054,"de:5570:64187"
"24061373","Alverskirchen, Averbeck",7.81627,51.91635,"de:5570:61373"
"24064081","Kökelsum, Füchtelner Mühle",7.35466,51.72276,"de:5558:64081"
"24035317","Vechtrup, Frye",7.85287,51.98335,"de:5570:35317"
"24063922","Alverskirchen, Esselmann",7.82999,51.88352,"de:5570:63922"
"24064407","Alverskirchen, Spliethoff",7.82009,51.90435,"de:5570:64407"
"24035258","Beelen, Bahnhof",8.11643,51.92952,"de:5570:35258"
"24064131","Ennigerloh, Clara-Schumann-Str.",8.04023,51.84371,"de:5570:64131"
"24060445","Enniger, Künne",7.96905,51.83235,"de:5570:60445"
"24035109","Sassenberg, Düsbergstraße",8.0427,51.99764,"de:5570:35109"
"24061308","Enniger, Schulze Zumhülsen",7.88565,51.85017,"de:5570:61308"
"24061309","Ennigerloh, Abzw. Hoher Weg",8.01444,51.84266,"de:5570:61309"
"24061371","Everswinkel, Sportpark Wester",7.83309,51.9221,"de:5570:61371"
"24063973","Ennigerloh, Zum Buddenbaum",8.00632,51.84329,"de:5570:63973"
"24064083","Olfen (Kr Coesfeld), Rauschenburg",7.3631,51.6812,"de:5558:64083"
"24064427","Lüdinghausen, Pieper",7.45184,51.75421,"de:5558:64427"
"24060442","Lüdinghausen, Katharinenstr.",7.44904,51.7561,"de:5558:60442"
"24035106","Raestrup (Telgte), Kraftfahrer Kapelle",7.86004,51.96675,"de:5570:35106"
"24063972","Beesen, Bettmann",7.99488,51.84399,"de:5570:63972"
"24065542","Raestrup (Telgte), Bahnübergang",7.86618,51.96599,"de:05570:65542"
"24068076","Raestrup (Telgte), Abzw. Müssingen 77",7.86595,51.96475,"de:05570:68076"
"24062239","Everswinkel, Auf dem Knapp",7.84596,51.91821,"de:5570:62239"
"24035320","Sassenberg, Christian-Rath-Straße",8.03787,51.98373,"de:5570:35320"
"24060428","Lüdinghausen, Ackerrain",7.45276,51.75683,"de:5558:60428"
"24062238","Everswinkel, Möllenkamp",7.84773,51.92061,"de:5570:62238"
"24064212","Everswinkel, Hoetmarer Str.",7.84824,51.92165,"de:5570:64212"
"24062240","Everswinkel, Bergstr.",7.84879,51.92417,"de:5570:62240"
"24060429","Lüdinghausen, Kleefeld",7.45235,51.75883,"de:5558:60429"
"24064394","Seppenrade, An den Kämpen",7.3926,51.75922,"de:5558:64394"
"24068029","Seppenrade, Ev. Kirche",7.39598,51.76019,"de:5558:68029"
"24063096","Everswinkel, Deckenbrock",7.85717,51.9421,"de:5570:63096"
"24061316","Ennigerloh, Amselweg",8.02686,51.86171,"de:5570:61316"
"24061310","Ennigerloh, Weppel",8.00526,51.85587,"de:5570:61310"
"24065147","Westkirchen, Domhoffstr. 53",8.07172,51.89991,"de:5570:65147"
"24061023","Westkirchen, Drees",8.05742,51.88655,"de:5570:61023"
"24063325","Ennigerloh, Auf der Heide",7.9858,51.85956,"de:5570:63325"
"24065134","Everswinkel, Webbeler",7.86864,51.9104,"de:5570:65134"
"24064393","Seppenrade, Spiekerkamp",7.38865,51.76,"de:5558:64393"
"24060430","Lüdinghausen, An den Eichen",7.44685,51.76201,"de:5558:60430"
"24068070","Warendorf, Haltepunkt Einen-Müssingen",7.8946,51.96138,"de:5570:68070"
"24064948","Westkirchen, Sportplatz",8.04357,51.88634,"de:5570:64948"
"24064947","Westkirchen, Handweiser",8.04059,51.88729,"de:5570:64947"
"24061022","Westkirchen, Laukötter",8.02178,51.88326,"de:5570:61022"
"24064395","Seppenrade, Alter Berg",7.39922,51.76381,"de:5558:64395"
"24060951","Seppenrade, Rosengarten",7.39574,51.7632,"de:5558:60951"
"24063331","Westkirchen, Linnemann",7.98146,51.8735,"de:5570:63331"
"24063971","Westkirchen, Voßmar",8.00857,51.8814,"de:5570:63971"
"24064995","Westkirchen, Holtrup",8.03475,51.89985,"de:5570:64995"
"24061312","Westkirchen, Büttrup 10",7.98847,51.87904,"de:5570:61312"
"24064953","Warendorf, Landratsbüsche",8.02914,51.92667,"de:5570:64953"
"24060702","Neuwarendorf, Austermann",7.93353,51.95107,"de:5570:60702"
"24036520","Warendorf, Lohwall",7.99202,51.95433,"de:5570:36520"
"24064265","Westkirchen, Burholt",8.02264,51.91554,"de:5570:64265"
"24064391","Seppenrade, Am Hüwel/Stadtion",7.41313,51.76727,"de:5558:64391"
"24064127","Warendorf, Stadtgraben",7.98682,51.95,"de:5570:64127"
"24062005","Warendorf, Schulzentrum/Hallenbad",7.97652,51.94734,"de:5570:62005"
"24060402","Reckelsum, Abzw. Dagge",7.35369,51.7495,"de:5558:60402"
"24061603","Warendorf, Im Grünen Grund",7.97993,51.9428,"de:5570:61603"
"24061602","Warendorf, Hansering",7.97559,51.94305,"de:5570:61602"
"24060432","Lüdinghausen, Strucks Kuh",7.44371,51.76673,"de:5558:60432"
"24064392","Seppenrade, Kermessenkamp",7.39453,51.76585,"de:5558:64392"
"24064971","Freckenhorst, Lembeck",7.94878,51.90637,"de:5570:64971"
"24063367","Brockhausen (Ahlen), Beckamp",7.81051,51.78302,"de:5570:63367"
"24064118","Altenberge (Westf), Lindenhof",7.50657,52.05868,"de:5566:64118"
"24063698","Lüdinghausen, St.Marien-Hospital",7.44641,51.76758,"de:5558:63698"
"24064119","Altenberge (Westf), Klei",7.51525,52.06183,"de:5566:64119"
"24061068","Ottmarsbocholt, Aschoff",7.5511,51.78519,"de:5558:61068"
"24060433","Lüdinghausen, Friedhof",7.44986,51.76772,"de:5558:60433"
"24064390","Lüdinghausen, Freiheit Wolfsberg",7.44466,51.76895,"de:5558:64390"
"24060436","Lüdinghausen, Gesundheitsamt",7.44094,51.76952,"de:5558:60436"
"24035392","Lehmbrock, Laarmann",7.80367,52.03782,"de:5570:35392"
"24060259","Greven (Westf), Einmündung Flothdamm",7.58011,52.06127,"de:5566:60259"
"24060233","Greven (Westf), Floth Eilers",7.5742,52.05933,"de:5566:60233"
"24060234","Greven (Westf), Eimermacher",7.56996,52.05781,"de:5566:60234"
"24060211","Aldrup (Greven), Aldruper Brink/Wartehalle",7.61241,52.06117,"de:5566:60211"
"24060216","Gimbte, Gimbte Dorf",7.64238,52.06115,"de:5566:60216"
"24060435","Lüdinghausen, Rathaus",7.44258,51.77098,"de:5558:60435"
"24060059","Forsthövel, Lohmann",7.67916,51.78461,"de:5558:60059"
"24061568","Ascheberg (Westf), Bahnhofsweg",7.61522,51.78667,"de:5558:61568"
"24065527","Guntrup, Holtmann",7.70048,52.05658,"de:5566:65527"
"24060425","Lüdinghausen, Klutenseebad",7.42721,51.77249,"de:5558:60425"
"24068008","Lüdinghausen, Das neu (e) Haus",7.44735,51.77067,"de:5558:68008"
"24064400","Lüdinghausen, Margeritenring",7.45356,51.76966,"de:5558:64400"
"24060400","Ascheberg (Westf), Riemann",7.57718,51.79403,"de:5558:60400"
"24060264","Drensteinfurt, Altenheim",7.74209,51.79594,"de:5570:60264"
"24060208","Gimbte, Abzw. Gelmer",7.6415,52.05736,"de:5566:60208"
"24035209","Westbevern, Riehenhaar",7.78076,52.03348,"de:5570:35209"
"24035315","Westbevern, Krumme Reck",7.78039,52.03289,"de:5570:35315"
"24060434","Lüdinghausen, Steverbett Hotel",7.44359,51.77264,"de:5558:60434"
"24060418","Ascheberg (Westf), Lüdinghauser Str",7.60189,51.79234,"de:5558:60418"
"24047748","Münster (Westf), Im Brook",7.5901,52.04934,"de:5515:47748"
"24061473","Drensteinfurt, Eickendorferweg",7.7452,51.80019,"de:5570:61473"
"24064230","Drensteinfurt, Bahnhof",7.73384,51.79842,"de:5570:64230"
"24047747","Münster (Westf), Sprakeler Heide",7.59497,52.04668,"de:5515:47747"
"24060034","Lüdinghausen, Klosterstr.",7.44526,51.77397,"de:5558:60034"
"24048511","Münster (Westf), Uhlenbrock",7.55387,52.035,"de:5515:48511"
"24060404","Ottmarsbocholt, Baumeister",7.55624,51.8089,"de:5558:60404"
"24064441","Emkum, Schlinger",7.35557,51.7613,"de:5558:64441"
"24035215","Westbevern, Schule",7.78144,52.02424,"de:5570:35215"
"24064017","Westbevern, Liedke",7.77173,52.02562,"de:5570:64017"
"24060217","Gimbte, Große Laxen",7.62773,52.04636,"de:5566:60217"
"24061567","Ascheberg (Westf), Steinfurter Straße",7.64346,51.79725,"de:5558:61567"
"24047738","Münster (Westf), Hölterne Schluse",7.59307,52.0399,"de:5515:47738"
"24064345","Ascheberg (Westf), Brüggemann",7.64763,51.79798,"de:5558:64345"
"24046751","Münster (Westf), Hangkamp",7.62239,52.04399,"de:5515:46751"
"24060417","Seppenrade, Abzw. Homann",7.37401,51.77079,"de:5558:60417"
"24062004","Osterbauerschaft/Asb, Kofoth",7.67691,51.79901,"de:5558:62004"
"24034850","Westbevern, Mersch",7.78076,52.01875,"de:5570:34850"
"24065526","Guntrup, Tennenhof",7.69278,52.0431,"de:5566:65526"
"24046742","Münster (Westf), Sprakel Bahnhof",7.61982,52.04141,"de:5515:46742"
"24046750","Münster (Westf), Sprakel Nienberger Str.",7.6139,52.04023,"de:5515:46750"
"24046745","Münster (Westf), Sprakel Nord",7.62287,52.04124,"de:5515:46745"
"24036572","Vadrup, Mitte",7.74531,52.02954,"de:5570:36572"
"24047728","Münster (Westf), Hölkenbusch",7.59463,52.03657,"de:5515:47728"
"24064366","Ascheberg (Westf), Hof Fallenberg",7.67646,51.80191,"de:5558:64366"
"24063689","Ottmarsbocholt, Dillenbaum",7.55133,51.82016,"de:5558:63689"
"24068019","Ascheberg (Westf), Bomholt",7.61723,51.804,"de:5558:68019"
"24064442","Emkum, Feldmann",7.35156,51.76867,"de:5558:64442"
"24061565","Lüdinghausen, Nelly-Sachs-Str.",7.45595,51.78013,"de:5558:61565"
"24063090","Lüdinghausen, Westrup Alte Schule",7.4899,51.77027,"de:5558:63090"
"24045581","Münster (Westf), Middendorf",7.52739,52.01056,"de:5515:45581"
"24046765","Münster (Westf), Sprakel-Mitte",7.61976,52.03711,"de:5515:46765"
"24047718","Münster (Westf), Langenhorster Stiege",7.59635,52.03271,"de:5515:47718"
"24048521","Münster (Westf), Häger Bahnhof",7.56219,52.02189,"de:5515:48521"
"24060911","Sendenhorst, Brock 6/19",7.78334,51.83755,"de:5570:60911"
"24046781","Münster (Westf), Schlusenweg",7.61989,52.03357,"de:5515:46781"
"24067707","Davensberg, Edeka Elbers",7.5935,51.81632,"de:5558:67707"
"24046775","Münster (Westf), Haselstiege",7.62087,52.03232,"de:5515:46775"
"24046786","Münster (Westf), P&R Sprakel",7.62041,52.03164,"de:5515:46786"
"24062124","Davensberg, Bahnhof",7.59828,51.81745,"de:5558:62124"
"24065148","Sendenhorst, Dünnewald",7.81098,51.8669,"de:5570:65148"
"24035197","Rinkerode, Beckamp",7.68379,51.81412,"de:5570:35197"
"24046301","Münster (Westf), Gelmer",7.67648,52.03022,"de:5515:46301"
"24063178","Senden (Westf), Schulze-Tomberge",7.51671,51.85593,"de:5558:63178"
"24046281","Münster (Westf), Gelmerheide",7.67343,52.02947,"de:5515:46281"
"24045571","Münster (Westf), Einingweg",7.54359,52.00454,"de:5515:45571"
"24046930","Münster (Westf), Hannaschweg",7.54187,52.00348,"de:5515:46930"
"24047708","Münster (Westf), Kleiheide",7.6005,52.0238,"de:5515:47708"
"24046791","Münster (Westf), Ashölterweg",7.61839,52.02674,"de:5515:46791"
"24061472","Senden (Westf), Dorfbauerschaft 110",7.53245,51.84678,"de:5558:61472"
"24046265","Münster (Westf), Westerheide",7.6769,52.02828,"de:5515:46265"
"24046261","Münster (Westf), Alfersheide",7.67336,52.02735,"de:5515:46261"
"24060411","Senden (Westf), Kuhlmann",7.51616,51.86191,"de:5558:60411"
"24046263","Münster (Westf), Schornheide",7.67382,52.02643,"de:5515:46263"
"24046931","Münster (Westf), Feldstiege",7.54597,52.00138,"de:5515:46931"
"24045461","Münster (Westf), Nienberge Gewerbegebiet",7.5495,52.00236,"de:5515:45461"
"24048531","Münster (Westf), Vollmer",7.55792,52.00626,"de:5515:48531"
"24048641","Münster (Westf), Burg Hülshoff",7.50661,51.96935,"de:5515:48641"
"24035475","Gescher, Fabrikstraße",7.01227,51.95612,"de:5554:35475"
"24062190","Goxel, Dieker",7.08964,51.92168,"de:5558:62190"
"24046271","Münster (Westf), Zur Eckernheide",7.67086,52.02455,"de:5515:46271"
"24046921","Münster (Westf), Sporthalle Nienberge",7.55029,51.9998,"de:5515:46921"
"24046807","Münster (Westf), Heidegrund",7.60365,52.01691,"de:5515:46807"
"24046381","Münster (Westf), Rieselfelder",7.66643,52.02195,"de:5515:46381"
"24046919","Münster (Westf), Sessendrupweg",7.55292,51.9993,"de:5515:46919"
"24046722","Münster (Westf), Goesenweg",7.55038,51.99714,"de:5515:46722"
"24046941","Münster (Westf), Von-Schonebeck-Ring",7.55289,51.99797,"de:5515:46941"
"24042475","Münster (Westf), Verth",7.72819,52.01044,"de:5515:42475"
"24046731","Münster (Westf), Alhardstraße",7.54831,51.99504,"de:5515:46731"
"24060409","Stevede, Heubachbrücke",7.07163,51.89091,"de:5558:60409"
"24045411","Münster (Westf), Hägerstraße",7.55772,51.9998,"de:5515:45411"
"24062194","Senden (Westf), Pötter",7.52679,51.86428,"de:5558:62194"
"24046970","Münster (Westf), Isolde-Kurz-Str.",7.54838,51.99373,"de:5515:46970"
"24046241","Münster (Westf), Oelhafen",7.6679,52.01946,"de:5515:46241"
"24035256","Telgte/Kr Warendorf, Gärtnereien",7.75092,52.00036,"de:5570:35256"
"24042320","Münster (Westf), Waldfriedhof Lauheide",7.75072,52.00011,"de:5515:42320"
"24035756","Telgte/Kr Warendorf, Johannes-Kepler-Weg",7.78367,51.97963,"de:5570:35756"
"24046950","Münster (Westf), Hermann-Hesse-Str.",7.55298,51.99565,"de:5515:46950"
"24046631","Münster (Westf), Haus Hülshoff",7.52311,51.97417,"de:5515:46631"
"24036162","Telgte/Kr Warendorf, Hans-Geiger-Straße",7.77048,51.98895,"de:5570:36162"
"24036685","Telgte/Kr Warendorf, Bahnhof Süd",7.78077,51.98097,"de:5570:36685"
"24047018","Münster (Westf), Brookweg",7.50807,51.95294,"de:5515:47018"
"24046101","Münster (Westf), Schonebeck",7.54256,51.98776,"de:5515:46101"
"24061438","Alverskirchen, P&R-Platz",7.81102,51.92841,"de:5570:61438"
"24064259","Goxel, Stegemann",7.10488,51.92563,"de:5558:64259"
"24035540","Eickenbeck, Altendorf",7.68545,51.82814,"de:5570:35540"
"24042321","Münster (Westf), Lauheide",7.73802,52.00286,"de:5515:42321"
"24036161","Telgte/Kr Warendorf, Kiebitzpohl Süd",7.77078,51.98594,"de:5570:36161"
"24045401","Münster (Westf), Nienberge ehemalige Post",7.56287,51.99769,"de:5515:45401"
"24046231","Münster (Westf), Overeskenhoek",7.66997,52.01633,"de:5515:46231"
"24063099","Velen, Brook",7.00495,51.87587,"de:5554:63099"
"24062186","Stevede, Mitte",7.08873,51.88794,"de:5558:62186"
"24048151","Münster (Westf), Haus Ruhr",7.51009,51.89462,"de:5515:48151"
"24046961","Münster (Westf), Stefan-Zweig-Str.",7.55295,51.99141,"de:5515:46961"
"24064605","Stevede, Weitenberg",7.07324,51.87947,"de:5558:64605"
"24042240","Münster (Westf), Fachklinik Hornheide",7.70728,52.01053,"de:5515:42240"
"24042480","Münster (Westf), Handorf Kaserne West",7.72336,52.00613,"de:5515:42480"
"24063098","Velen, Rexing",6.94843,51.92955,"de:5554:63098"
"24064284","Gescher, Liebigstr.",6.98331,51.96494,"de:5554:64284"
"24062195","Senden (Westf), Feldkamp",7.53372,51.86875,"de:5558:62195"
"24065146","Alverskirchen, Rad+BUS Püning",7.80499,51.92803,"de:5570:65146"
"24046371","Münster (Westf), Pieper",7.67962,52.01225,"de:5515:46371"
"24064940","Stevede, Campingplatz",7.08912,51.88232,"de:5558:64940"
"24048651","Münster (Westf), Wegegabel",7.52467,51.96358,"de:5515:48651"
"24046251","Münster (Westf), Hessenweg",7.67238,52.01248,"de:5515:46251"
"24035474","Berdel, Theilmeier",7.78561,51.96516,"de:5570:35474"
"24060388","Alverskirchen, Große Kamp",7.80138,51.91144,"de:5570:60388"
"24045095","Münster (Westf), Gewerbeg. Uhlenkotten",7.56959,51.99446,"de:5515:45095"
"24042470","Münster (Westf), Handorf Kaserne",7.72151,52.00223,"de:5515:42470"
"24046981","Münster (Westf), Haus Rüschhaus",7.54993,51.9833,"de:5515:46981"
"24060039","Stockum (Coesfeld), Kolve",7.11583,51.94366,"de:5558:60039"
"24046801","Münster (Westf), Am Knapp",7.61492,52.00789,"de:5515:46801"
"24042275","Münster (Westf), Am Kerkamp",7.70943,52.00503,"de:5515:42275"
"24047038","Münster (Westf), Alvingheide",7.51325,51.93125,"de:5515:47038"
"24045971","Münster (Westf), Killingstraße",7.59233,52.00077,"de:5515:45971"
"24048661","Münster (Westf), Everding",7.52816,51.96081,"de:5515:48661"
"24042251","Münster (Westf), Am Hornbach",7.70988,52.00275,"de:5515:42251"
"24045310","Münster (Westf), Kinderhaus Brüningheide",7.5902,51.99885,"de:5515:45310"
"24045291","Münster (Westf), Meinertzstraße",7.59532,52.00037,"de:5515:45291"
"24046253","Münster (Westf), Hessenbusch",7.67364,52.00822,"de:5515:46253"
"24045091","Münster (Westf), Haus Uhlenkotten",7.57474,51.99197,"de:5515:45091"
"24046660","Münster (Westf), Roxel Hallenbad",7.52715,51.95388,"de:5515:46660"
"24046811","Münster (Westf), Am-Max-Klemens-Kanal",7.61478,52.00372,"de:5515:46811"
"24042261","Münster (Westf), Handorf Haus Münsterland",7.71644,51.99917,"de:5515:42261"
"24048141","Münster (Westf), Alte Viehstraße",7.52282,51.89896,"de:5515:48141"
"24045851","Münster (Westf), Von-Humboldt-Straße",7.60564,52.00114,"de:5515:45851"
"24064941","Stevede, Sieverding",7.07741,51.86825,"de:5558:64941"
"24042271","Münster (Westf), In der Stroth",7.71461,51.99878,"de:5515:42271"
"24064208","Stockum (Coesfeld), Wedewer",7.12754,51.94132,"de:5558:64208"
"24048681","Münster (Westf), An der Kleikuhle",7.53142,51.95725,"de:5515:48681"
"24047065","Münster (Westf), Rottkamp",7.5195,51.92505,"de:5515:47065"
"24046625","Münster (Westf), Roxel Bahnhof",7.52569,51.94664,"de:5515:46625"
"24060853","Coesfeld, Weißes Kreuz",7.13528,51.93934,"de:5558:60853"
"24062185","Stevede, Große Bordewick",7.08036,51.86281,"de:5558:62185"
"24045301","Münster (Westf), Feldstiegenkamp",7.59839,51.9979,"de:5515:45301"
"24063100","Groß Reken, Espendiller",7.04003,51.8543,"de:5554:63100"
"24046621","Münster (Westf), Stellmacherweg",7.52736,51.94835,"de:5515:46621"
"24042281","Münster (Westf), Dorbaum",7.70985,51.99868,"de:5515:42281"
"24046611","Münster (Westf), Roxel Alte Dorfstraße",7.53239,51.95501,"de:5515:46611"
"24040736","Münster (Westf), Venne Brücke",7.55169,51.86967,"de:5515:40736"
"24063120","Groß Reken, Alte Schule",7.05084,51.85456,"de:5554:63120"
"24034876","Rinkerode, Meerkamp",7.68611,51.84102,"de:5570:34876"
"24046671","Münster (Westf), Pantaleonstraße",7.53204,51.95411,"de:5515:46671"
"24046681","Münster (Westf), Pienersallee",7.53075,51.95172,"de:5515:46681"
"24064016","Telgte/Kr Warendorf, Terborg",7.77311,51.96282,"de:5570:64016"
"24046991","Münster (Westf), Autobahn Nord",7.55712,51.97781,"de:5515:46991"
"24046335","Münster (Westf), Wierling",7.5222,51.92372,"de:5515:46335"
"24045961","Münster (Westf), Idenbrockplatz",7.60023,51.99635,"de:5515:45961"
"24047061","Münster (Westf), Dülmener Straße",7.52372,51.92492,"de:5515:47061"
"24045850","Münster (Westf), Kinderhaus Schulzentrum",7.60361,51.99705,"de:5515:45850"
"24045831","Münster (Westf), Pastorsesch",7.61383,51.99934,"de:5515:45831"
"24042285","Münster (Westf), Drei Eichen",7.71078,51.99635,"de:5515:42285"
"24046591","Münster (Westf), Lise-Meitner-Str.",7.52947,51.94474,"de:5515:46591"
"24046355","Münster (Westf), Langenkamp",7.52508,51.91647,"de:5515:46355"
"24045841","Münster (Westf), Rektoratsweg",7.6083,51.99751,"de:5515:45841"
"24046891","Münster (Westf), Roxel Mitte",7.53669,51.95472,"de:5515:46891"
"24063933","Albersloh, Langen Esch",7.73961,51.86007,"de:5570:63933"
"24045951","Münster (Westf), Kristiansandstraße",7.6125,51.99789,"de:5515:45951"
"24048131","Münster (Westf), Niederort",7.52951,51.90504,"de:5515:48131"
"24051022","Münster (Westf), AST Alb. Niederort Haustür",7.52949,51.90532,"de:5515:51022"
"24046331","Münster (Westf), Hohe Geist",7.52669,51.92301,"de:5515:46331"
"24046350","Münster (Westf), Albachten Bahnhof",7.52763,51.91464,"de:5515:46350"
"24068033","Coesfeld, Abzw. Wester Esch",7.14795,51.93655,"de:5558:68033"
"24046911","Münster (Westf), Paul-Gerhardt-Strasse",7.53488,51.94924,"de:5515:46911"
"24046341","Münster (Westf), Am Kämpken",7.52725,51.92018,"de:5515:46341"
"24046161","Münster (Westf), Südlohnweg",7.56159,51.97608,"de:5515:46161"
"24047051","Münster (Westf), Blomenkamp",7.52753,51.92611,"de:5515:47051"
"24047071","Münster (Westf), Albachten Kirche",7.52751,51.9246,"de:5515:47071"
"24046571","Münster (Westf), Raiffeisenstraße",7.53386,51.94643,"de:5515:46571"
"24062188","Sirksfeld, Klöpper",7.1285,51.96581,"de:5558:62188"
"24035260","Rinkerode, Bahnhof",7.68831,51.84528,"de:5570:35260"
"24045051","Münster (Westf), Wilkinghege Golfplatz",7.58316,51.98723,"de:5515:45051"
"24046901","Münster (Westf), Dorffeldstrasse",7.53707,51.95136,"de:5515:46901"
"24046351","Münster (Westf), Albachten Sendener Stiege",7.52831,51.91768,"de:5515:46351"
"24045331","Münster (Westf), Hasenbusch",7.59517,51.99147,"de:5515:45331"
"24045941","Münster (Westf), Heidkamp",7.60474,51.994,"de:5515:45941"
"24045421","Münster (Westf), Janningsweg",7.61293,51.99598,"de:5515:45421"
"24068032","Coesfeld, Prüllageweg",7.15236,51.93322,"de:5558:68032"
"24061562","Coesfeld, Marienburg Friedhof",7.14746,51.94728,"de:5558:61562"
"24042501","Münster (Westf), Freibad Sudmühle",7.69088,51.99765,"de:5515:42501"
"24045500","Münster (Westf), Eimermacherweg",7.59884,51.99212,"de:5515:45500"
"24034877","Rinkerode, Haverland",7.68261,51.84568,"de:5570:34877"
"24045171","Münster (Westf), Weitkampweg",7.56038,51.97303,"de:5515:45171"
"24060047","Brink (Coesfeld), Hobbold",7.13871,51.96118,"de:5558:60047"
"24042113","Münster (Westf), Westfälisches Pferdezentrum",7.67174,51.99947,"de:5515:42113"
"24046881","Münster (Westf), Schelmenstiege",7.5422,51.95502,"de:5515:46881"
"24063110","Groß Reken, Schlottbohm",7.05384,51.84548,"de:5554:63110"
"24035316","Berdel, Scheune",7.76463,51.96123,"de:5570:35316"
"24046541","Münster (Westf), Nottulner Landweg",7.53826,51.94777,"de:5515:46541"
"24042111","Münster (Westf), Sudmühlenstraße",7.66965,51.99869,"de:5515:42111"
"24042291","Münster (Westf), Middelfeld",7.70674,51.99256,"de:5515:42291"
"24046151","Münster (Westf), Heekweg",7.56329,51.97349,"de:5515:46151"
"24045351","Münster (Westf), Wilkinghege",7.58938,51.98703,"de:5515:45351"
"24045341","Münster (Westf), Helmholtzweg",7.59454,51.98855,"de:5515:45341"
"24045141","Münster (Westf), Haus Mariengrund",7.56082,51.97096,"de:5515:45141"
"24046001","Münster (Westf), Rüschhausweg",7.56503,51.97388,"de:5515:46001"
"24042960","Münster (Westf), Sudmühle",7.68097,51.99696,"de:5515:42960"
"24045430","Münster (Westf), Am Burloh",7.61215,51.99346,"de:5515:45430"
"24042031","Münster (Westf), Ziegeleiteich",7.6508,51.99809,"de:5515:42031"
"24045551","Münster (Westf), Martin-Niemöller-Str.",7.6019,51.99014,"de:5515:45551"
"24042021","Münster (Westf), Dachsleite",7.64703,51.99734,"de:5515:42021"
"24063068","Albersloh, Buxtrup",7.70367,51.85243,"de:5570:63068"
"24046321","Münster (Westf), An der alten Ziegelei",7.66479,51.99734,"de:5515:46321"
"24042511","Münster (Westf), Windbreede",7.68961,51.9946,"de:5515:42511"
"24062189","Brink (Coesfeld), Langehaneberg",7.14757,51.96021,"de:5558:62189"
"24068030","Coesfeld, Paradiesweg",7.1606,51.94023,"de:5558:68030"
"24046011","Münster (Westf), Salzmannstr.",7.61587,51.99321,"de:5515:46011"
"24046021","Münster (Westf), Toppheide",7.56982,51.97532,"de:5515:46021"
"24042015","Münster (Westf), Speicherstadt",7.6348,51.99606,"de:5515:42015"
"24060018","Groß Reken, Waldkapelle",7.06768,51.84245,"de:5554:60018"
"24042191","Münster (Westf), Coerheide",7.64198,51.99644,"de:5515:42191"
"24064325","Coesfeld, Lübbesmeyer Weg",7.1646,51.93253,"de:5558:64325"
"24063854","Brink (Coesfeld), Roters",7.14957,51.96185,"de:5558:63854"
"24045123","Münster (Westf), Nünningfeld",7.56254,51.96965,"de:5515:45123"
"24045361","Münster (Westf), Abzweig Wilkinghege",7.58867,51.98409,"de:5515:45361"
"24045921","Münster (Westf), Provinzial",7.62039,51.99328,"de:5515:45921"
"24045931","Münster (Westf), Holtmannsweg",7.63444,51.99529,"de:5515:45931"
"24042698","Münster (Westf), Matthias-Claudius-Schule",7.70325,51.99033,"de:5515:42698"
"24042035","Münster (Westf), Coerder Liekweg",7.6566,51.99621,"de:5515:42035"
"24042431","Münster (Westf), Am Hof zur Linde",7.70159,51.99071,"de:5515:42431"
"24062191","Herteler, Rabbe",7.16314,51.90004,"de:5558:62191"
"24044921","Münster (Westf), Meerhook",7.5366,51.92463,"de:5515:44921"
"24045561","Münster (Westf), Im Moorhock",7.60814,51.98945,"de:5515:45561"
"24046031","Münster (Westf), Gronowskistr.",7.56275,51.96785,"de:5515:46031"
"24045915","Münster (Westf), Am Breilbusch",7.57438,51.97555,"de:5515:45915"
"24042121","Münster (Westf), Dyckburgstraße",7.6877,51.99291,"de:5515:42121"
"24042001","Münster (Westf), Kiesekampweg",7.6383,51.99461,"de:5515:42001"
"24064710","Sendenhorst, Hesselmann",7.7537,51.8801,"de:5570:64710"
"24036148","Velen, Dowe",6.91604,51.87449,"de:5554:36148"
"24042010","Münster (Westf), Coerde",7.63973,51.9946,"de:5515:42010"
"24040743","Münster (Westf), Alexianer Werkstätten",7.56177,51.87768,"de:5515:40743"
"24068022","Letter Bruch, Klüsener",7.12284,51.85756,"de:5558:68022"
"24045901","Münster (Westf), Twenteweg",7.5722,51.97371,"de:5515:45901"
"24046319","Münster (Westf), Gewerbegebiet Kleimannbrücke",7.66244,51.99479,"de:5515:46319"
"24063795","Albersloh, Feuerwehrhaus",7.73265,51.86652,"de:5570:63795"
"24045641","Münster (Westf), Regina Protmann Str.",7.61725,51.99062,"de:5515:45641"
"24042441","Münster (Westf), Kirschgarten",7.69995,51.98953,"de:5515:42441"
"24045131","Münster (Westf), Asbeckweg",7.56983,51.97132,"de:5515:45131"
"24061382","Letter Bruch, Campingplatz",7.16014,51.88774,"de:5558:61382"
"24042061","Münster (Westf), Elbinger Straße",7.65336,51.99438,"de:5515:42061"
"24063931","Albersloh, Uhlenbrock",7.71706,51.86019,"de:5570:63931"
"24045441","Münster (Westf), Ermlandweg",7.61135,51.98818,"de:5515:45441"
"24040741","Münster (Westf), Alexianer-Campus",7.56637,51.87673,"de:5515:40741"
"24068021","Letter Bruch, Heidehof",7.15958,51.88461,"de:5558:68021"
"24042708","Münster (Westf), Ludwig-Wolker-Schule",7.70063,51.98789,"de:5515:42708"
"24046141","Münster (Westf), Ackermann",7.55194,51.9527,"de:5515:46141"
"24035576","Berdel, Austermann K.",7.75657,51.95707,"de:5570:35576"
"24042040","Münster (Westf), Königsberger Straße",7.6483,51.99293,"de:5515:42040"
"24046071","Münster (Westf), Provinzial Süd",7.62129,51.98963,"de:5515:46071"
"24049011","Münster (Westf), Görlitzer Straße",7.64373,51.99255,"de:5515:49011"
"24045651","Münster (Westf), Auenviertel",7.56558,51.96569,"de:5515:45651"
"24060956","Sendenhorst, West 26/27",7.76139,51.89492,"de:5570:60956"
"24042301","Münster (Westf), Handorf Mitte",7.69861,51.9872,"de:5515:42301"
"24045911","Münster (Westf), Gescherweg",7.57627,51.97184,"de:5515:45911"
"24064446","Coesfeld, Freiherr-vom-Stein-Schule",7.17404,51.93617,"de:5558:64446"
"24045511","Münster (Westf), Kortenbrede",7.59469,51.98041,"de:5515:45511"
"24045385","Münster (Westf), Alte Sternwarte",7.58528,51.97612,"de:5515:45385"
"24045151","Münster (Westf), Ahausweg",7.57331,51.96892,"de:5515:45151"
"24063946","Brink (Coesfeld), Große Kapelle",7.15781,51.96632,"de:5558:63946"
"24045621","Münster (Westf), Schleebrüggenkamp",7.62147,51.98785,"de:5515:45621"
"24042311","Münster (Westf), Kötterstraße",7.70145,51.98461,"de:5515:42311"
"24046311","Münster (Westf), Rudolf-Diesel-Straße",7.66433,51.99031,"de:5515:46311"
"24045191","Münster (Westf), Besselweg",7.57755,51.97032,"de:5515:45191"
"24049021","Münster (Westf), Josefine Mauser Str.",7.64818,51.98966,"de:5515:49021"
"24042131","Münster (Westf), Heidehof",7.67865,51.98834,"de:5515:42131"
"24042141","Münster (Westf), Im Sundern",7.67432,51.98849,"de:5515:42141"
"24045661","Münster (Westf), Freiherr vom Stein Gymnasium",7.56759,51.96138,"de:5515:45661"
"24046871","Münster (Westf), Am Rohrbusch",7.55719,51.95011,"de:5515:46871"
"24042331","Münster (Westf), Körberheide",7.71567,51.97819,"de:5515:42331"
"24060265","Coesfeld, Klein-Hessling-Str.",7.17705,51.93412,"de:5558:60265"
"24041510","Münster (Westf), Nevinghoff",7.63276,51.987,"de:5515:41510"
"24045451","Münster (Westf), Dreizehnerstraße",7.61174,51.98258,"de:5515:45451"
"24046181","Münster (Westf), Johann-Krane-Weg",7.59517,51.97677,"de:5515:46181"
"24042461","Münster (Westf), Hobbeltstraße",7.70286,51.98169,"de:5515:42461"
"24045611","Münster (Westf), Wienburgstraße",7.62044,51.98445,"de:5515:45611"
"24042051","Münster (Westf), Meerwiese",7.64787,51.98791,"de:5515:42051"
"24046171","Münster (Westf), Wasserweg",7.5924,51.97499,"de:5515:46171"
"24042151","Münster (Westf), Mariendorf West",7.66868,51.98747,"de:5515:42151"
"24045161","Münster (Westf), St. Michael-Kirche",7.57955,51.96763,"de:5515:45161"
"24041501","Münster (Westf), Joseph-König Str",7.63342,51.98574,"de:5515:41501"
"24042488","Münster (Westf), Abzweig Mariendorf",7.66256,51.9871,"de:5515:42488"
"24045380","Münster (Westf), Horstmarer Landweg",7.59111,51.9733,"de:5515:45380"
"24045670","Münster (Westf), Gartenbreie",7.57014,51.95932,"de:5515:45670"
"24040746","Münster (Westf), Kannenweg",7.57079,51.88454,"de:5515:40746"
"24044931","Münster (Westf), Möselerhook",7.55166,51.92502,"de:5515:44931"
"24046190","Münster (Westf), Austermannstraße",7.5976,51.97548,"de:5515:46190"
"24045541","Münster (Westf), Technologiepark",7.60107,51.97672,"de:5515:45541"
"24037043","Coesfeld, Dieselstraße/Erlenweg",7.18193,51.9204,"de:05558:37043"
"24042161","Münster (Westf), Jägerhäuschen",7.66274,51.98625,"de:5515:42161"
"24046701","Münster (Westf), Ramertsweg",7.56756,51.9557,"de:5515:46701"
"24042520","Münster (Westf), Gymnasium St.Mauritz",7.68665,51.98345,"de:5515:42520"
"24045471","Münster (Westf), Meßkamp",7.61198,51.98011,"de:5515:45471"
"24046861","Münster (Westf), Hohenfeld",7.56125,51.94775,"de:5515:46861"
"24061380","Albersloh, Wolbecker Str.41",7.73361,51.87949,"de:5570:61380"
"24047141","Münster (Westf), Markfort",7.75848,51.91432,"de:5515:47141"
"24041511","Münster (Westf), Nevinghoffstraße",7.63204,51.98379,"de:5515:41511"
"24041531","Münster (Westf), Haltepunkt Zentrum Nord",7.63814,51.98432,"de:5515:41531"
"24068031","Coesfeld, Grenzweg",7.18248,51.93519,"de:5558:68031"
"24063870","Brink (Coesfeld), Eskes",7.16795,51.96428,"de:5558:63870"
"24041491","Münster (Westf), Bezirksregierung II",7.63634,51.98379,"de:5515:41491"
"24045891","Münster (Westf), Potstiege",7.58279,51.96569,"de:5515:45891"
"24042343","Münster (Westf), Handorf Gartenzentrum",7.70477,51.97729,"de:5515:42343"
"24046705","Münster (Westf), Dieckmannstraße",7.57236,51.9577,"de:5515:46705"
"24035311","Coesfeld, Bloomenesch",7.17705,51.95483,"de:5558:35311"
"24045371","Münster (Westf), Rudolf-Harbig-Weg",7.595,51.97174,"de:5515:45371"
"24060781","Höven (Rosendahl), Brüggemann",7.15135,51.98291,"de:5558:60781"
"24042341","Münster (Westf), Alter Mühlenweg",7.70515,51.97654,"de:5515:42341"
"24046711","Münster (Westf), Gievenbeck Kaserne",7.57535,51.9588,"de:5515:46711"
"24045521","Münster (Westf), Leonardo-Campus",7.60418,51.97487,"de:5515:45521"
"24045481","Münster (Westf), Germania-Campus",7.61215,51.97689,"de:5515:45481"
"24045981","Münster (Westf), Corrensstraße",7.59698,51.97094,"de:5515:45981"
"24035301","Heiden (Kr Borken), Ramsdorf/Heiden",6.92188,51.85247,"de:5554:35301"
"24042071","Münster (Westf), Sibeliusstraße",7.64604,51.98265,"de:5515:42071"
"24047161","Münster (Westf), Telgter Straße/L793",7.75393,51.92959,"de:5515:47161"
"24042491","Münster (Westf), Hacklenburg",7.65994,51.98256,"de:5515:42491"
"24045251","Münster (Westf), Deipenfohr",7.58056,51.96056,"de:5515:45251"
"24041495","Münster (Westf), Anton-Bruchausen-Str.",7.63539,51.98104,"de:5515:41495"
"24045991","Münster (Westf), Mendelstraße",7.59654,51.96922,"de:5515:45991"
"24045531","Münster (Westf), Orleans-Ring",7.60689,51.97343,"de:5515:45531"
"24047867","Münster (Westf), Lübecker Straße",7.58178,51.88475,"de:5515:47867"
"24045181","Münster (Westf), Hautklinik",7.59124,51.96529,"de:5515:45181"
"24064448","Stadtlohn, Hallenbad/Freibad",6.92363,51.99652,"de:5554:64448"
"24041250","Münster (Westf), Dreifaltigkeitskirche",7.61233,51.9743,"de:5515:41250"
"24044971","Münster (Westf), An der Hansalinie",7.56119,51.92527,"de:5515:44971"
"24042081","Münster (Westf), Braseweg",7.64446,51.98004,"de:5515:42081"
"24040748","Münster (Westf), Hansa Business Park",7.57715,51.89014,"de:5515:40748"
"24042528","Münster (Westf), Wersebeckmannweg",7.6783,51.97867,"de:5515:42528"
"24047865","Münster (Westf), Antwerpener Straße",7.57971,51.88801,"de:5515:47865"
"24041231","Münster (Westf), Polizeipräsidium LWL-Klinik",7.618,51.97456,"de:5515:41231"
"24047131","Münster (Westf), Fronhof",7.74871,51.91531,"de:5515:47131"
"24045375","Münster (Westf), Wilhelm-Klemm-Str.",7.59748,51.96662,"de:5515:45375"
"24045281","Münster (Westf), Apffelstaedtstr.",7.60246,51.96888,"de:5515:45281"
"24045881","Münster (Westf), Schreiberstraße",7.59523,51.96507,"de:5515:45881"
"24045260","Münster (Westf), Schmeddingstraße",7.58973,51.9612,"de:5515:45260"
"24042351","Münster (Westf), Pleistermühlenweg",7.69366,51.97356,"de:5515:42351"
"24060701","Gaupel, Fleige",7.18334,51.96252,"de:5558:60701"
"24041211","Münster (Westf), Cheruskerring",7.62356,51.97472,"de:5515:41211"
"24045391","Münster (Westf), Kapuzinerstraße",7.6107,51.97062,"de:5515:45391"
"24041260","Münster (Westf), Kanonierplatz",7.61315,51.97128,"de:5515:41260"
"24046851","Münster (Westf), Altenroxeler Str.",7.57111,51.9413,"de:5515:46851"
"24064316","Stadtlohn, Weddeling",6.93093,52.00463,"de:5554:64316"
"24042091","Münster (Westf), Rumphorstweg",7.64218,51.97718,"de:5515:42091"
"24041521","Münster (Westf), Deutsche Rentenversicherung",7.63595,51.97638,"de:5515:41521"
"24060700","Gaupel, Hülsmann",7.18601,51.96468,"de:5558:60700"
"24040751","Münster (Westf), Wiedau",7.57864,51.89385,"de:5515:40751"
"24064451","Hundewick, Vitivierter Bach",6.88185,51.97277,"de:5554:64451"
"24045321","Münster (Westf), Lukaskirche",7.5973,51.96348,"de:5515:45321"
"24064449","Stadtlohn, Goethestr.",6.90212,51.99108,"de:5554:64449"
"24045271","Münster (Westf), Universitätsklinikum",7.59375,51.96142,"de:5515:45271"
"24062962","Stadtlohn, Von-Ardenne-Str./SVS",6.89494,51.9861,"de:5554:62962"
"24045201","Münster (Westf), P+R Coesfelder Kreuz",7.6015,51.96515,"de:5515:45201"
"24041201","Münster (Westf), Langemarckstr.",7.62896,51.97395,"de:5515:41201"
"24041220","Münster (Westf), Nordplatz",7.62274,51.97228,"de:5515:41220"
"24045211","Münster (Westf), Försterstraße",7.60705,51.96661,"de:5515:45211"
"24061583","Almsick, Honvehlmann",6.94375,52.01433,"de:5554:61583"
"24041191","Münster (Westf), Flandernstraße",7.631,51.97345,"de:5515:41191"
"24044110","Münster (Westf), Meckmannweg",7.5702,51.92992,"de:5515:44110"
"24042171","Münster (Westf), Schleuse",7.65821,51.9756,"de:5515:42171"
"24041331","Münster (Westf), Steinfurter Str",7.61337,51.96859,"de:5515:41331"
"24047151","Münster (Westf), Tiergartenheide",7.73433,51.89927,"de:5515:47151"
"24047181","Münster (Westf), Am Tiergarten",7.7423,51.91735,"de:5515:47181"
"24042101","Münster (Westf), Hoher Heckenweg",7.64023,51.97436,"de:5515:42101"
"24044191","Münster (Westf), Friedhof Altenroxel",7.57417,51.93731,"de:5515:44191"
"24041351","Münster (Westf), Wilhelmstraße",7.61263,51.96723,"de:5515:41351"
"24047851","Münster (Westf), Amelsbüren Süd",7.60955,51.87815,"de:5515:47851"
"24041271","Münster (Westf), Hoyastraße",7.62219,51.97008,"de:5515:41271"
"24047863","Münster (Westf), Kopenhagener Straße",7.58674,51.89213,"de:5515:47863"
"24041161","Münster (Westf), Lublinring  Pumpenhaus",7.63529,51.9727,"de:5515:41161"
"24041171","Münster (Westf), Kanalstraße",7.63232,51.97213,"de:5515:41171"
"24044121","Münster (Westf), Holtkamp",7.57246,51.92762,"de:5515:44121"
"24041160","Münster (Westf), Mühlenfeld",7.6363,51.97253,"de:5515:41160"
"24045011","Münster (Westf), Sentruper Höhe",7.59389,51.95674,"de:5515:45011"
"24045021","Münster (Westf), Mausbachstraße",7.59323,51.95591,"de:5515:45021"
"24045061","Münster (Westf), Schlüterstraße",7.59632,51.95791,"de:5515:45061"
"24047600","Münster (Westf), Amelsbüren Bahnhof",7.59924,51.88458,"de:5515:47600"
"24037025","Borken (Westf), Alter Kasernenring",6.88869,51.85071,"de:5554:37025"
"24044981","Münster (Westf), Heroldstraße",7.57303,51.92495,"de:5515:44981"
"24045491","Münster (Westf), Domagkstraße",7.60244,51.96112,"de:5515:45491"
"24044961","Münster (Westf), Ripenhorst",7.57324,51.9209,"de:5515:44961"
"24047615","Münster (Westf), Am Dornbusch",7.6089,51.88003,"de:5515:47615"
"24042610","Münster (Westf), Chirurgie",7.5992,51.95906,"de:5515:42610"
"24036128","Gemen (Borken), RotKreuz-Zentrum",6.87526,51.86048,"de:5554:36128"
"24045001","Münster (Westf), Redigerstraße",7.59226,51.95429,"de:5515:45001"
"24041472","Münster (Westf), Neutor",7.61657,51.96662,"de:5515:41472"
"24047191","Münster (Westf), Im Bilskamp",7.73832,51.91772,"de:5515:47191"
"24041151","Münster (Westf), Niedersachsenring",7.64071,51.9718,"de:5515:41151"
"24044115","Münster (Westf), Christoph-Bernhard-Graben",7.57538,51.9298,"de:5515:44115"
"24042951","Münster (Westf), Pötterhoek",7.65351,51.9724,"de:5515:42951"
"24037023","Heiden (Kr Borken), Pastoratsweg",6.93073,51.82353,"de:5554:37023"
"24042361","Münster (Westf), St. Mauritz",7.67643,51.97072,"de:5515:42361"
"24042181","Münster (Westf), Saarstraße",7.65717,51.97223,"de:5515:42181"
"24061439","Legden, Leiverskamp",7.09452,52.0321,"de:5554:61439"
"24041131","Münster (Westf), Maximilianstr.",7.63102,51.9697,"de:5515:41131"
"24035279","Borken (Westf), Waldfriedhof",6.88705,51.84594,"de:5554:35279"
"24042941","Münster (Westf), Ruhrstraße",7.65943,51.97196,"de:5515:42941"
"24041141","Münster (Westf), Kolpingstraße",7.63433,51.97013,"de:5515:41141"
"24047641","Münster (Westf), Davertstraße",7.60618,51.88287,"de:5515:47641"
"24064706","Leblich, Drögen Bockelt",6.97135,51.81074,"de:5554:64706"
"24041321","Münster (Westf), Münzstraße",7.61986,51.96666,"de:5515:41321"
"24045071","Münster (Westf), Jungeblodtplatz",7.60438,51.96029,"de:5515:45071"
"24044940","Münster (Westf), Waldweg",7.57571,51.91842,"de:5515:44940"
"24041281","Münster (Westf), Kreuzschanze",7.62314,51.96745,"de:5515:41281"
"24037026","Borken (Westf), Fliederbusch",6.87964,51.84836,"de:5554:37026"
"24044951","Münster (Westf), Rockbusch",7.57589,51.91989,"de:5515:44951"
"24045860","Münster (Westf), Zoo / LWL-Naturkundemuseum",7.58958,51.94952,"de:5515:45860"
"24042931","Münster (Westf), Oderstraße",7.66167,51.97136,"de:5515:42931"
"24047861","Münster (Westf), Gropiusstraße",7.59482,51.89043,"de:5515:47861"
"24045081","Münster (Westf), Hüfferstiftung",7.60825,51.96119,"de:5515:45081"
"24047385","Münster (Westf), Zur Walbeke",7.73576,51.92096,"de:5515:47385"
"24046841","Münster (Westf), Mecklenbecker Straße",7.57977,51.93463,"de:5515:46841"
"24041311","Münster (Westf), Überwasserstr.",7.6192,51.96519,"de:5515:41311"
"24049751","Münster (Westf), Schlossplatz",7.61779,51.96449,"de:5515:49751"
"24042971","Münster (Westf), Kärntnerstraße",7.65125,51.97047,"de:5515:42971"
"24047201","Münster (Westf), Kurhaus",7.73435,51.91686,"de:5515:47201"
"24047621","Münster (Westf), Amelsbüren Kirche",7.60567,51.88504,"de:5515:47621"
"24041121","Münster (Westf), Neubrückentor",7.62989,51.96764,"de:5515:41121"
"24043010","Münster (Westf), Tannenhof",7.67761,51.96855,"de:5515:43010"
"24045031","Münster (Westf), Bockwindmühle Mühlenhof Aasee",7.59543,51.95251,"de:5515:45031"
"24042921","Münster (Westf), Weserstraße",7.65967,51.97027,"de:5515:42921"
"24046845","Münster (Westf), St. Anna-Kirche",7.57945,51.93092,"de:5515:46845"
"24041301","Münster (Westf), Kuhviertel Rosenplatz",7.62175,51.9653,"de:5515:41301"
"24041371","Münster (Westf), Schleswiger Str.",7.6435,51.9694,"de:5515:41371"
"24047585","Münster (Westf), Plutoweg",7.61095,51.88309,"de:5515:47585"
"24042371","Münster (Westf), Pulverschuppen",7.66903,51.96929,"de:5515:42371"
"24064182","Quantwick, Tierheim Heitmann",6.96638,52.03904,"de:5554:64182"
"24042200","Münster (Westf), Elbestraße",7.65633,51.96988,"de:5515:42200"
"24044411","Münster (Westf), Meyerbeerstraße",7.57901,51.92521,"de:5515:44411"
"24045871","Münster (Westf), Franz-Hitze-Haus",7.60283,51.95619,"de:5515:45871"
"24047631","Münster (Westf), Amelsbüren Schule",7.60791,51.8854,"de:5515:47631"
"24041962","Münster (Westf), Lotharingerstraße",7.63163,51.96677,"de:5515:41962"
"24041361","Münster (Westf), Landgericht",7.61532,51.96196,"de:5515:41361"
"24041291","Münster (Westf), Tibusstraße",7.62699,51.96532,"de:5515:41291"
"24064181","Oberortwick, Hintemann",7.0194,52.04708,"de:5554:64181"
"24047397","Münster (Westf), Holtrode",7.73203,51.9233,"de:5515:47397"
"24047581","Münster (Westf), Pater-Kolbe-Straße",7.61505,51.88296,"de:5515:47581"
"24047387","Münster (Westf), Nikolausweg",7.73164,51.92129,"de:5515:47387"
"24042231","Münster (Westf), Erphokirche",7.64756,51.96806,"de:5515:42231"
"24042221","Münster (Westf), Wiener Straße",7.65126,51.96821,"de:5515:42221"
"24041341","Münster (Westf), THEATER Münster",7.62898,51.96512,"de:5515:41341"
"24036842","Marbeck, Duesbergstraße",6.87533,51.83769,"de:5554:36842"
"24041451","Münster (Westf), Zentralfriedhof",7.61258,51.95962,"de:5515:41451"
"24042981","Münster (Westf), Elisabet-Ney-Straße",7.64326,51.96749,"de:5515:42981"
"24060825","Wehr (Kr BOR), Schule",7.07877,52.04696,"de:5554:60825"
"24043631","Münster (Westf), Adlerhorst",7.67698,51.96636,"de:5515:43631"
"24042942","Münster (Westf), Emsstraße",7.66205,51.96798,"de:5515:42942"
"24042211","Münster (Westf), Schiffahrter Damm",7.65495,51.96794,"de:5515:42211"
"24060824","Wehr (Kr BOR), Ochsenweg",7.06605,52.04977,"de:5554:60824"
"24041106","Münster (Westf), Standesamt",7.63281,51.96552,"de:5515:41106"
"24041381","Münster (Westf), Spiekerhof",7.62665,51.96406,"de:5515:41381"
"24041091","Münster (Westf), Piusallee",7.63806,51.9664,"de:5515:41091"
"24063952","Sabstätte, Gesing",6.96371,52.04532,"de:5554:63952"
"24041481","Münster (Westf), Krummer Timpen",7.6194,51.96169,"de:5515:41481"
"24064180","Oberortwick, Kortbuß",7.02275,52.05235,"de:5554:64180"
"24036868","Marbeck, Sonnenhof",6.88629,51.82661,"de:5554:36868"
"24041105","Münster (Westf), Hörstertor",7.63425,51.96564,"de:5515:41105"
"24047307","Münster (Westf), Juffernkamp",7.72821,51.9122,"de:5515:47307"
"24042241","Münster (Westf), Villa ten Hompel",7.6459,51.96708,"de:5515:42241"
"24042381","Münster (Westf), Danziger Freiheit",7.65766,51.96714,"de:5515:42381"
"24044141","Münster (Westf), Dingbängerweg",7.58367,51.92672,"de:5515:44141"
"24046691","Münster (Westf), Handwerkskammer Bildungszentrum H B Z",7.58782,51.93756,"de:5515:46691"
"24041048","Münster (Westf), Altstadt / Bült",7.63029,51.96401,"de:5515:41048"
"24047381","Münster (Westf), Wolbeck Ehrenmal",7.72858,51.91989,"de:5515:47381"
"24047311","Münster (Westf), Sültemeyer",7.72827,51.91748,"de:5515:47311"
"24042386","Münster (Westf), Albertstraße",7.65473,51.96666,"de:5515:42386"
"24047301","Münster (Westf), Drostenhof",7.72717,51.91531,"de:5515:47301"
"24041044","Münster (Westf), Domplatz",7.62639,51.96202,"de:5515:41044"
"24041041","Münster (Westf), Prinzipalmarkt",7.6283,51.96244,"de:5515:41041"
"24047791","Münster (Westf), Haus Heidhorn",7.65107,51.87848,"de:5515:47791"
"24041908","Münster (Westf), Paulinum",7.61898,51.95925,"de:5515:41908"
"24047175","Münster (Westf), Grenkuhlenweg",7.7271,51.92244,"de:5515:47175"
"24046821","Münster (Westf), Vorländerweg",7.59113,51.93925,"de:5515:46821"
"24041940","Münster (Westf), Aegidiimarkt / LWL-Museum",7.62369,51.9608,"de:5515:41940"
"24041441","Münster (Westf), Goldene Brücke / Aasee",7.61573,51.95773,"de:5515:41441"
"24047321","Münster (Westf), Wolbeck Markt",7.72525,51.91575,"de:5515:47321"
"24043021","Münster (Westf), An der Konradkirche",7.67608,51.96331,"de:5515:43021"
"24045241","Münster (Westf), Torminbrücke",7.6045,51.95088,"de:5515:45241"
"24042391","Münster (Westf), Dechaneistraße",7.65092,51.96491,"de:5515:42391"
"24041923","Münster (Westf), Picasso-Museum",7.62614,51.9606,"de:5515:41923"
"24044151","Münster (Westf), Umspannwerk",7.58797,51.92814,"de:5515:44151"
"24036723","Marbeck, Reiterhof",6.89179,51.81462,"de:5554:36723"
"24041971","Münster (Westf), Klemensstraße",7.62892,51.96091,"de:5515:41971"
"24060838","Ammeln, Gasthaus Enning",7.03547,52.06028,"de:5554:60838"
"24047171","Münster (Westf), Lerschmehr",7.72471,51.92473,"de:5515:47171"
"24047471","Münster (Westf), Von-Holte-Straße",7.72292,51.9126,"de:5515:47471"
"24041401","Münster (Westf), Schützenstraße",7.62135,51.95832,"de:5515:41401"
"24041461","Münster (Westf), Aegidiitor",7.61898,51.95739,"de:5515:41461"
"24042401","Münster (Westf), Hohenzollernring Finanzgericht",7.64698,51.96371,"de:5515:42401"
"24047481","Münster (Westf), Zumbuschstraße",7.72162,51.91088,"de:5515:47481"
"24046601","Münster (Westf), Vagedesweg",7.59407,51.93823,"de:5515:46601"
"24044281","Münster (Westf), Huberstraße",7.60406,51.94844,"de:5515:44281"
"24044221","Münster (Westf), Bischopinkstraße",7.59785,51.9428,"de:5515:44221"
"24041051","Münster (Westf), Eisenbahnstraße",7.63536,51.9615,"de:5515:41051"
"24060975","Wüllen, Am Ölbach",6.95263,52.05737,"de:5554:60975"
"24041432","Münster (Westf), Bismarckallee",7.61804,51.95614,"de:5515:41432"
"24047475","Münster (Westf), Anton-Aulke-Straße",7.71945,51.90828,"de:5515:47475"
"24047595","Münster (Westf), Raringheide",7.62057,51.8874,"de:5515:47595"
"24044271","Münster (Westf), Bonhoefferstraße",7.601,51.94499,"de:5515:44271"
"24041486","Münster (Westf), Körnerstraße",7.61627,51.95486,"de:5515:41486"
"24043071","Münster (Westf), Zum Guten Hirten",7.6606,51.96288,"de:5515:43071"
"24040756","Münster (Westf), Holtschulte",7.59228,51.91138,"de:5515:40756"
"24044291","Münster (Westf), Platz der weißen Rose",7.609,51.95073,"de:5515:44291"
"24041071","Münster (Westf), Raphaelsklinik",7.62983,51.95949,"de:5515:41071"
"24047121","Münster (Westf), Wolbecker Windmühle",7.72125,51.92922,"de:5515:47121"
"24042411","Münster (Westf), Zumsandestraße",7.64142,51.96173,"de:5515:42411"
"24044301","Münster (Westf), Offenbergstraße",7.61188,51.952,"de:5515:44301"
"24044311","Münster (Westf), Hoppendamm Jugendgästehaus Aasee",7.61414,51.95315,"de:5515:44311"
"24041032","Münster (Westf), Königsstraße",7.62636,51.95789,"de:5515:41032"
"24047331","Münster (Westf), Am Berler Kamp",7.72073,51.91585,"de:5515:47331"
"24044211","Münster (Westf), Mersmannsstiege",7.59244,51.93034,"de:5515:44211"
"24047392","Münster (Westf), Hiltruper Straße",7.71919,51.91166,"de:5515:47392"
"24041421","Münster (Westf), Scharnhorststr.",7.61903,51.95508,"de:5515:41421"
"24043171","Münster (Westf), St. Franziskus-Hospital",7.64756,51.96142,"de:5515:43171"
"24060038","Heven (Schöppingen), Heven 88",7.18512,52.06178,"de:5554:60038"
"24043031","Münster (Westf), Frauenburgstraße",7.66975,51.96085,"de:5515:43031"
"24043075","Münster (Westf), Mauritz Friedhof",7.65706,51.96167,"de:5515:43075"
"24041411","Münster (Westf), St. Antoniuskirche",7.62151,51.9553,"de:5515:41411"
"24047111","Münster (Westf), Abzweig Angelmodde",7.71788,51.9327,"de:5515:47111"
"24041061","Münster (Westf), Servatiiplatz",7.6352,51.95931,"de:5515:41061"
"24060950","Nottuln, Carl-Diem-Ring",7.35276,51.92153,"de:5558:60950"
"24044261","Münster (Westf), Von-Ossietzky-Straße",7.60048,51.94105,"de:5515:44261"
"24054331","Münster (Westf), Sperlichstraße",7.61015,51.94916,"de:5515:54331"
"24044231","Münster (Westf), Lange Ossenbeck",7.59753,51.93674,"de:5515:44231"
"24044161","Münster (Westf), Kerkheideweg / Brillux",7.59486,51.9317,"de:5515:44161"
"24043041","Münster (Westf), Erikaweg / WDR",7.67603,51.95917,"de:5515:43041"
"24047470","Münster (Westf), Nogatstraße",7.71648,51.9106,"de:5515:47470"
"24043191","Münster (Westf), Bremer Platz",7.63737,51.9589,"de:5515:43191"
"24061060","Nottuln, Mühlenstraße",7.34644,51.9315,"de:5558:61060"
"24060365","Nottuln, Frie",7.34972,51.91322,"de:5558:60365"
"24044241","Münster (Westf), Kleihorststraße",7.60079,51.93942,"de:5515:44241"
"24041982","Münster (Westf), Engelenschanze",7.6313,51.95717,"de:5515:41982"
"24047461","Münster (Westf), Wolbeck Schulzentrum",7.71752,51.91607,"de:5515:47461"
"24041021","Münster (Westf), Ludgeriplatz",7.62721,51.95579,"de:5515:41021"
"24044131","Münster (Westf), Geiststraße",7.61911,51.95253,"de:5515:44131"
"24043161","Münster (Westf), Manfred-von-Richthofen-Str.",7.64784,51.95889,"de:5515:43161"
"24041000","Münster (Westf), Hauptbahnhof",7.63444,51.9567,"de:5515:41000"
"24060262","Nottuln, Wohnpark Bagno",7.35233,51.9359,"de:5558:60262"
"24043181","Münster (Westf), Sternstraße",7.64005,51.95767,"de:5515:43181"
"24044101","Münster (Westf), Kolde-Ring / LVM",7.61687,51.94988,"de:5515:44101"
"24044171","Münster (Westf), Boeselagerstr.",7.59996,51.9346,"de:5515:44171"
"24043151","Münster (Westf), Andreas-Hofer-Straße",7.65338,51.95878,"de:5515:43151"
"24061613","Nottuln, Draum 60",7.33493,51.93964,"de:5558:61613"
"24062025","Albersloh, Lütke-Lengerich",7.69863,51.89631,"de:5570:62025"
"24047731","Münster (Westf), Steiner See",7.64759,51.88592,"de:5515:47731"
"24043141","Münster (Westf), 08 Stadion",7.65779,51.9586,"de:5515:43141"
"24043051","Münster (Westf), Im Drostebusch",7.67706,51.95626,"de:5515:43051"
"24047480","Münster (Westf), Brandhoveweg",7.71234,51.91099,"de:5515:47480"
"24061059","Nottuln, Waltering",7.33115,51.94401,"de:5558:61059"
"24043621","Münster (Westf), Goebenstraße",7.62548,51.95288,"de:5515:43621"
"24047101","Münster (Westf), Averhoff Rusticus",7.70773,51.93935,"de:5515:47101"
"24064343","Horst (Nottuln), Schulte-Wien",7.35848,51.90015,"de:5558:64343"
"24040754","Münster (Westf), Getterbach",7.59871,51.91764,"de:5515:40754"
"24043431","Münster (Westf), Von-Steuben-Straße",7.63143,51.95427,"de:5515:43431"
"24044201","Münster (Westf), P+R Weseler Str",7.60328,51.93623,"de:5515:44201"
"24043651","Münster (Westf), Hochstraße",7.62148,51.95008,"de:5515:43651"
"24043120","Münster (Westf), Maikottenweg",7.66752,51.95663,"de:5515:43120"
"24047821","Münster (Westf), Hansestraße",7.62246,51.89371,"de:5515:47821"
"24044091","Münster (Westf), WL-BANK  IHK",7.61217,51.94419,"de:5515:44091"
"24044181","Münster (Westf), Buckstraße",7.60612,51.93815,"de:5515:44181"
"24043901","Münster (Westf), Sophienstraße",7.64395,51.95606,"de:5515:43901"
"24043131","Münster (Westf), Gallenkamp",7.66549,51.95612,"de:5515:43131"
"24044080","Münster (Westf), Inselbogen / Sparkassenzentrale",7.60939,51.9407,"de:5515:44080"
"24043890","Münster (Westf), Hansa-Berufskolleg",7.6459,51.95567,"de:5515:43890"
"24043611","Münster (Westf), St. Joseph-Kirche",7.62457,51.94975,"de:5515:43611"
"24047811","Münster (Westf), Herrenburg",7.62735,51.89336,"de:5515:47811"
"24043061","Münster (Westf), Brentanoweg",7.6768,51.95335,"de:5515:43061"
"24047831","Münster (Westf), Sternkamp",7.62255,51.89597,"de:5515:47831"
"24061297","Darup, Mitte",7.29582,51.92909,"de:5558:61297"
"24043111","Münster (Westf), Liboristraße",7.65153,51.95488,"de:5515:43111"
"24044020","Münster (Westf), Kriegerweg",7.60295,51.92221,"de:5515:44020"
"24043421","Münster (Westf), Hansaring",7.63641,51.95259,"de:5515:43421"
"24064206","Stevern, Bayer-Eynk",7.37003,51.94875,"de:5558:64206"
"24043571","Münster (Westf), Friedrich-Ebert-Platz",7.63139,51.95104,"de:5515:43571"
"24044071","Münster (Westf), Oberschlesier Straße",7.60886,51.93608,"de:5515:44071"
"24044011","Münster (Westf), Werneweg",7.60385,51.92392,"de:5515:44011"
"24063814","Buxtrup, Bünker-Uhländer",7.3913,51.90646,"de:5558:63814"
"24043841","Münster (Westf), Emdener Straße",7.64262,51.95327,"de:5515:43841"
"24044991","Münster (Westf), Siebenbürgenweg",7.60796,51.93388,"de:5515:44991"
"24043101","Münster (Westf), Institut der Feuerwehr",7.65996,51.95399,"de:5515:43101"
"24044031","Münster (Westf), Brunnenweg",7.60507,51.92679,"de:5515:44031"
"24044050","Münster (Westf), Düesbergpark",7.60659,51.93054,"de:5515:44050"
"24047091","Münster (Westf), Freibad Stapelskotten",7.69027,51.94568,"de:5515:47091"
"24044061","Münster (Westf), Grüner Grund",7.61412,51.93969,"de:5515:44061"
"24060056","Hövel (Kr COE), Hövel 18",7.33359,51.88807,"de:5558:60056"
"24043600","Münster (Westf), Alter Schützenhof",7.62298,51.94566,"de:5515:43600"
"24047571","Münster (Westf), Amelsbürener Str.",7.62406,51.89814,"de:5515:47571"
"24047341","Münster (Westf), Twenhövenweg",7.70628,51.91816,"de:5515:47341"
"24047081","Münster (Westf), Stapelskotten",7.68346,51.94781,"de:5515:47081"
"24047813","Münster (Westf), Malteserstr.",7.63676,51.89405,"de:5515:47813"
"24043415","Münster (Westf), Stadtwerke / Hafen",7.63763,51.95031,"de:5515:43415"
"24043091","Münster (Westf), St. Margareta-Kirche",7.67008,51.95126,"de:5515:43091"
"24043561","Münster (Westf), Augustastraße",7.63111,51.94765,"de:5515:43561"
"24043080","Münster (Westf), Mondstraße",7.67544,51.94941,"de:5515:43080"
"24047673","Münster (Westf), Franz-Berding-Weg",7.62435,51.90008,"de:5515:47673"
"24047561","Münster (Westf), Rückertstraße",7.62703,51.89882,"de:5515:47561"
"24047351","Münster (Westf), Haus Angelmodde",7.70309,51.91964,"de:5515:47351"
"24061058","Billerbeck (Westf), Abzw. Schulze Brock",7.31797,51.95746,"de:5558:61058"
"24043411","Münster (Westf), MCC Halle Münsterland",7.63978,51.94892,"de:5515:43411"
"24043591","Münster (Westf), Metzer Straße",7.62364,51.94236,"de:5515:43591"
"24043581","Münster (Westf), Heilig-Geist-Kirche",7.62086,51.94034,"de:5515:43581"
"24060024","Hövel (Kr COE), Abzw. Rorup",7.2888,51.90127,"de:5558:60024"
"24044321","Münster (Westf), St. Gottfried-Kirche",7.61252,51.93093,"de:5515:44321"
"24043531","Münster (Westf), Scheibenstraße",7.62521,51.94221,"de:5515:43531"
"24062192","Billerbeck (Westf), Daldrup",7.30543,51.95514,"de:5558:62192"
"24060042","Nottuln, Longinusturm",7.36569,51.96042,"de:5558:60042"
"24043551","Münster (Westf), Timmerscheidtstraße",7.6291,51.94423,"de:5515:43551"
"24043831","Münster (Westf), Westfalen A G",7.63462,51.94626,"de:5515:43831"
"24047361","Münster (Westf), Angelmodde Kirche",7.70084,51.92198,"de:5515:47361"
"24044040","Münster (Westf), Clemenshospital",7.61608,51.93311,"de:5515:44040"
"24047551","Münster (Westf), Langestraße",7.63229,51.89996,"de:5515:47551"
"24047661","Münster (Westf), Meesenstiege",7.62544,51.90361,"de:5515:47661"
"24062861","Nottuln, Abzw. Drosten-Loh",7.37971,51.95765,"de:5558:62861"
"24043955","Münster (Westf), Friedhof Hohe Ward",7.66617,51.89635,"de:5515:43955"
"24043251","Münster (Westf), Theodor-Heuss-Straße",7.69492,51.91127,"de:5515:43251"
"24064337","Darup, König",7.2773,51.9321,"de:5558:64337"
"24064349","Buldern, Fasselt",7.32546,51.88123,"de:5558:64349"
"24043501","Münster (Westf), Königsweg",7.6245,51.93911,"de:5515:43501"
"24060414","Bombeck, Meyer",7.33757,51.96472,"de:5558:60414"
"24063845","Buldern, Bontrop",7.35403,51.87952,"de:5558:63845"
"24047675","Münster (Westf), Grollheide",7.61573,51.91616,"de:5515:47675"
"24047491","Münster (Westf), Homannstraße",7.69748,51.92467,"de:5515:47491"
"24047655","Münster (Westf), Haus Herding",7.62469,51.90615,"de:5515:47655"
"24047541","Münster (Westf), Nimrodweg",7.63522,51.90075,"de:5515:47541"
"24047041","Münster (Westf), Zum Roten Berge",7.64086,51.89904,"de:5515:47041"
"24043241","Münster (Westf), Heinrich-von-Stephan-Ring",7.69347,51.91309,"de:5515:43241"
"24047355","Münster (Westf), Eichendorffschule",7.69447,51.91517,"de:5515:47355"
"24043452","Münster (Westf), Berg Fidel",7.61679,51.92527,"de:5515:43452"
"24043401","Münster (Westf), Nieberdingstraße",7.64534,51.94537,"de:5515:43401"
"24061368","Billerbeck (Westf), Heming",7.3021,51.95947,"de:5558:61368"
"24043851","Münster (Westf), Fundfahrrad-Station",7.6359,51.94277,"de:5515:43851"
"24047651","Münster (Westf), Linckensstraße",7.62489,51.908,"de:5515:47651"
"24043941","Münster (Westf), Emil-Nolde-Weg",7.67345,51.90083,"de:5515:43941"
"24043462","Münster (Westf), Hogenbergstraße",7.61895,51.92696,"de:5515:43462"
"24047701","Münster (Westf), Hiltrup Hallenbad",7.63912,51.90128,"de:5515:47701"
"24063086","Werlte (Nottuln), Höing",7.40631,51.89499,"de:5558:63086"
"24043221","Münster (Westf), Abzweig Hiltrup",7.68815,51.90955,"de:5515:43221"
"24043931","Münster (Westf), Paul-Klee-Weg",7.67705,51.90266,"de:5515:43931"
"24060062","Schapdetten, Fuldastr.",7.41635,51.93726,"de:5558:60062"
"24043230","Münster (Westf), Angelmodde Waldsiedlung",7.68994,51.91217,"de:5515:43230"
"24043451","Münster (Westf), Hülsenbusch",7.61991,51.92637,"de:5515:43451"
"24047670","Münster (Westf), Hünenburg",7.62401,51.91099,"de:5515:47670"
"24043491","Münster (Westf), Düesbergweg",7.62566,51.93478,"de:5515:43491"
"24043950","Münster (Westf), Franz-Marc-Weg",7.66694,51.90085,"de:5515:43950"
"24043981","Münster (Westf), Adolf-Wentrup-Weg",7.66927,51.90139,"de:5515:43981"
"24047371","Münster (Westf), Am Hohen Ufer",7.69129,51.92716,"de:5515:47371"
"24063087","Heller, Lördemann",7.42102,51.91354,"de:5558:63087"
"24043211","Münster (Westf), Am Herzkamp",7.68272,51.90708,"de:5515:43211"
"24043861","Münster (Westf), Agravis",7.63532,51.94,"de:5515:43861"
"24043961","Münster (Westf), Junker-Jörg-Platz",7.68993,51.9155,"de:5515:43961"
"24043871","Münster (Westf), Sporthalle Berg Fidel",7.62271,51.92875,"de:5515:43871"
"24047251","Münster (Westf), Hiltrup Schulzentrum Stadthalle",7.63955,51.90305,"de:5515:47251"
"24047261","Münster (Westf), An der Alten Kirche",7.636,51.90508,"de:5515:47261"
"24043480","Münster (Westf), P+R Preussenstadion",7.62664,51.93188,"de:5515:43480"
"24043321","Münster (Westf), Agathastraße",7.68809,51.92819,"de:5515:43321"
"24047531","Münster (Westf), Hohe Geest / Hiltruper Museum",7.64166,51.90438,"de:5515:47531"
"24043461","Münster (Westf), Drachterstraße",7.6246,51.92518,"de:5515:43461"
"24047412","Münster (Westf), Zeisigweg",7.68507,51.93046,"de:5515:47412"
"24043261","Münster (Westf), Am Schütthook",7.68537,51.91427,"de:5515:43261"
"24047271","Münster (Westf), Herz-Jesu-Krankenhaus",7.63284,51.90907,"de:5515:47271"
"24043821","Münster (Westf), Umgehungsstraße",7.63603,51.93698,"de:5515:43821"
"24043811","Münster (Westf), Robert-Bosch-Str.",7.63347,51.93524,"de:5515:43811"
"24043921","Münster (Westf), Rubensstraße",7.67414,51.90636,"de:5515:43921"
"24047405","Münster (Westf), Delstrup",7.67996,51.9345,"de:5515:47405"
"24043391","Münster (Westf), Loddenheide / Beresa",7.65034,51.94088,"de:5515:43391"
"24047241","Münster (Westf), Marktallee",7.6452,51.90427,"de:5515:47241"
"24043801","Münster (Westf), Siemensstraße",7.63078,51.93242,"de:5515:43801"
"24047001","Münster (Westf), Max-Winkelmann-Straße",7.65239,51.90358,"de:5515:47001"
"24047521","Münster (Westf), Hülsebrockstraße",7.63893,51.90716,"de:5515:47521"
"24047401","Münster (Westf), Böddingheideweg",7.68109,51.93205,"de:5515:47401"
"24065519","Billerbeck (Westf), Wanderparkplatz Berkel",7.30126,51.9674,"de:5558:65519"
"24043331","Münster (Westf), Altehof",7.6837,51.92866,"de:5515:43331"
"24063088","Nottuln, Heller Wewer",7.42909,51.92146,"de:5558:63088"
"24047905","Münster (Westf), Verkehrsbetriebe",7.64538,51.93891,"de:5515:47905"
"24043201","Münster (Westf), Hiltrup Loddenweg",7.66838,51.90605,"de:5515:43201"
"24047231","Münster (Westf), Glasuritstraße",7.65065,51.90496,"de:5515:47231"
"24043471","Münster (Westf), Alte Reitbahn",7.62895,51.92665,"de:5515:43471"
"24047228","Münster (Westf), Hiltrup Bahnhof",7.65403,51.90475,"de:5515:47228"
"24043271","Münster (Westf), Am Blaukreuzwäldchen",7.68152,51.91572,"de:5515:43271"
"24043395","Münster (Westf), Willy-Brandt-Weg",7.65325,51.93873,"de:5515:43395"
"24063092","Werlte (Nottuln), Frenking",7.40508,51.88419,"de:5558:63092"
"24047285","Münster (Westf), Merkureck",7.63291,51.91363,"de:5515:47285"
"24047451","Münster (Westf), Max-Reger-Straße",7.64298,51.90758,"de:5515:47451"
"24035393","Buldern, Schürmann",7.39269,51.87749,"de:5558:35393"
"24043341","Münster (Westf), Pirolweg",7.67995,51.92962,"de:5515:43341"
"24047221","Münster (Westf), Ringstraße",7.66125,51.90603,"de:5515:47221"
"24047511","Münster (Westf), Geistkamp",7.63728,51.91073,"de:5515:47511"
"24043791","Münster (Westf), Geister Landweg",7.63275,51.92866,"de:5515:43791"
"24047281","Münster (Westf), Westfalenstraße",7.63216,51.91727,"de:5515:47281"
"24060053","Nottuln, Baumberg 100",7.37153,51.87014,"de:5558:60053"
"24047291","Münster (Westf), Vennheideweg",7.63127,51.92117,"de:5515:47291"
"24047365","Münster (Westf), Anette von Droste Hülshoff Schule",7.68063,51.9207,"de:5515:47365"
"24047421","Münster (Westf), Im Dahl",7.63605,51.91362,"de:5515:47421"
"24047431","Münster (Westf), An der Christuskirche",7.64934,51.90764,"de:5515:47431"
"24065511","Billerbeck (Westf), Helker Berg (Sportzentrum)",7.29468,51.96832,"de:5558:65511"
"24047441","Münster (Westf), Von-Flotow-Straße",7.64672,51.90831,"de:5515:47441"
"24063078","Appelhülsen, Grundschule",7.42362,51.89693,"de:5558:63078"
"24043781","Münster (Westf), Schuckertstraße",7.6337,51.92678,"de:5515:43781"
"24064207","Billerbeck (Westf), Weiterkamp",7.26876,51.95252,"de:5558:64207"
"24047901","Münster (Westf), Bertha-von-Suttner Weg",7.64774,51.9356,"de:5515:47901"
"24047501","Münster (Westf), Bredekamp",7.63401,51.91764,"de:5515:47501"
"24043995","Münster (Westf), Martin-Luther-King-Weg",7.65687,51.93631,"de:5515:43995"
"24043351","Münster (Westf), Gremmendorf Ehrenmal",7.67504,51.93027,"de:5515:43351"
"24060826","Appelhülsen, Brulandstr.",7.42816,51.89896,"de:5558:60826"
"24043281","Münster (Westf), Pommernstraße",7.67792,51.91897,"de:5515:43281"
"24047923","Münster (Westf), Gewerbeg. Loddenheide",7.64597,51.93411,"de:5515:47923"
"24047918","Münster (Westf), Friedenspark",7.65286,51.93428,"de:5515:47918"
"24043991","Münster (Westf), Heumannsweg",7.66023,51.93415,"de:5515:43991"
