"stop_id","stop_name","stop_lon","stop_lat","stop_code"
"23561114","Eichen (Siegerl), Stendenbacher Weg",7.96729,50.98045,"de:5970:61114"
"23560578","Puderbach (Bad Laasphe), Ortseingang",8.44162,50.94453,"de:5970:60578"
"23560579","Puderbach (Bad Laasphe), Ortsmitte",8.44461,50.95039,"de:5970:60579"
"23566607","Elsoff (Bad Berleburg), Grundschule",8.51375,51.02226,"de:5970:66607"
"23561358","Afholderbach, Ort",8.14008,50.94479,"de:5970:61358"
"23560948","Oechelhausen, Oechelhausen",8.12817,50.95392,"de:5970:60948"
"23561433","Sohlbach (Netphen), Sohlbach",8.15982,50.94874,"de:5970:61433"
"23560928","Grund (Siegerland), Grund",8.13327,50.97191,"de:5970:60928"
"23560588","Weide, Haus Nr. 5",8.28523,50.94396,"de:5970:60588"
"23563270","Lützel (ü Kreuztal), Siedlung",8.17455,50.96204,"de:5970:63270"
"23563268","Lützel (ü Kreuztal), Eisenstraße",8.16709,50.96574,"de:5970:63268"
"23560587","Weide, Haus Nr. 17",8.28657,50.94557,"de:5970:60587"
"23563269","Lützel (ü Kreuztal), In den Eichen",8.16837,50.96779,"de:5970:63269"
"23560958","Vormwald (ü Kreuztal), Schule",8.12989,50.98873,"de:5970:60958"
"23560953","Vormwald (ü Kreuztal), Bahnhof",8.14485,50.98033,"de:5970:60953"
"23561642","Eiserfeld (Siegen), Kaiserschacht",7.98995,50.81861,"de:5970:61642"
"23560580","Rückershausen (Bad Laasphe), Im Boden",8.30095,50.94866,"de:5970:60580"
"23560956","Vormwald (ü Kreuztal), Eichhain",8.13663,50.98626,"de:5970:60956"
"23566028","Rüppershausen, Mühle",8.3137,50.95669,"de:5970:66028"
"23560934","Helberhausen, Helberhausen",8.13584,51.00005,"de:5970:60934"
"23562157","Neunkirchen (Siegerl), Katholische Kirche",8.01043,50.78606,"de:5970:62157"
"23560585","Steinbach (Bad Laasphe), Steinbach",8.3225,50.96161,"de:5970:60585"
"23560935","Helberhausen, Grundschule",8.13723,51.00043,"de:5970:60935"
"23561453","Salchendorf (Neunkirchen/Siegerl), Fritz-Schäfer-Straße",8.01769,50.79589,"de:5970:61453"
"23566251","Hilchenbach, Gasthof",8.20377,50.9713,"de:5970:66251"
"23561625","Eiserfeld (Siegen), Am Freibad",7.99917,50.82312,"de:5970:61625"
"23561628","Eiserfeld (Siegen), Echostraße",7.99211,50.82762,"de:5970:61628"
"23560759","Leimstruth, Dickel",8.32888,50.98353,"de:5970:60759"
"23561454","Salchendorf (Neunkirchen/Siegerl), Wildener Straße",8.0237,50.7959,"de:5970:61454"
"23561648","Eiserfeld (Siegen), Stollenweg",7.98821,50.82984,"de:5970:61648"
"23561649","Eiserfeld (Siegen), Kindergarten",7.99734,50.82791,"de:5970:61649"
"23561067","Würdinghausen, Marmecker Weg",8.12934,51.08469,"de:5966:61067"
"23561020","Heinsberg (Westf), Bahnhof",8.14789,51.03471,"de:5966:61020"
"23566189","Balde, Friedhof",8.32963,50.99016,"de:5970:66189"
"23561645","Eiserfeld (Siegen), Talsbachstraße",7.99554,50.83131,"de:5970:61645"
"23561646","Eiserfeld (Siegen), Reinhold-Forster-Weg",7.98353,50.83427,"de:5970:61646"
"23561641","Eiserfeld (Siegen), Jugendheim",7.98776,50.83359,"de:5970:61641"
"23567301","Zeppenfeld, Ort",8.02541,50.783,"de:5970:67301"
"23561631","Eiserfeld (Siegen), Freiengründer Straße",7.98962,50.83338,"de:5970:61631"
"23561451","Salchendorf (Neunkirchen/Siegerl), Ludwigseck",8.03029,50.79471,"de:5970:61451"
"23561629","Eiserfeld (Siegen), Eiserfelder Hütte/Frank",8.00264,50.82976,"de:5970:61629"
"23561643","Eiserfeld (Siegen), Kirche",7.99033,50.83383,"de:5970:61643"
"23561633","Eiserfeld (Siegen), Friedhof",7.99705,50.83224,"de:5970:61633"
"23561644","Eiserfeld (Siegen), Kohlenbach",8.00987,50.82736,"de:5970:61644"
"23571504","Niederschelden, Niederschelden Zum Obstgarten",7.98398,50.83608,"de:5970:71504"
"23561022","Heinsberg (Westf), Ludwig",8.15023,51.0395,"de:5966:61022"
"23561626","Eiserfeld (Siegen), Am Siegenstein",8.00543,50.83139,"de:5970:61626"
"23561634","Eiserfeld (Siegen), Gesamtschule",8.00102,50.83322,"de:5970:61634"
"23561640","Eiserfeld (Siegen), In der Hubach 26",8.00673,50.83155,"de:5970:61640"
"23562577","Niederschelden, Altes Rathaus",7.97839,50.83875,"de:5970:62577"
"23567297","Erndtebrück, Bahnhof",8.25527,50.99028,"de:5970:67297"
"80002075","Niederschelden, Bahnhof Niederschelden",7.96551,50.83925,"de:5970:7331"
"23561021","Heinsberg (Westf), GS/Kindergarten",8.1545,51.03877,"de:5966:61021"
"23561637","Eiserfeld (Siegen), Hallenbad",7.98795,50.83808,"de:5970:61637"
"23561627","Eiserfeld (Siegen), Birkenweg",8.01026,50.83139,"de:5970:61627"
"23562164","Erndtebrück, Herrenseifen",8.25297,50.9913,"de:5970:62164"
"23561449","Salchendorf (Neunkirchen/Siegerl), Heinrichsglück",8.03795,50.79519,"de:5970:61449"
"23571507","Niederschelden, Bühlstraße",7.98014,50.84035,"de:5970:71507"
"23562597","Eiserfeld (Siegen), Am Hengsberg",7.99013,50.8394,"de:5970:62597"
"23566023","Eiserfeld (Siegen), Gilbergstraße",7.98795,50.84014,"de:5970:66023"
"23561639","Eiserfeld (Siegen), In der Hubach",8.01234,50.8326,"de:5970:61639"
"23561635","Eiserfeld (Siegen), Gilbergschule",7.98848,50.8404,"de:5970:61635"
"23562575","Niederschelden, Jakobstraße",7.97387,50.84268,"de:5970:62575"
"23571505","Niederschelden, Niederschelden Am Hubenwald",7.97718,50.84297,"de:5970:71505"
"23562574","Niederschelden, Hüttenplatz",7.96648,50.84392,"de:5970:62574"
"23561030","Marmecke, Ort",8.14097,51.07301,"de:5966:61030"
"23562576","Niederschelden, Ortsmitte",7.96895,50.84447,"de:5970:62576"
"23571508","Niederschelden, Gorch-Fock-Straße",7.97724,50.84453,"de:5970:71508"
"23561049","Selbecke (Kirchhundem), Selbecker Weg",8.14193,51.0892,"de:5966:61049"
"23567300","Wiederstein, Ort",8.03939,50.7792,"de:5970:67300"
"23571509","Niederschelden, Heinrichstraße",7.97943,50.84542,"de:5970:71509"
"23566025","Eisern, In der Tal",8.02637,50.83077,"de:5970:66025"
"23571506","Niederschelden, Bogenstraße",7.97465,50.8466,"de:5970:71506"
"23571510","Niederschelden, Waldstraße",7.97672,50.84696,"de:5970:71510"
"23562891","Hemschlar, B 480",8.36994,51.01238,"de:5970:62891"
"23562573","Niederschelden, Hubenfeld Schule",7.98186,50.84718,"de:5970:62573"
"23562578","Niederschelden, Weiher",7.96048,50.84762,"de:5970:62578"
"23561650","Eisern, Alter Friedhof",8.03276,50.82829,"de:5970:61650"
"23561047","Selbecke (Kirchhundem), Selbecke",8.1463,51.0918,"de:5966:61047"
"23561632","Eiserfeld (Siegen), Freiheitsstraße",7.99001,50.84662,"de:5970:61632"
"23560761","Rohrbach (Erndtebrück), Rohrbacher Weg",8.3138,50.99633,"de:5970:60761"
"23561636","Eiserfeld (Siegen), Grabettstraße",7.98934,50.847,"de:5970:61636"
"23561654","Eisern, Rensbachstraße",8.03781,50.82763,"de:5970:61654"
"23562507","Gosenbach, Honigsmund",7.95669,50.8501,"de:5970:62507"
"23566024","Eiserfeld (Siegen), An der Siegtalbrücke",7.99189,50.84969,"de:5970:66024"
"23562525","Eiserfeld (Siegen), Oberer Hengsbacher Weg",8.00874,50.8461,"de:5970:62525"
"23562505","Gosenbach, Gosenbacher Hütte",7.95748,50.85189,"de:5970:62505"
"23561630","Eiserfeld (Siegen), Flußbergstraße",7.99614,50.84966,"de:5970:61630"
"23562158","Zinse, Zinse",8.21247,51.00581,"de:5970:62158"
"23562833","Wilden, Unterwilden Eichertshain",8.05646,50.80414,"de:5970:62833"
"23561653","Eisern, Obersdorfer Straße",8.04387,50.82703,"de:5970:61653"
"23562523","Eiserfeld (Siegen), Christus-Kirche",8.00255,50.84938,"de:5970:62523"
"23562524","Eiserfeld (Siegen), Hengsbachstraße 26",8.00611,50.84968,"de:5970:62524"
"23560760","Rohrbach (Erndtebrück), Rohrbach",8.32731,50.99965,"de:5970:60760"
"23562504","Gosenbach, Ortsmitte",7.9635,50.85509,"de:5970:62504"
"23561048","Selbecke (Kirchhundem), Schade",8.15146,51.09272,"de:5966:61048"
"23561651","Eisern, An der Ahe",8.04888,50.82651,"de:5970:61651"
"23562836","Wilden, Unterwilden Wende",8.06079,50.80532,"de:5970:62836"
"23562522","Niederschelden, Heinrich-Schütz-Straße",7.995,50.85447,"de:5970:62522"
"23562508","Gosenbach, Keppelscher Hof",7.95974,50.85687,"de:5970:62508"
"23562509","Gosenbach, Schule",7.96703,50.8572,"de:5970:62509"
"23562643","Niederschelden, Waldesruh",7.99342,50.85523,"de:5970:62643"
"23562821","Rinsdorf, Im Altenbach",8.05443,50.82378,"de:5970:62821"
"23562500","Gosenbach, Am Johannesberg",7.9693,50.85805,"de:5970:62500"
"23562832","Wilden, Bautenberger Straße",8.06414,50.80635,"de:5970:62832"
"23568712","Siegen, Diakonie Wende",8.01508,50.85086,"de:5970:68712"
"23562535","Niederschelden, In der Dreisbach",7.99341,50.85642,"de:5970:62535"
"23562818","Obersdorf (Siegerland), Wende",8.05011,50.83114,"de:5970:62818"
"23561587","Niederschelden, Bonhoefferstraße",7.99562,50.85658,"de:5970:61587"
"23562510","Gosenbach, Kreuzberg",7.97467,50.85892,"de:5970:62510"
"23562601","Siegen, Siegen Rothenberg Ende",7.98882,50.85785,"de:5970:62601"
"23562539","Siegen, Jung-Stilling-Krankenhaus",8.0186,50.85089,"de:5970:62539"
"23562708","Siegen, Wichernstraße",8.01597,50.85206,"de:5970:62708"
"23562823","Rinsdorf, Post",8.05984,50.82235,"de:5970:62823"
"23567984","Gosenbach, Oberschelder Straße",7.95791,50.85965,"de:5970:67984"
"23562835","Wilden, Unterwilden Struthstraße",8.06739,50.8078,"de:5970:62835"
"23561588","Siegen, Siegen Am Ginsterhang",7.9912,50.85883,"de:5970:61588"
"23590040","Eisern, Faule Birke",8.04385,50.83923,"de:5970:90040"
"23562600","Siegen, Siegen Rothenberg Anfang",7.99419,50.85865,"de:5970:62600"
"23561624","Siegen, Siegen Bergmannsweg",7.9999,50.85779,"de:5970:61624"
"23566026","Siegen, Gewerbegb. Rinsenau",8.01033,50.85545,"de:5970:66026"
"23561623","Siegen, Siegen Eichert Mitte",7.99736,50.85879,"de:5970:61623"
"23562159","Erndtebrück, Elberndorf",8.25447,50.99766,"de:5970:62159"
"23562822","Rinsdorf, Ort",8.06304,50.82247,"de:5970:62822"
"23562502","Gosenbach, Am Stein Mitte",7.97293,50.86189,"de:5970:62502"
"23561578","Siegen, Abzw. Rothenberg",7.99586,50.85985,"de:5970:61578"
"23562621","Siegen, Stadion Reithalle",8.02452,50.85227,"de:5970:62621"
"23560766","Schameder, Unterführung",8.29718,50.99699,"de:5970:60766"
"23562834","Wilden, Unterwilden Nolte",8.07173,50.80928,"de:5970:62834"
"23563521","Wemlighausen, Heiderbrücke",8.41089,51.07135,"de:5970:63521"
"23562598","Siegen, Radschläfe",8.01574,50.8564,"de:5970:62598"
"23562603","Siegen, Siegen Schieferhalde",8.01933,50.85611,"de:5970:62603"
"23562503","Gosenbach, Auf der Alm",7.97445,50.86419,"de:5970:62503"
"23562501","Gosenbach, Am Stein",7.97022,50.8645,"de:5970:62501"
"23561016","Erlhof (Kirchhundem), Erlhof",8.1544,51.09439,"de:5966:61016"
"23561593","Siegen, Siegen AWO-Seniorenzentrum",8.016,50.85786,"de:5970:61593"
"23573494","Siegen, Leimbachtal",8.03285,50.85151,"de:5970:73494"
"23565519","Siegen, Siegen IKEA",8.00148,50.8619,"de:5970:65519"
"23562506","Gosenbach, Haffweg",7.97196,50.8653,"de:5970:62506"
"23562526","Siegen, Hermann-Klaas-Straße",8.01728,50.85953,"de:5970:62526"
"23561580","Achenbach (Siegen), Siegen Achenbacher Furt",7.98946,50.86545,"de:5970:61580"
"23562440","Siegen, Fortunastraße",7.99743,50.86436,"de:5970:62440"
"23562804","Wilden, Mittelwilden Gemeinschaftshaus",8.07746,50.80934,"de:5970:62804"
"23562586","Oberschelden, Gosenbacher Straße",7.95247,50.8663,"de:5970:62586"
"23561582","Siegen, Siegen Im Samelsfeld",7.9844,50.8664,"de:5970:61582"
"23565520","Siegen, Siegen Gewerbepark Heidenberg",7.99857,50.86483,"de:5970:65520"
"23561618","Siegen, Corvinusstraße",8.01997,50.85964,"de:5970:61618"
"23561581","Siegen, In der Engsbach",7.98882,50.86638,"de:5970:61581"
"23562583","Oberschelden, Am Winkel",7.9489,50.86652,"de:5970:62583"
"23565518","Siegen, Wallhausenstraße",8.00299,50.8645,"de:5970:65518"
"23562584","Oberschelden, Dorfwiese",7.94849,50.86699,"de:5970:62584"
"23562587","Oberschelden, Ortsmitte",7.94609,50.86673,"de:5970:62587"
"23562437","Siegen, Siegen Fischerweg",8.01782,50.86114,"de:5970:62437"
"23562521","Siegen, Siegen Heidenberg Schuß",7.99437,50.86649,"de:5970:62521"
"23566029","Bad Berleburg, Königsberger Straße",8.39888,51.0449,"de:5970:66029"
"23562816","Obersdorf (Siegerland), Ort",8.0647,50.83472,"de:5970:62816"
"23562520","Siegen, Siegen Heidenberg",7.99653,50.86686,"de:5970:62520"
"23562585","Oberschelden, Feuerwehrhaus",7.94929,50.86817,"de:5970:62585"
"23561036","Oberhundem, Rinsecker Weg",8.15396,51.08371,"de:5966:61036"
"23562538","Siegen, Jakob-Heinzerling-Straße",8.01682,50.86312,"de:5970:62538"
"23561583","Achenbach (Siegen), Siegen Achenbach Ort",7.98115,50.8694,"de:5970:61583"
"23562805","Wilden, Mittelwilden Klein",8.08333,50.80695,"de:5970:62805"
"23561056","Stelborn, Stelborn",8.15936,51.09917,"de:5966:61056"
"23562593","Siegen, Rabenflugstraße",8.01571,50.86498,"de:5970:62593"
"23560764","Schameder, Abzw. Friedhof",8.29399,51.00041,"de:5970:60764"
"23562564","Siegen, Lessingstraße",8.02764,50.8616,"de:5970:62564"
"23562711","Siegen, Ypernstraße",7.99608,50.86967,"de:5970:62711"
"23562817","Obersdorf (Siegerland), Schule",8.06968,50.83602,"de:5970:62817"
"23562803","Wilnsdorf, Lehnscheid",8.07846,50.82512,"de:5970:62803"
"23561044","Rinsecke, Rinsecke",8.15894,51.07362,"de:5966:61044"
"23562537","Siegen, In der Winchenbach",8.02578,50.86298,"de:5970:62537"
"23563266","Bad Berleburg, Gymnasium",8.39246,51.04994,"de:5970:63266"
"23561584","Siegen, Aehlstraße",8.01537,50.8664,"de:5970:61584"
"23562515","Siegen, Hambergstraße",8.03025,50.86274,"de:5970:62515"
"23562442","Siegen, Friedrich-Friesen-Straße",8.00141,50.87057,"de:5970:62442"
"23567153","Bad Berleburg, Stadtverwaltung",8.39443,51.05455,"de:5970:67153"
"23562790","Wilnsdorf, Bochumer Straße",8.08256,50.82317,"de:5970:62790"
"23561046","Schwartmecke (Kirchhundem), Schwartmecke",8.16596,51.09193,"de:5966:61046"
"23561037","Rinsecke, Panorama-Park",8.17263,51.07007,"de:5966:61037"
"23561033","Oberhundem, Oberhundem",8.17275,51.08582,"de:5966:61033"
"23560752","Birkefehl, Friedhof",8.28694,51.01258,"de:5970:60752"
"23561577","Siegen, Abzw. Johanneshütte",8.00324,50.87153,"de:5970:61577"
"23562589","Siegen, Siegen Oranienhof",8.00048,50.87205,"de:5970:62589"
"23562174","Siegen, Hammerstraße",8.0125,50.86971,"de:5970:62174"
"23562826","Obersdorf (Siegerland), Rödgener Straße",8.07136,50.83997,"de:5970:62826"
"23562599","Siegen, Rosterstraße",8.01659,50.86879,"de:5970:62599"
"23562819","Wilden, Oberwilden Köhlerweg",8.09049,50.80949,"de:5970:62819"
"23561007","Rinsecke, Abzw. Panorama-Park",8.17913,51.07183,"de:5966:61007"
"23560757","Birkelbach (Erndtebrück), Schule",8.26685,51.01507,"de:5970:60757"
"23561035","Oberhundem, Jugendherberge",8.17973,51.07955,"de:5966:61035"
"23562511","Siegen, Grünberger Straße",7.99193,50.87423,"de:5970:62511"
"23562516","Siegen, Hambergstraße Mitte",8.03099,50.86531,"de:5970:62516"
"23562713","Siegen, Ziegenberg",8.00661,50.87217,"de:5970:62713"
"23560753","Birkelbach (Erndtebrück), Bahnhof",8.25233,51.02063,"de:5970:60753"
"23562825","Obersdorf (Siegerland), Rödgen Schalthaus",8.07221,50.84168,"de:5970:62825"
"23562712","Siegen, Ypernstraße Mitte",7.99602,50.87436,"de:5970:62712"
"23562441","Siegen, Friedrich-Wilhelm-Straße",8.03342,50.86525,"de:5970:62441"
"23561590","Siegen, Peipers Halde",8.03648,50.86416,"de:5970:61590"
"23562532","Siegen, Siegen Hubertusweg",8.00615,50.8733,"de:5970:62532"
"23561656","Siegen, Siegen Emmy-Noether-Campus",8.00897,50.87286,"de:5970:61656"
"23560870","Niederndorf (Siegerl), Ort",7.9026,50.86561,"de:5970:60870"
"23561658","Siegen, EKZ Fludersbach",8.03858,50.86422,"de:5970:61658"
"23561043","Rhein-Weser-Turm, Rhein-Weser-Turm",8.19846,51.07247,"de:5966:61043"
"23562792","Wilnsdorf, Essener Straße",8.08937,50.82268,"de:5970:62792"
"23568960","Weuspert, Weuspert",8.03722,51.22217,"de:5966:68960"
"23562438","Siegen, Siegen Fludersbach",8.036,50.86552,"de:5970:62438"
"23562620","Siegen, Sorauer Straße",7.99342,50.87618,"de:5970:62620"
"23562734","Döingen, Döingen",7.82599,50.94128,"de:5966:62734"
"23560867","Niederndorf (Siegerl), Abzw. Dirlenbach",7.90422,50.86678,"de:5970:60867"
"23561586","Siegen, Allensteiner Straße",7.99544,50.87631,"de:5970:61586"
"23562432","Siegen, Siegen Feuerwache",8.03414,50.86677,"de:5970:62432"
"23562612","Siegen, Siegen Seilereiweg",8.04246,50.86348,"de:5970:62612"
"23560869","Niederndorf (Siegerl), Niederndorfer Straße",7.89605,50.86395,"de:5970:60869"
"23562824","Obersdorf (Siegerland), Rödgen Kirche",8.07343,50.8445,"de:5970:62824"
"23562434","Siegen, Siegen Fischbacherberg Wende",8.00226,50.87592,"de:5970:62434"
"23562771","Döingen, Abzw.",7.83352,50.9436,"de:5966:62771"
"23560874","Oberfischbach (Siegerland), Ort",7.91418,50.87114,"de:5970:60874"
"23562517","Siegen, Hambergstraße Anfang",8.02991,50.86911,"de:5970:62517"
"23562435","Siegen, Siegen Fischbacherbergschule",7.99307,50.87754,"de:5970:62435"
"23561591","Siegen, Siegen Am Stadtwald",8.01055,50.87486,"de:5970:61591"
"23562433","Siegen, Fischbacherberg",7.99853,50.87744,"de:5970:62433"
"23580022","Dörnscheid, Meurer",7.84538,50.93923,"de:5966:80022"
"23562710","Siegen, Würgendorfer Straße",8.0394,50.86664,"de:5970:62710"
"23562565","Siegen, Lindenberg Friedhof",8.03336,50.86918,"de:5970:62565"
"23562606","Seelbach (Siegen), Im Wolfseifen",7.96181,50.87982,"de:5970:62606"
"23562582","Siegen, Obergraben",8.01982,50.87356,"de:5970:62582"
"23567359","Siegen, Apollo Theater",8.01802,50.87424,"de:5970:67359"
"23562567","Siegen, Löhrtor",8.02396,50.87277,"de:5970:62567"
"23560872","Oberfischbach (Siegerland), Friedhof",7.91964,50.87444,"de:5970:60872"
"23562513","Siegen, Haigerer Straße",8.04165,50.86701,"de:5970:62513"
"23562607","Seelbach (Siegen), Lilienstraße",7.96547,50.88082,"de:5970:62607"
"23560875","Oberfischbach (Siegerland), Schule",7.91207,50.87291,"de:5970:60875"
"23562735","Dörnscheid, Dörnscheid",7.84819,50.93929,"de:5966:62735"
"23562619","Seelbach (Siegen), Sonnenhangschule",7.96134,50.88093,"de:5970:62619"
"23562772","Rothemühle (Biggetal), Post",7.81819,50.95286,"de:5966:62772"
"23562609","Seelbach (Siegen), Rosenweg",7.96716,50.88126,"de:5970:62609"
"23562611","Seelbach (Siegen), Tulpenweg",7.97031,50.88126,"de:5970:62611"
"23562714","Siegen, ZOB",8.01706,50.87566,"de:5970:62714"
"23561409","Herzhausen (Netphen), Althaus",8.08091,50.9392,"de:5970:61409"
"23562773","Rothemühle (Biggetal), Schule",7.81739,50.95545,"de:5966:62773"
"23562610","Seelbach (Siegen), Schelderberg",7.96343,50.88144,"de:5970:62610"
"23567360","Siegen, Kunstmuseum",8.02309,50.87423,"de:5970:67360"
"23562590","Siegen, Siegen Pestalozzischule",8.04524,50.86646,"de:5970:62590"
"23567361","Siegen, Alte Poststraße",8.02479,50.87398,"de:5970:67361"
"23560871","Niederndorf (Siegerl), Vollmersbach",7.89978,50.86994,"de:5970:60871"
"23573122","Siegen, Schußwende",8.02303,50.87479,"de:5970:73122"
"23562499","Siegen, Gießener Straße",8.04454,50.86733,"de:5970:62499"
"23562436","Siegen, Fischbacherbergstraße",8.01521,50.877,"de:5970:62436"
"23562791","Obersdorf (Siegerland), Wilnsdorf Eremitage",8.06558,50.8566,"de:5970:62791"
"23562779","Vahlberg (Kr Olpe), Vahlberg",7.82097,50.95488,"de:5966:62779"
"23562605","Seelbach (Siegen), Edelweißweg",7.97033,50.88299,"de:5970:62605"
"23562594","Siegen, Rathaus",8.02576,50.87522,"de:5970:62594"
"23562630","Seelbach (Siegen), Bubergstraße 80",7.97536,50.88305,"de:5970:62630"
"23562837","Wilnsdorf, Wagenhalle",8.09925,50.82238,"de:5970:62837"
"23562784","Wilhelmstal (Kr Olpe), Wilhelmsthal",7.84863,50.94411,"de:5966:62784"
"23562566","Siegen, Siegen Lindenberg Sportplatz",8.04604,50.86831,"de:5970:62566"
"23562706","Siegen, Wellersbergstraße",8.01588,50.87824,"de:5970:62706"
"23560852","Heisberg, Heisberg",7.92717,50.87963,"de:5970:60852"
"23573037","Wilnsdorf, Grundschule",8.10387,50.81206,"de:5970:73037"
"23560950","Ruckersfeld, Fischer",8.11757,50.95625,"de:5970:60950"
"23562780","Vahlberg (Kr Olpe), Ort",7.82402,50.95556,"de:5966:62780"
"23561413","Herzhausen (Netphen), Schule",8.08554,50.94502,"de:5970:61413"
"23562568","Siegen, Marburger Straße",8.02752,50.87606,"de:5970:62568"
"23562766","Ottfingen, Trafo",7.84638,50.94754,"de:5966:62766"
"23560618","Burbach (Siegerl), Ort",8.0812,50.7459,"de:5970:60618"
"23562604","Siegen, Schützenstraße",8.00836,50.88105,"de:5970:62604"
"23562893","Wilnsdorf, Buswende",8.10438,50.81591,"de:5970:62893"
"23572459","Siegen, Am Kulmberg",8.00897,50.88113,"de:5970:72459"
"23562629","Trupbach, Bubergstraße 54",7.97853,50.88486,"de:5970:62629"
"23562846","Wilnsdorf, Zollhaus",8.10633,50.81187,"de:5970:62846"
"23562569","Siegen, Marburger Tor",8.02978,50.87653,"de:5970:62569"
"23562820","Wilnsdorf, Ortsanfang",8.10258,50.82305,"de:5970:62820"
"23562627","Trupbach, Am Buberg",7.97821,50.88529,"de:5970:62627"
"23562554","Kaan-Marienborn, Steilstraße",8.05874,50.86493,"de:5970:62554"
"23562544","Kaan-Marienborn, Föhrenweg 26/28",8.0566,50.86636,"de:5970:62544"
"23562514","Siegen, Hainer Hütte",8.03184,50.87665,"de:5970:62514"
"23561605","Siegen, Blücherstraße",8.01761,50.88085,"de:5970:61605"
"23562548","Kaan-Marienborn, Lindenbergstraße 9",8.05739,50.86671,"de:5970:62548"
"23560949","Ruckersfeld, Ruckersfeld",8.11467,50.95957,"de:5970:60949"
"23562801","Wilnsdorf, In der Struth",8.10889,50.80937,"de:5970:62801"
"23562541","Kaan-Marienborn, Am Langen 21",8.06133,50.86477,"de:5970:62541"
"23562757","Hünsborn, Ortsausgang",7.88582,50.93896,"de:5966:62757"
"23561655","Siegen, Emilienstraße",8.0248,50.87944,"de:5970:61655"
"23562626","Siegen, Blauwunderstraße",8.0212,50.88041,"de:5970:62626"
"23562534","Siegen, Siegen Im Stummefeld",7.9989,50.8848,"de:5970:62534"
"23562815","Oberdielfen, Ort",8.09401,50.83981,"de:5970:62815"
"23562802","Wilnsdorf, Kalteiche",8.11029,50.80749,"de:5970:62802"
"23560853","Heisberg, Heisberger Höhe",7.93097,50.88392,"de:5970:60853"
"23562628","Trupbach, Bubergstraße 18",7.98285,50.88673,"de:5970:62628"
"23562543","Kaan-Marienborn, Bahnhof",8.05478,50.86897,"de:5970:62543"
"23573034","Oberdielfen, Schule",8.0936,50.84073,"de:5970:73034"
"23562546","Kaan-Marienborn, Grimbergstraße",8.06163,50.8656,"de:5970:62546"
"23562542","Kaan-Marienborn, Am Langen 47",8.06427,50.86421,"de:5970:62542"
"23562552","Kaan-Marienborn, Rödger Straße",8.05801,50.86776,"de:5970:62552"
"23562623","Siegen, Steubenstraße",8.00858,50.88398,"de:5970:62623"
"23562581","Siegen, Obenstruthstraße",8.02122,50.8813,"de:5970:62581"
"23566019","Seelbach (Siegen), Alcher Straße",7.95875,50.88736,"de:5970:66019"
"23560847","Dirlenbach, Ort",7.89283,50.87389,"de:5970:60847"
"23562844","Wilnsdorf, Zentrum",8.10819,50.8188,"de:5970:62844"
"23562555","Kaan-Marienborn, Unter dem Walde",8.06396,50.86499,"de:5970:62555"
"23562814","Oberdielfen, Bruchwiese",8.09282,50.84307,"de:5970:62814"
"23562602","Siegen, Saarbrücker Straße",8.01863,50.88233,"de:5970:62602"
"23562536","Siegen, Siegen In der Heinbach",7.99892,50.88603,"de:5970:62536"
"23561616","Siegen, Siegen Bürbacher Weg",8.03367,50.8785,"de:5970:61616"
"23562528","Siegen, Siegen Hirtenkamp",7.99519,50.88682,"de:5970:62528"
"23562556","Siegen, Köpfchenstraße",8.02099,50.88255,"de:5970:62556"
"23562570","Siegen, Marienkrankenhaus",8.03033,50.88004,"de:5970:62570"
"23562636","Trupbach, Kreuzung",7.98468,50.88823,"de:5970:62636"
"23561435","Unglinghausen, Morgensonne",8.06256,50.9422,"de:5970:61435"
"23562765","Ottfingen, Berker",7.84175,50.95411,"de:5966:62765"
"23561412","Herzhausen (Netphen), Mitte",8.08286,50.94931,"de:5970:61412"
"23561622","Siegen, Siegen DRK-Kinderklinik",8.01842,50.8838,"de:5970:61622"
"23580105","Trupbach, Schützenhaus",7.98644,50.88865,"de:5970:80105"
"23562733","Brün (Kr Olpe), Brün",7.82646,50.96224,"de:5966:62733"
"23561436","Unglinghausen, Ort",8.05995,50.9442,"de:5970:61436"
"23560865","Niederheuslingen, In der Remschlade",7.91292,50.88245,"de:5970:60865"
"23562806","Niederdielfen, Am Buchen",8.09052,50.84893,"de:5970:62806"
"23562527","Siegen, Siegen Hermelsbacher Friedhof",8.00902,50.88636,"de:5970:62527"
"23562635","Trupbach, In der Parbach",7.97847,50.88974,"de:5970:62635"
"23571511","Siegen, Hohler Weg",8.03264,50.88079,"de:5970:71511"
"23562622","Siegen, Steinstraße",8.03599,50.87982,"de:5970:62622"
"23562580","Trupbach, Numbachstraße",7.99226,50.88895,"de:5970:62580"
"23566021","Kaan-Marienborn, Eisenhüttenstraße",8.05402,50.87314,"de:5970:66021"
"23561617","Siegen, Siegen Bürbacher Weg Mitte",8.03837,50.87928,"de:5970:61617"
"23562631","Trupbach, Ortsmitte",7.98479,50.88976,"de:5970:62631"
"23562549","Kaan-Marienborn, Lothar-Irle-Straße",8.06189,50.86958,"de:5970:62549"
"23560818","Alchen, Haas",7.95324,50.89004,"de:5970:60818"
"23562639","Trupbach, Walzenweg",7.9918,50.88946,"de:5970:62639"
"23562634","Trupbach, Wickersbacher Weg",7.97695,50.8906,"de:5970:62634"
"23562754","Hünsborn, Im Streitfeld",7.88772,50.9427,"de:5966:62754"
"23561410","Herzhausen (Netphen), Dirlenbacher Weg",8.08214,50.95265,"de:5970:61410"
"23560848","Dirlenbach, Siedlung",7.88606,50.87521,"de:5970:60848"
"23562547","Kaan-Marienborn, Hauptstraße",8.05069,50.87555,"de:5970:62547"
"23561437","Unglinghausen, Reber",8.05688,50.94552,"de:5970:61437"
"23562813","Niederdielfen, Zum Mühlenweiher",8.08594,50.85517,"de:5970:62813"
"23590044","Schöndelt, Schöndelt",8.10235,51.1946,"de:5966:90044"
"23562750","Hillmicke, Wende",7.81576,50.97627,"de:5966:62750"
"23561607","Siegen, Siegen Brüderweg",8.04381,50.87873,"de:5970:61607"
"23562809","Niederdielfen, Dielfestraße",8.09051,50.85188,"de:5970:62809"
"23562812","Niederdielfen, Wilhelm",8.08121,50.85932,"de:5970:62812"
"23562637","Trupbach, Scheidweg",7.97936,50.89139,"de:5970:62637"
"23562709","Siegen, Wittgensteiner Straße",8.03986,50.88033,"de:5970:62709"
"23561657","Siegen, Falkstraße",8.03795,50.88121,"de:5970:61657"
"23562808","Niederdielfen, Brücke",8.09093,50.85218,"de:5970:62808"
"23562624","Siegen, Südstraße",8.0414,50.88014,"de:5970:62624"
"23577526","Trupbach, Libellenweg",7.97709,50.89184,"de:5970:77526"
"23562632","Trupbach, Eichenweg",7.98216,50.89161,"de:5970:62632"
"23562595","Siegen, Rathenaustraße",8.04511,50.87887,"de:5970:62595"
"23573033","Niederdielfen, Grundschule",8.08711,50.85586,"de:5970:73033"
"23562810","Niederdielfen, Realschule",8.08692,50.8561,"de:5970:62810"
"23562592","Siegen, Porschestraße",8.0292,50.88443,"de:5970:62592"
"23562782","Wendenerhütte, Wendenerhütte",7.82725,50.97024,"de:5966:62782"
"23560864","Niederheuslingen, Niederheuslingen",7.9126,50.88598,"de:5970:60864"
"23566022","Kaan-Marienborn, Gewerbegbiet Weißtal",8.06785,50.86952,"de:5970:66022"
"23561589","Siegen, Am Haardtchen",8.02374,50.88629,"de:5970:61589"
"23561592","Siegen, Siegen An der Allee",8.02101,50.88714,"de:5970:61592"
"23562519","Siegen, Haroldstraße",8.02296,50.88709,"de:5970:62519"
"23562831","Wilnsdorf, Sportplatz",8.11491,50.82545,"de:5970:62831"
"23561597","Siegen, Biedenkopfer Straße",8.03983,50.88287,"de:5970:61597"
"23562800","Wilnsdorf, Gymnasium",8.11668,50.82256,"de:5970:62800"
"23562807","Niederdielfen, Auf der Weiß",8.07929,50.86497,"de:5970:62807"
"23562531","Siegen, Hofgutstraße",8.02351,50.88813,"de:5970:62531"
"23562613","Siegen, Siemensstraße",8.04545,50.88161,"de:5970:62613"
"23561595","Siegen, Berleburger Straße",8.04376,50.8826,"de:5970:61595"
"23562638","Trupbach, Trupbacher Straße",7.98171,50.89466,"de:5970:62638"
"23561236","Oberhees, Oberhees",7.93508,50.94003,"de:5970:61236"
"23561434","Unglinghausen, Dorfstraße",8.05488,50.94963,"de:5970:61434"
"23562545","Kaan-Marienborn, Freibad",8.06665,50.8738,"de:5970:62545"
"23561414","Herzhausen (Netphen), Siedlung",8.08346,50.95928,"de:5970:61414"
"23562681","Siegen, Kolpingstraße Wende",8.03585,50.88628,"de:5970:62681"
"23571512","Kaan-Marienborn, Am Ellenberg",8.06433,50.87588,"de:5970:71512"
"23562645","Siegen, Siegen Wallauer Weg",8.04335,50.88446,"de:5970:62645"
"23562498","Siegen, Giersberg Schule",8.04299,50.88509,"de:5970:62498"
"23560878","Oberheuslingen, Post",7.90945,50.88976,"de:5970:60878"
"23560859","Lindenberg (Siegerland), Steinbruch",7.93362,50.89485,"de:5970:60859"
"23562811","Niederdielfen, Weißtalwerk",8.09917,50.85501,"de:5970:62811"
"23560820","Alchen, In der Thalen",7.94645,50.89679,"de:5970:60820"
"23562751","Hillmicke, Siedlung",7.82152,50.975,"de:5966:62751"
"23561614","Bürbach, Studentenwohnheim",8.04875,50.88446,"de:5970:61614"
"23562633","Trupbach, Im Hannesmännchen",7.982,50.89767,"de:5970:62633"
"23562701","Weidenau (Siegen), Untere Rolandstraße",8.03083,50.89014,"de:5970:62701"
"23562672","Weidenau (Siegen), Henry-Dunant-Haus",8.02519,50.89158,"de:5970:62672"
"23562497","Siegen, Bertha-von-Suttner-Gesamtschule",8.03913,50.88783,"de:5970:62497"
"23562644","Siegen, Waldorfschule",8.04024,50.88757,"de:5970:62644"
"23562704","Weidenau (Siegen), Welterstraße",8.03288,50.88997,"de:5970:62704"
"23562692","Weidenau (Siegen), Samuel-Frank-Straße",8.0348,50.88978,"de:5970:62692"
"23562666","Weidenau (Siegen), Försterstraße",8.03623,50.88959,"de:5970:62666"
"23562691","Weidenau (Siegen), Polizei",8.02835,50.89191,"de:5970:62691"
"23562783","Wendenerhütte, EMG",7.826,50.97259,"de:5966:62783"
"23560877","Oberheuslingen, Im Grund",7.91282,50.8932,"de:5970:60877"
"23562655","Weidenau (Siegen), Breitestraße",8.0305,50.89184,"de:5970:62655"
"23562661","Weidenau (Siegen), Ewald-Rübsamen-Weg",8.04095,50.88904,"de:5970:62661"
"23560876","Oberheuslingen, Am Bruch",7.90861,50.89245,"de:5970:60876"
"23562648","Weidenau (Siegen), Am Hirschberg",8.03867,50.89007,"de:5970:62648"
"23562640","Trupbach, Wende",7.98283,50.9,"de:5970:62640"
"23562696","Weidenau (Siegen), Sodingenstraße",8.04238,50.8894,"de:5970:62696"
"23561102","Buschhütten, Wagenhalle",8.0007,50.94137,"de:5970:61102"
"23561438","Unglinghausen, Wende",8.05437,50.95258,"de:5970:61438"
"23561174","Kreuztal (Siegerland), Heestalhof",7.94234,50.94313,"de:5970:61174"
"23560821","Alchen, Ort",7.94504,50.8998,"de:5970:60821"
"23562654","Weidenau (Siegen), Bismarckplatz",8.02477,50.89469,"de:5970:62654"
"23560879","Oberheuslingen, Zeitenbach",7.91759,50.89587,"de:5970:60879"
"23561611","Bürbach, Friedhof",8.05352,50.88627,"de:5970:61611"
"23565684","Weidenau (Siegen), Ringstraße",8.03675,50.89239,"de:5970:65684"
"23562649","Weidenau (Siegen), Am Johannesseifen",8.04497,50.89014,"de:5970:62649"
"23562785","Flammersbach (Siegerland), Abzw.",8.10387,50.85793,"de:5970:62785"
"23561612","Bürbach, Hainbornstraße",8.06123,50.88442,"de:5970:61612"
"23560815","Alchen, Bühler Straße",7.9414,50.90074,"de:5970:60815"
"23562614","Bürbach, Silberfuchs",8.04765,50.88968,"de:5970:62614"
"23561411","Herzhausen (Netphen), Hof Maustal",8.09008,50.96572,"de:5970:61411"
"23562732","Wenden (Sauerl), Berghof",7.88084,50.95489,"de:5966:62732"
"23561615","Bürbach, Ortsmitte",8.05751,50.88687,"de:5970:61615"
"23561100","Buschhütten, Molzkaute",7.99837,50.94461,"de:5970:61100"
"23561097","Buschhütten, Hüttenstraße",7.99881,50.94685,"de:5970:61097"
"23562679","Weidenau (Siegen), Känerbergstraße",8.03452,50.89486,"de:5970:62679"
"23567303","Weidenau (Siegen), ZOB",8.02858,50.89642,"de:5970:67303"
"23560860","Lindenberg (Siegerland), Weiher",7.92492,50.89996,"de:5970:60860"
"23562702","Weidenau (Siegen), Vogelsang",8.03948,50.89391,"de:5970:62702"
"23562653","Weidenau (Siegen), Bäckerstraße",8.03191,50.89624,"de:5970:62653"
"23560910","Allenbach (Kr Siegen), Abzw. Ruckersfeld",8.0951,50.97225,"de:5970:60910"
"23562660","Weidenau (Siegen), Ev. Gymnasium",8.02111,50.89896,"de:5970:62660"
"23561231","Mittelhees, Mittelhees",7.94993,50.94652,"de:5970:61231"
"23562694","Weidenau (Siegen), Schultestraße",8.0458,50.89272,"de:5970:62694"
"23562669","Weidenau (Siegen), Haardter Brücke",8.02741,50.89803,"de:5970:62669"
"23562674","Weidenau (Siegen), Hofstraße",8.03338,50.89658,"de:5970:62674"
"23560822","Alchen, Waldweg/Im Seifen",7.94851,50.90395,"de:5970:60822"
"23560816","Alchen, Eckenweg",7.93859,50.90325,"de:5970:60816"
"23562697","Weidenau (Siegen), Stockfriedhof",8.03954,50.89528,"de:5970:62697"
"23562687","Weidenau (Siegen), Morgenstraße",8.04295,50.89436,"de:5970:62687"
"23562794","Flammersbach (Siegerland), Post",8.10387,50.86332,"de:5970:62794"
"23561604","Birlenbach (Siegen), Birlenbacher Schule",7.98828,50.90465,"de:5970:61604"
"23561598","Birlenbach (Siegen), Am Nöchel",7.98971,50.90461,"de:5970:61598"
"23561579","Volnsberg, Volnsberg Abzw.",8.08493,50.87686,"de:5970:61579"
"23562677","Weidenau (Siegen), Im Kalten Born",8.04578,50.89425,"de:5970:62677"
"23560885","Plittershagen, Löcherbacher Weg",7.85905,50.88089,"de:5970:60885"
"23562667","Weidenau (Siegen), Friedrich-Flender-Platz",8.03283,50.8983,"de:5970:62667"
"23562786","Anzhausen, Am Scheidt",8.11273,50.85744,"de:5970:62786"
"23562446","Geisweid, Am Grünen Hang 7",8.00196,50.90416,"de:5970:62446"
"23561599","Birlenbach (Siegen), An den Weiden",7.98534,50.90575,"de:5970:61599"
"23573030","Flammersbach (Siegerland), Kindergarten",8.10514,50.86455,"de:5970:73030"
"23561600","Birlenbach (Siegen), Ortsmitte",7.99036,50.90564,"de:5970:61600"
"23562695","Weidenau (Siegen), Schultestraße Mitte",8.04927,50.89398,"de:5970:62695"
"23562652","Weidenau (Siegen), Auf den Hütten",8.03155,50.89912,"de:5970:62652"
"23562455","Geisweid, Hüttentalschule",8.00413,50.90432,"de:5970:62455"
"23560819","Alchen, Im Mertenseifen",7.93885,50.90501,"de:5970:60819"
"23561613","Bürbach, Obere Dorfstraße",8.05992,50.8905,"de:5970:61613"
"23560886","Plittershagen, Ort",7.85959,50.88263,"de:5970:60886"
"23562670","Weidenau (Siegen), Hagedornweg",8.04416,50.89614,"de:5970:62670"
"23562656","Weidenau (Siegen), Brückenstraße",8.02464,50.9012,"de:5970:62656"
"23562642","Volnsberg, Vor dem Steinchen",8.08447,50.87927,"de:5970:62642"
"23562676","Weidenau (Siegen), Im Hainchen",8.04927,50.89459,"de:5970:62676"
"23562493","Geisweid, Zeppelinstraße Anfang",8.00378,50.90484,"de:5970:62493"
"23561603","Birlenbach (Siegen), Siedlung",7.98531,50.90695,"de:5970:61603"
"23562540","Weidenau (Siegen), Jung-Stilling-Schule",8.04714,50.89581,"de:5970:62540"
"23561601","Birlenbach (Siegen), Ort",7.98264,50.90718,"de:5970:61601"
"23562658","Weidenau (Siegen), Dicke Eiche",8.05198,50.89429,"de:5970:62658"
"23562641","Volnsberg, Volnsberg",8.08011,50.88254,"de:5970:62641"
"23562492","Geisweid, Zeppelinstraße 74",8.01065,50.90474,"de:5970:62492"
"23562698","Weidenau (Siegen), Stockweg",8.05054,50.89526,"de:5970:62698"
"23560887","Freudenberg (Siegerland), Plittershagener Berg",7.87398,50.89075,"de:5970:60887"
"23562445","Geisweid, Am Grünen Hang 31",8.00201,50.90629,"de:5970:62445"
"23562494","Geisweid, Zeppelinstraße Mitte",8.00669,50.90571,"de:5970:62494"
"23561224","Kreuztal (Siegerland), Liesewaldstraße 95",8.0039,50.94815,"de:5970:61224"
"23562664","Weidenau (Siegen), FJM-Gymnasium",8.01956,50.90374,"de:5970:62664"
"23590043","Wiebelhausen, Wiebelhausen",8.08876,51.18624,"de:5966:90043"
"23562686","Weidenau (Siegen), Margeritenweg",8.0433,50.89823,"de:5970:62686"
"23562463","Geisweid, Gerberstraße",8.00433,50.90636,"de:5970:62463"
"23560858","Lindenberg (Siegerland), Lederbach",7.92272,50.90482,"de:5970:60858"
"23562887","Weidenau (Siegen), Christus Kirche",8.04678,50.89737,"de:5970:62887"
"23562477","Geisweid, Reckhammerstraße",8.00675,50.90642,"de:5970:62477"
"23562682","Weidenau (Siegen), Krankenhaus",8.01931,50.9044,"de:5970:62682"
"23562471","Geisweid, Berufsbildungszentrum",8.01096,50.90584,"de:5970:62471"
"23562468","Geisweid, Ludwig-Kenter-Str.",8.00756,50.9064,"de:5970:62468"
"23562596","Geisweid, Real-/Hauptschule Schießberg",7.99329,50.90808,"de:5970:62596"
"23562563","Langenholdinghausen, Wildweg",7.98377,50.90878,"de:5970:62563"
"23562659","Weidenau (Siegen), Engsbachstraße",8.03724,50.90059,"de:5970:62659"
"23562793","Flammersbach (Siegerland), Ort",8.11191,50.86398,"de:5970:62793"
"23562689","Weidenau (Siegen), P+R Ferndorfbrücke",8.01658,50.90574,"de:5970:62689"
"23561602","Langenholdinghausen, Buchtal",7.97605,50.90979,"de:5970:61602"
"23562769","Wenden (Sauerl), Rehberg",7.83677,50.97637,"de:5966:62769"
"23562699","Weidenau (Siegen), Tiefenbacher Straße",8.05325,50.89666,"de:5970:62699"
"23562474","Geisweid, Birlenbacher Straße 60",8.00132,50.90823,"de:5970:62474"
"23562678","Weidenau (Siegen), Jung-Stilling-Straße",8.04138,50.90043,"de:5970:62678"
"23562690","Weidenau (Siegen), P+R Kirche",8.01378,50.90657,"de:5970:62690"
"23560828","Bottenberg, Bottenberg",7.89883,50.90133,"de:5970:60828"
"23562668","Weidenau (Siegen), Grube Neue Haardt",8.0229,50.90502,"de:5970:62668"
"23562456","Geisweid, Breitscheidstraße",8.01004,50.90734,"de:5970:62456"
"23562685","Weidenau (Siegen), Magnolienweg",8.04467,50.89979,"de:5970:62685"
"23562788","Anzhausen, Ortsanfang",8.12014,50.85811,"de:5970:62788"
"23562561","Langenholdinghausen, Mühle",7.97669,50.91052,"de:5970:62561"
"23562481","Geisweid, Technologiezentrum",8.00672,50.90823,"de:5970:62481"
"23562467","Langenholdinghausen, Hofbachstraße",7.98199,50.91068,"de:5970:62467"
"23562684","Weidenau (Siegen), Lohweg",8.04594,50.90048,"de:5970:62684"
"23562454","Geisweid, Hofbachstadion",7.99245,50.91046,"de:5970:62454"
"23562663","Weidenau (Siegen), Firma Fuchs",8.03556,50.90352,"de:5970:62663"
"23562450","Geisweid, Am Sportplatz",8.00004,50.90997,"de:5970:62450"
"23562671","Weidenau (Siegen), Hainbuchenweg",8.04868,50.90009,"de:5970:62671"
"23562447","Geisweid, Am Kindergarten",8.00435,50.90965,"de:5970:62447"
"23562650","Weidenau (Siegen), Am Kornberg",8.05059,50.89965,"de:5970:62650"
"23560957","Vormwald (ü Kreuztal), Schreiberg",8.12483,50.99148,"de:5970:60957"
"23562789","Anzhausen, Ortsausgang",8.12497,50.85614,"de:5970:62789"
"23562705","Weidenau (Siegen), Wilhelm-von-Humboldt-Platz",8.03016,50.90548,"de:5970:62705"
"23562675","Weidenau (Siegen), Uni (H) Hölderlinstraße",8.02783,50.90601,"de:5970:62675"
"23562647","Weidenau (Siegen), Am Eichenhang",8.0321,50.90521,"de:5970:62647"
"23560825","Freudenberg (Siegerland), EKZ Silberstern",7.87433,50.8958,"de:5970:60825"
"23573029","Anzhausen, Grundschule",8.12459,50.85738,"de:5970:73029"
"23560829","Bottenberg, Bottenberger Höhe",7.89536,50.90287,"de:5970:60829"
"23567993","Wenden (Sauerl), Bergstraße-Kreisel",7.86434,50.96659,"de:5966:67993"
"23562646","Weidenau (Siegen), Albrecht-Dürer-Straße",8.02604,50.90705,"de:5970:62646"
"23562476","Geisweid, P+R Birlenbacher Straße",8.01365,50.90949,"de:5970:62476"
"23561218","Kreuztal (Siegerland), Liesewald",7.9982,50.951,"de:5970:61218"
"23562559","Langenholdinghausen, Auf dem Bruch",7.96428,50.9132,"de:5970:62559"
"23562560","Langenholdinghausen, Ortsmitte",7.97014,50.91335,"de:5970:62560"
"23562469","Geisweid, Kiefernweg",7.99881,50.91194,"de:5970:62469"
"23560826","Freudenberg (Siegerland), Bahnhofstraße",7.87792,50.89845,"de:5970:60826"
"23562703","Weidenau (Siegen), Zur alten Burg",8.04995,50.90197,"de:5970:62703"
"23562657","Weidenau (Siegen), Brucknerweg",8.02371,50.90873,"de:5970:62657"
"23560850","Freudenberg (Siegerland), Grundschule",7.87043,50.89618,"de:5970:60850"
"23562461","Geisweid, Friesenhalle",8.00862,50.91128,"de:5970:62461"
"23560866","Niederholzklau, Niederholzklau",7.94782,50.91334,"de:5970:60866"
"23562491","Geisweid, Wenscht Süd",8.00233,50.91238,"de:5970:62491"
"23562683","Weidenau (Siegen), Einheitsstraße 14",8.03686,50.90637,"de:5970:62683"
"23560890","Freudenberg (Siegerland), Siegener Straße",7.88141,50.90094,"de:5970:60890"
"23562760","Wenden (Sauerl), Hünsborner Straße",7.87171,50.96622,"de:5966:62760"
"23562482","Geisweid, Schwanenteich",7.99529,50.91363,"de:5970:62482"
"23562700","Weidenau (Siegen), Uni (AR) Robert-Schumann-Straße",8.02649,50.90922,"de:5970:62700"
"23560849","Freudenberg (Siegerland), Friedhof",7.86973,50.89725,"de:5970:60849"
"23562485","Geisweid, Stahlwerke",8.0131,50.91184,"de:5970:62485"
"23560884","Freudenberg (Siegerland), Freudenberg Olper Straße",7.88323,50.90222,"de:5970:60884"
"23562444","Geisweid, Albert-Nöll-Straße",8.00202,50.91344,"de:5970:62444"
"23562651","Weidenau (Siegen), Andreas-Schlüter-Straße",8.03053,50.90876,"de:5970:62651"
"23562562","Langenholdinghausen, Abzw. Holzklaustraße",7.97037,50.91538,"de:5970:62562"
"23560824","Freudenberg (Siegerland), Altenzentrum",7.86354,50.89519,"de:5970:60824"
"23562762","Möllmicke, Ort",7.85344,50.97354,"de:5966:62762"
"23562490","Geisweid, Waldschule",7.99818,50.91426,"de:5970:62490"
"23560891","Freudenberg (Siegerland), Wilhelmshöhe",7.90756,50.90934,"de:5970:60891"
"23562484","Geisweid, Sportplatz",7.99313,50.91501,"de:5970:62484"
"23560836","Büschergrund, Anstoß",7.8936,50.90615,"de:5970:60836"
"23562483","Geisweid, Rathaus",8.0105,50.91306,"de:5970:62483"
"23562662","Weidenau (Siegen), Industriestraße 11",8.0354,50.90874,"de:5970:62662"
"23560830","Freudenberg (Siegerland), Freudenberg Bottenberger Weg",7.89995,50.90828,"de:5970:60830"
"23562462","Geisweid, Fuchsweg",7.99546,50.91536,"de:5970:62462"
"23562458","Geisweid, Lehmkule",8.00356,50.91472,"de:5970:62458"
"23560837","Büschergrund, Anstoßer Mühle",7.88772,50.90537,"de:5970:60837"
"23562489","Geisweid, Ulmenweg",7.99108,50.91623,"de:5970:62489"
"23560894","Freudenberg (Siegerland), Möbel Zimmermann",7.91204,50.9117,"de:5970:60894"
"23560823","Freudenberg (Siegerland), Alte Heide",7.85445,50.8934,"de:5970:60823"
"23562473","Geisweid, Markt",8.01041,50.91463,"de:5970:62473"
"23561178","Junkernhees, Schloss",7.95808,50.95109,"de:5970:61178"
"23573099","Weidenau (Siegen), Uni (AR) Adolf-Reichwein-Straße",8.02512,50.91245,"de:5970:73099"
"23560857","Freudenberg (Siegerland), Lagemannstraße",7.86222,50.89747,"de:5970:60857"
"23562673","Weidenau (Siegen), Herrenwiese",8.03533,50.91046,"de:5970:62673"
"23562478","Geisweid, Ruhrststraße",8.00715,50.9156,"de:5970:62478"
"23560839","Büschergrund, Buchenstraße",7.89112,50.9077,"de:5970:60839"
"23562460","Geisweid, Friedlandstraße",8.00046,50.91662,"de:5970:62460"
"23561389","Dreis-Tiefenbach, Weidenauer Straße",8.05558,50.90524,"de:5970:61389"
"23561223","Kreuztal (Siegerland), Liesewaldstraße 45",8.00024,50.95249,"de:5970:61223"
"23562707","Geisweid, Wenscht Schule",7.99189,50.91757,"de:5970:62707"
"23562529","Langenholdinghausen, Abzw. Am Altenberg",7.9689,50.91877,"de:5970:62529"
"23590042","Permecke, Permecke",8.07957,51.18405,"de:5966:90042"
"23560827","Freudenberg (Siegerland), Bethesda Krankenhaus",7.86451,50.8999,"de:5970:60827"
"23561387","Dreis-Tiefenbach, Reichspfad Wende",8.05289,50.90721,"de:5970:61387"
"23561606","Breitenbach (Siegen), Kapelle",8.09422,50.89027,"de:5970:61606"
"23561383","Dreis-Tiefenbach, Lerchenweg",8.05519,50.90672,"de:5970:61383"
"23560831","Freudenberg (Siegerland), Freudenberg Bruchwald",7.85245,50.89533,"de:5970:60831"
"23562480","Geisweid, Thymianweg",8.00615,50.91748,"de:5970:62480"
"23562457","Geisweid, ZOB",8.01246,50.91668,"de:5970:62457"
"23560832","Bühl (Siegerland), Hof Löw",7.91302,50.91544,"de:5970:60832"
"23560834","Bühl (Siegerland), Ort",7.92361,50.91751,"de:5970:60834"
"23562475","Geisweid, Otto-Brenner-Platz",7.99052,50.92036,"de:5970:62475"
"23560841","Büschergrund, Grundschule",7.88521,50.90946,"de:5970:60841"
"23560844","Büschergrund, Schulzentrum",7.88485,50.90953,"de:5970:60844"
"23560846","Büschergrund, Triftstraße",7.89014,50.9111,"de:5970:60846"
"23560888","Freudenberg (Siegerland), Schlagsberg",7.86768,50.90382,"de:5970:60888"
"23562459","Geisweid, Freibad",7.99769,50.92014,"de:5970:62459"
"23560835","Bühl (Siegerland), Unter der Heide",7.92007,50.91785,"de:5970:60835"
"23560833","Bühl (Siegerland), Kreuztaler Straße",7.92447,50.91865,"de:5970:60833"
"23560840","Büschergrund, Büschen",7.89051,50.91198,"de:5970:60840"
"23560932","Allenbach (Kr Siegen), Haarhausen Ort",8.10085,50.98298,"de:5970:60932"
"23562479","Geisweid, Geisweider Schule",8.00534,50.92014,"de:5970:62479"
"23562453","Geisweid, Marktstraße",8.01237,50.91953,"de:5970:62453"
"23562451","Geisweid, Bergstraße",8.01323,50.91974,"de:5970:62451"
"23562452","Geisweid, Spielplatz Bergstraße",8.00822,50.92064,"de:5970:62452"
"23560843","Büschergrund, Lärchenweg",7.88737,50.91223,"de:5970:60843"
"23560845","Büschergrund, Sonderschule",7.89046,50.91311,"de:5970:60845"
"23573493","Langenholdinghausen, Löwenhof",7.96382,50.92365,"de:5970:73493"
"23562464","Geisweid, Gottfried-Keller-Straße",8.00659,50.92161,"de:5970:62464"
"23562466","Geisweid, Hebbelstraße West",8.00574,50.92255,"de:5970:62466"
"23561386","Dreis-Tiefenbach, Ost",8.07156,50.90714,"de:5970:61386"
"23562470","Geisweid, Langenbachtal",7.99696,50.92369,"de:5970:62470"
"23562761","Möllmicke, Mühle",7.85968,50.97265,"de:5966:62761"
"23562465","Geisweid, Hebbelstraße Nord",8.00923,50.92289,"de:5970:62465"
"23560911","Allenbach (Kr Siegen), Bahnhof",8.0909,50.97848,"de:5970:60911"
"23560881","Oberholzklau, Buschebornweg",7.93084,50.92343,"de:5970:60881"
"23562488","Geisweid, Stormstraße 47",8.00553,50.9238,"de:5970:62488"
"23561376","Dreis-Tiefenbach, Auf der Au",8.07677,50.90704,"de:5970:61376"
"23560838","Bockseifen, Büschergrund Bockseifen",7.88617,50.91557,"de:5970:60838"
"23562486","Geisweid, Stormstraße 17",8.00744,50.92425,"de:5970:62486"
"23561388","Dreis-Tiefenbach, Telekom/Siegener Zeitung",8.06853,50.91026,"de:5970:61388"
"23562487","Geisweid, Stormstraße 29/31",8.00497,50.9246,"de:5970:62487"
"23561177","Junkernhees, Ort",7.96224,50.95252,"de:5970:61177"
"23561620","Dillnhütten, Reuter",8.01242,50.9239,"de:5970:61620"
"23562763","Möllmicke, Schulbushaltestelle",7.85646,50.97433,"de:5966:62763"
"23560882","Oberholzklau, Kirche",7.93631,50.92598,"de:5970:60882"
"23562530","Langenholdinghausen, Hof Heckseifen",7.95367,50.92731,"de:5970:62530"
"23560880","Oberholzklau, Alte Straße",7.93415,50.92606,"de:5970:60880"
"23561621","Niedersetzen, Setzetalstraße",8.01917,50.92432,"de:5970:61621"
"23560862","Mausbach (Siegerland), Ort",7.83873,50.9003,"de:5970:60862"
"23561377","Dreis-Tiefenbach, Dreisbacher Hammer",8.06137,50.91617,"de:5970:61377"
"23560883","Oberholzklau, Meiswinkeler Straße",7.93505,50.92808,"de:5970:60883"
"23562617","Sohlbach, Ortsmitte",7.99768,50.92853,"de:5970:62617"
"23561619","Dillnhütten, Ortsmitte",8.01175,50.92718,"de:5970:61619"
"23560861","Mausbach (Siegerland), Kirschenbachweg",7.83769,50.90171,"de:5970:60861"
"23562579","Niedersetzen, Am Backes",8.03391,50.92439,"de:5970:62579"
"23561380","Dreis-Tiefenbach, König",8.0853,50.90906,"de:5970:61380"
"23562767","Wenden (Sauerl), Alte Schule",7.86416,50.97136,"de:5966:62767"
"23562615","Sohlbach, Fabrik Deller",7.99851,50.93112,"de:5970:62615"
"23561094","Buschhütten, Charlottenstraße",8.00851,50.93084,"de:5970:61094"
"23560855","Hohenhain, Ort",7.8498,50.91098,"de:5970:60855"
"23562571","Meiswinkel, Ortsmitte",7.9469,50.93317,"de:5970:62571"
"23562572","Niedersetzen, Sonnenstraße",8.03601,50.92729,"de:5970:62572"
"23560863","Mausbach (Siegerland), Mausbacher Höhe",7.83567,50.90534,"de:5970:60863"
"23562616","Sohlbach, Kaisereiche",7.99109,50.93345,"de:5970:62616"
"23560856","Hohenhain, Römershagener Straße",7.8503,50.91284,"de:5970:60856"
"23561608","Sohlbach, Buchen Feuerwehr",7.9878,50.93458,"de:5970:61608"
"23560854","Hohenhain, Hammerhöhe",7.84379,50.91042,"de:5970:60854"
"23561101","Buschhütten, Theodor-Heuss-Weg",8.01284,50.93243,"de:5970:61101"
"23562866","Oberholzklau, Heestal",7.9274,50.93294,"de:5970:62866"
"23561095","Buschhütten, Goetheweg",8.01506,50.93235,"de:5970:61095"
"23561432","Netphen, Siemag",8.09391,50.91195,"de:5970:61432"
"23561610","Buchen (Siegen), Zum Schulwald",7.98425,50.93613,"de:5970:61610"
"23561096","Buschhütten, Grundschule",8.00753,50.93461,"de:5970:61096"
"23561090","Buschhütten, Achenbach",8.00489,50.93496,"de:5970:61090"
"23561356","Netphen, Abzw. Beienbach",8.11848,50.90036,"de:5970:61356"
"23561087","Buschhütten, Berliner Straße",8.01201,50.93442,"de:5970:61087"
"23561091","Buschhütten, Alte Schulstraße",8.0051,50.93549,"de:5970:61091"
"23561609","Buchen (Siegen), Löschteich",7.9792,50.93738,"de:5970:61609"
"23561188","Buschhütten, Tilsiter Straße",8.01807,50.9342,"de:5970:61188"
"23561086","Buschhütten, Bolzplatz",8.01766,50.93483,"de:5970:61086"
"23561092","Buschhütten, Bottenbacher Straße",8.01344,50.93566,"de:5970:61092"
"23561099","Buschhütten, Mattenbachstraße",8.00228,50.93703,"de:5970:61099"
"23562745","Gerlingen (Biggetal), Kreuztaler Straße",7.84431,50.98067,"de:5966:62745"
"23562588","Obersetzen, Ortsmitte",8.03766,50.93271,"de:5970:62588"
"23562744","Gerlingen (Biggetal), Gerlingermühle Brücke",7.8435,50.98123,"de:5966:62744"
"23562756","Hünsborn, Industriestraße",7.90564,50.93459,"de:5966:62756"
"23561427","Netphen, Rathaus",8.10365,50.91236,"de:5970:61427"
"23573434","Obersetzen, Kapellenschule",8.03802,50.9336,"de:5970:73434"
"23561423","Netphen, Obernetphen",8.10702,50.91102,"de:5970:61423"
"23562755","Hünsborn, Industriegebiet",7.90586,50.93511,"de:5966:62755"
"23561421","Netphen, Mühlenbach",8.09697,50.91584,"de:5970:61421"
"23561391","Eckmannshausen, Ortsanfang",8.0736,50.92479,"de:5970:61391"
"23561425","Netphen, Obernetphen Kirche",8.10859,50.91148,"de:5970:61425"
"23561392","Eckmannshausen, Ortsmitte",8.074,50.9269,"de:5970:61392"
"23561390","Eckmannshausen, Ort Wende",8.0722,50.92763,"de:5970:61390"
"23562768","Wenden (Sauerl), Rathaus",7.87182,50.96938,"de:5966:62768"
"23562758","Hünsborn, Siedlung",7.89728,50.93695,"de:5966:62758"
"23561395","Netphen, Friedhof",8.10836,50.91507,"de:5970:61395"
"23562752","Friesenhagen, Hühnerkamp",7.84762,50.92301,"de:5966:NVBW_VRM_62752"
"23561424","Netphen, Obernetphen Grundschule",8.11387,50.91255,"de:5970:61424"
"23561415","Netphen, Franz-Hitze-Weg",8.11065,50.91475,"de:5970:61415"
"23561426","Oelgershausen, Oelgershausen",8.09084,50.92421,"de:5970:61426"
"23561431","Netphen, Siedlung",8.11798,50.91231,"de:5970:61431"
"23561357","Netphen, Netphen Abzw. Oelgershausen",8.09706,50.92203,"de:5970:61357"
"23561360","Netphen, Bodelschwinghstraße",8.11304,50.91492,"de:5970:61360"
"23560931","Allenbach (Kr Siegen), Auf der Roese",8.10165,50.98575,"de:5970:60931"
"23561420","Netphen, Kreuzbergerstraße",8.10783,50.91801,"de:5970:61420"
"23562759","Hünsborn, Sportplatz",7.87636,50.93499,"de:5966:62759"
"23561439","Netphen, Waldenburger Straße",8.12187,50.91234,"de:5970:61439"
"23562753","Hünsborn, Hünsborn Abzw.",7.87045,50.93441,"de:5966:62753"
"23561361","Netphen, Brandenburger Straße",8.1184,50.91462,"de:5970:61361"
"23561419","Netphen, Königsberger Straße",8.11871,50.91456,"de:5970:61419"
"23561366","Netphen, Dahlienweg",8.10664,50.92031,"de:5970:61366"
"23561365","Netphen, Bühler Weg",8.1236,50.91314,"de:5970:61365"
"23561430","Netphen, Sandhellerweg",8.12297,50.91422,"de:5970:61430"
"23560912","Allenbach (Kr Siegen), Mitte",8.09228,50.98112,"de:5970:60912"
"23562770","Römershagen, Römershagen",7.83522,50.93215,"de:5966:62770"
"23580023","Römershagen, Kirche",7.83423,50.93266,"de:5966:80023"
"23560930","Allenbach (Kr Siegen), Haarhausen",8.10112,50.98591,"de:5970:60930"
"23561396","Frohnhausen (Netphen), Frohnhausen",8.09948,50.93707,"de:5970:61396"
"23561394","Eschenbach (Netphen), Ort",8.12434,50.93019,"de:5970:61394"
"23561137","Ferndorf (Siegerland), Aherhammer",8.02311,50.95878,"de:5970:61137"
"23590041","Elsmecke, Elsmecke",8.08231,51.17962,"de:5966:90041"
"23562726","Altenhof (Kr Olpe), Altenhof",7.90157,50.96163,"de:5966:62726"
"23566204","Fretter, Auf der Burg",8.03979,51.19362,"de:5966:66204"
"23562764","Wenden (Sauerl), Mühlenstraße",7.87164,50.97073,"de:5966:62764"
"23560914","Allenbach (Kr Siegen), Stift Keppel",8.08556,50.9788,"de:5970:60914"
"23560933","Hadem, Hadem",8.12032,50.99981,"de:5970:60933"
"23561104","Kreuztal (Siegerland), Dr.-Erich-Moning-Straße",7.99681,50.95651,"de:5970:61104"
"23561239","Osthelden, Alter Weg",7.95357,50.95563,"de:5970:61239"
"23562781","Wenden (Sauerl), Grundschule",7.87546,50.97032,"de:5966:62781"
"23561205","Kreuztal (Siegerland), Kressner",7.99419,50.95645,"de:5970:61205"
"23561179","Kreuztal (Siegerland), Kath. Grundschule",7.99838,50.95685,"de:5970:61179"
"23562731","Wenden (Sauerl), Altersheim",7.87873,50.96928,"de:5966:62731"
"23561103","Fellinghausen, Dornseifen",7.97029,50.95551,"de:5970:61103"
"23561076","Kreuztal (Siegerland), Bahnhof",7.99238,50.95641,"de:5970:61076"
"23561235","Kreuztal (Siegerland), Obere Mühlbergstraße",7.9862,50.95612,"de:5970:61235"
"23560913","Allenbach (Kr Siegen), Sieben Eichen",8.07831,50.97702,"de:5970:60913"
"23560583","Sohl (Bad Laasphe), Sohl",8.29683,50.87209,"de:5970:60583"
"23562743","Gerlingen (Biggetal), Gerlingermühle",7.84633,50.98306,"de:5966:62743"
"23573100","Altenhof (Kr Olpe), Schillerstraße",7.90475,50.9627,"de:5966:73100"
"23561164","Ferndorf (Siegerland), Weiherstraße",8.01524,50.95946,"de:5970:61164"
"23561405","Hainchen (Kr Siegen), Südstraße",8.21593,50.85197,"de:5970:61405"
"23567307","Hilchenbach, Bahnhof",8.10628,50.99221,"de:5970:67307"
"23561400","Hainchen (Kr Siegen), Kampenstraße/Dillweg",8.2124,50.85114,"de:5970:61400"
"23561402","Hainchen (Kr Siegen), Ortsausgang",8.2193,50.85514,"de:5970:61402"
"23561399","Hainchen (Kr Siegen), Kampenstraße",8.2127,50.85307,"de:5970:61399"
"23561401","Hainchen (Kr Siegen), Kirche",8.21577,50.85479,"de:5970:61401"
"23562842","Wilgersdorf, Sankt-Josef-Weg",8.14456,50.81478,"de:5970:62842"
"23561403","Hainchen (Kr Siegen), Ortsmitte",8.21184,50.8551,"de:5970:61403"
"23562841","Wilgersdorf, Sangweg",8.14396,50.81582,"de:5970:62841"
"23562843","Wilgersdorf, Schule",8.1408,50.81435,"de:5970:62843"
"23561397","Hainchen (Kr Siegen), Abzw. Lahnhof",8.21242,50.85657,"de:5970:61397"
"23561141","Ferndorf (Siegerland), Bergstraße",8.01847,50.96036,"de:5970:61141"
"23561404","Hainchen (Kr Siegen), Schule",8.20563,50.8555,"de:5970:61404"
"23561417","Irmgarteichen, Marktplatz",8.19791,50.85189,"de:5970:61417"
"23562799","Gernsdorf, Wende",8.17833,50.84277,"de:5970:62799"
"23562839","Wilgersdorf, Bleielsbach",8.1405,50.81931,"de:5970:62839"
"23562797","Gernsdorf, Ortsanfang",8.1769,50.84392,"de:5970:62797"
"23561418","Irmgarteichen, Ort",8.19809,50.85509,"de:5970:61418"
"23562840","Wilgersdorf, Neue Hoffnung",8.13122,50.81463,"de:5970:62840"
"23561416","Irmgarteichen, Kirche",8.19781,50.85712,"de:5970:61416"
"23561140","Ferndorf (Siegerland), Austraße",8.01241,50.95946,"de:5970:61140"
"23562795","Gernsdorf, Kirche",8.17262,50.84531,"de:5970:62795"
"23560927","Hilchenbach, Freibad",8.11758,51.00016,"de:5970:60927"
"23562798","Gernsdorf, Weidestraße",8.16481,50.84184,"de:5970:62798"
"23562796","Gernsdorf, Ort",8.16954,50.84472,"de:5970:62796"
"23561447","Werthenbach, Wende",8.22276,50.87046,"de:5970:61447"
"23561445","Werthenbach, Ort",8.21984,50.86999,"de:5970:61445"
"23561189","Kredenbach, B 508",8.03666,50.96436,"de:5970:61189"
"23562838","Wilgersdorf, Birkenhof",8.14041,50.8283,"de:5970:62838"
"23561442","Werthenbach, Eichwaldstraße",8.21559,50.86921,"de:5970:61442"
"23561441","Werthenbach, Bahnhof",8.20049,50.86289,"de:5970:61441"
"23561446","Werthenbach, Schule",8.20461,50.86553,"de:5970:61446"
"23573035","Rudersdorf (Siegerland), Grundschule",8.15458,50.84015,"de:5970:73035"
"23562827","Rudersdorf (Siegerland), Hauptschule",8.15443,50.84017,"de:5970:62827"
"23561444","Werthenbach, Gräbener",8.19756,50.86397,"de:5970:61444"
"23562830","Rudersdorf (Siegerland), Scholfeld",8.15294,50.84007,"de:5970:62830"
"23560926","Hilchenbach, Fachklinik",8.1136,50.9979,"de:5970:60926"
"23562828","Rudersdorf (Siegerland), Kreuzstraße",8.14876,50.8416,"de:5970:62828"
"23560915","Hilchenbach, Bruchstraße",8.10477,50.99207,"de:5970:60915"
"23567304","Rudersdorf (Siegerland), Bahnhof",8.14359,50.83901,"de:5970:67304"
"23561443","Werthenbach, Firma Günther",8.18821,50.86445,"de:5970:61443"
"23562829","Rudersdorf (Siegerland), Ort",8.144,50.84262,"de:5970:62829"
"23561136","Ferndorf (Siegerland), Abzw. Bahnhof",8.01062,50.96006,"de:5970:61136"
"23561147","Ferndorf (Siegerland), Goldregenweg",8.02355,50.96219,"de:5970:61147"
"23560936","Dahlbruch, Hillnhütten Ort",8.07188,50.97608,"de:5970:60936"
"23560584","Bad Laasphe, Sonderschule",8.40881,50.92139,"de:5970:60584"
"23561407","Helgersdorf, Helgersdorf",8.1807,50.8667,"de:5970:61407"
"23560923","Dahlbruch, Wiesenstraße",8.06869,50.97522,"de:5970:60923"
"23561149","Ferndorf (Siegerland), Im Kiel",8.02187,50.9626,"de:5970:61149"
"23562741","Gerlingen (Biggetal), Busbahnhof",7.84788,50.98502,"de:5966:62741"
"23561145","Ferndorf (Siegerland), Gemeindezentrum",8.01071,50.96095,"de:5970:61145"
"23560916","Dahlbruch, Bahnhof",8.0533,50.97074,"de:5970:60916"
"23561408","Helgersdorf, Ortsanfang",8.17618,50.86742,"de:5970:61408"
"23562867","Netphen, Lahnhof",8.24058,50.89397,"de:5970:62867"
"23561429","Salchendorf (Netphen), Sportplatz",8.15875,50.85945,"de:5970:61429"
"23561120","Fellinghausen, Fellinghausen",7.97766,50.95844,"de:5970:61120"
"23561143","Ferndorf (Siegerland), Dorfbrunnen",8.00935,50.96121,"de:5970:61143"
"23560924","Dahlbruch, Wiesenstraße/Schweißfurth",8.06509,50.97494,"de:5970:60924"
"23566020","Bad Laasphe, Gartenstraße",8.4092,50.9262,"de:5970:66020"
"23560919","Dahlbruch, Hörbachstraße",8.06734,50.97586,"de:5970:60919"
"23561128","Fellinghausen, Grundschule",7.97678,50.95873,"de:5970:61128"
"23562787","Anzhausen, Mühle",8.12925,50.8467,"de:5970:62787"
"23562727","Altenhof (Kr Olpe), Altenhofer Weg",7.90012,50.96669,"de:5966:62727"
"23561148","Ferndorf (Siegerland), Haselnußweg",8.02565,50.96419,"de:5970:61148"
"23561230","Kreuztal (Siegerland), Mitte",7.99002,50.95951,"de:5970:61230"
"23567295","Bad Laasphe, ZOB",8.42087,50.92952,"de:5970:67295"
"23562892","Salchendorf (Netphen), Sägewerk",8.16639,50.86942,"de:5970:62892"
"23562778","Wenden (Sauerl), Schulzentrum",7.86589,50.97784,"de:5966:62778"
"23562747","Girkhausen (Kr Olpe), Girkhauser Höhe",7.92619,50.96184,"de:5966:62747"
"23562728","Altenhof (Kr Olpe), Altenhofer Weg L 714",7.89829,50.96738,"de:5966:62728"
"23561428","Salchendorf (Netphen), Ortsmitte",8.16352,50.87052,"de:5970:61428"
"23560581","Bad Laasphe, Schloss Wittgenstein",8.39663,50.93086,"de:5970:60581"
"23561152","Ferndorf (Siegerland), Kindelsbergschule",8.015,50.96248,"de:5970:61152"
"23561200","Kredenbach, Lohe",8.04321,50.96853,"de:5970:61200"
"23562739","Gerlingen (Biggetal), Gerlingen",7.84519,50.98798,"de:5966:62739"
"23561160","Ferndorf (Siegerland), Schlehdornstraße",8.00439,50.96134,"de:5970:61160"
"23561182","Kreuztal (Siegerland), Kauf-Center",7.99172,50.96045,"de:5970:61182"
"23562746","Girkhausen (Kr Olpe), Girkhausen",7.90923,50.96585,"de:5966:62746"
"23566205","Ostentrop, Mittelweg",8.02207,51.19173,"de:5966:66205"
"23561238","Osthelden, Osthelden",7.94435,50.96085,"de:5970:61238"
"23561131","Fellinghausen, In der Ecke",7.98136,50.96048,"de:5970:61131"
"23561197","Kredenbach, Grundschule",8.03793,50.96857,"de:5970:61197"
"23561372","Deuz, In der Brachbach",8.15116,50.87776,"de:5970:61372"
"23577562","Ferndorf (Siegerland), Gartenstraße",8.00635,50.96269,"de:5970:77562"
"23561166","Kreuztal (Siegerland), Grundschule",7.99013,50.9611,"de:5970:61166"
"23561531","Saßmicke, Am Beul",7.83345,50.99663,"de:5966:61531"
"23560586","Volkholz, Kreuzung",8.28191,50.92771,"de:5970:60586"
"23561196","Kredenbach, EKZ",8.04709,50.9714,"de:5970:61196"
"23560920","Dahlbruch, SMS",8.05955,50.97547,"de:5970:60920"
"23561118","Kreuztal (Siegerland), Ernsdorf Busbahnhof",7.99728,50.96216,"de:5970:61118"
"23561369","Deuz, Bahnhof",8.14405,50.88175,"de:5970:61369"
"23561240","Osthelden, Am Kellenhagen",7.94073,50.96227,"de:5970:61240"
"23561158","Ferndorf (Siegerland), Nußbaumweg",8.02399,50.96634,"de:5970:61158"
"23560922","Dahlbruch, Wagenhalle",8.05324,50.97391,"de:5970:60922"
"23561134","Fellinghausen, Zum hohlen Stein",7.98056,50.96157,"de:5970:61134"
"23561371","Deuz, Hüllweg",8.14043,50.88432,"de:5970:61371"
"23561367","Deuz, Altenheim",8.13626,50.8868,"de:5970:61367"
"23561117","Kreuztal (Siegerland), Bäckerei Münker",7.99934,50.96294,"de:5970:61117"
"23561534","Saßmicke, L 512",7.83624,50.99693,"de:5966:61534"
"23561244","Kreuztal (Siegerland), Schulzentrum",7.99153,50.96314,"de:5970:61244"
"23561359","Beienbach, Beienbach",8.14033,50.89848,"de:5970:61359"
"23561375","Deuz, Weiherdamm",8.12736,50.89216,"de:5970:61375"
"23561363","Brauersdorf (Netphen), Buswende",8.13808,50.91849,"de:5970:61363"
"23561362","Brauersdorf (Netphen), Auf dem Boden",8.12907,50.91519,"de:5970:61362"
"23561364","Brauersdorf (Netphen), Mittelweg",8.13281,50.91758,"de:5970:61364"
"23560733","Lüdespert, Lüdespert",7.70909,51.06735,"de:5966:60733"
"23562868","Drolshagen, Ingemerter Straße",7.71173,51.0738,"de:5966:62868"
"23560716","Hespecke, Hespecke",7.72019,51.06766,"de:5966:60716"
"23560745","Drolshagen, Simonspike",7.72663,51.06349,"de:5966:60745"
"23560696","Drolshagen, Dümpel",7.71774,51.04996,"de:5966:60696"
"23560711","Hammerteich (Drolshagen), Hammerteich",7.72995,51.06512,"de:5966:60711"
"23560685","Bleche, Schlader Weg",7.72318,51.05428,"de:5966:60685"
"23560684","Bleche, Bleche",7.7274,51.05876,"de:5966:60684"
"23560683","Beul, Beul",7.7354,51.06401,"de:5966:60683"
"23560690","Breitehardt, Abzw.",7.7314,51.04965,"de:5966:60690"
"23560736","Scheda, Scheda",7.74086,51.06149,"de:5966:60736"
"23560687","Breitehardt, Breitehardt",7.73243,51.04715,"de:5966:60687"
"23560737","Schlenke, Schlenke",7.74132,51.05351,"de:5966:60737"
"23562742","Gerlingen (Biggetal), Siedlung",7.85328,50.98825,"de:5966:62742"
"23560748","Wegeringhausen, Kölner Straße",7.74165,51.04382,"de:5966:60748"
"23560750","Wegeringhausen, Zum Wiesenthal",7.74241,51.04419,"de:5966:60750"
"23560705","Germinghausen, Lütticke",7.75242,51.05152,"de:5966:60705"
"23560706","Germinghausen, Ort",7.75646,51.05325,"de:5966:60706"
"23560729","Junkernhöh, Junkernhöh",7.76001,51.05401,"de:5966:60729"
"23560725","Hützemert, Grundschule",7.74768,51.03813,"de:5966:60725"
"23560730","Junkernhöh, Ortseingang",7.76314,51.05505,"de:5966:60730"
"23560921","Dahlbruch, Sparkasse",8.05455,50.97597,"de:5970:60921"
"23560701","Feldmannshof, Feldmannshof",7.74215,51.02975,"de:5966:60701"
"23560713","Heimicke, Heimicke",7.76935,51.06309,"de:5966:60713"
"23560732","Köbbinghausen (Drolshagen), Köbbinghausen",7.76577,51.0527,"de:5966:60732"
"23560739","Schreibershof, Im Buchhagen",7.77381,51.06357,"de:5966:60739"
"23561246","Kreuztal (Siegerland), Waldstraße",7.98691,50.96338,"de:5970:61246"
"23560717","Drolshagen, Hochsiepen",7.77419,51.05974,"de:5966:60717"
"23560742","Sendschotten, Sendschotten",7.764,51.04196,"de:5966:60742"
"23560740","Schreibershof, Ort",7.77923,51.06483,"de:5966:60740"
"23560707","Gipperich, Gipperich",7.74864,51.02513,"de:5966:60707"
"23560741","Schreibershof, Ort/Grundschule",7.78024,51.06549,"de:5966:60741"
"23560678","Benolpe (Drolshagen), Dorf",7.73836,51.01671,"de:5966:60678"
"23560738","Schreibershof, Brink",7.78351,51.06626,"de:5966:60738"
"23560676","Benolpe (Drolshagen), Abzw. Gelslingen",7.74347,51.01687,"de:5966:60676"
"23560743","Drolshagen, Industriestraße",7.77148,51.03861,"de:5966:60743"
"23560747","Stupperhof, Stupperhof",7.75419,51.02128,"de:5966:60747"
"23565685","Drolshagen, Voßhölzchen",7.76516,51.02899,"de:5966:65685"
"23560680","Benolpe (Drolshagen), Hof Engels",7.74098,51.01173,"de:5966:60680"
"23560699","Essinghausen (Drolshagen), Essinghausen",7.78008,51.0431,"de:5966:60699"
"23560677","Benolpe (Drolshagen), Abzw. Wormberg",7.75302,51.01827,"de:5966:60677"
"23560714","Herpel, Halle",7.7915,51.06845,"de:5966:60714"
"23560718","Drolshagen, Humboldtstraße",7.76131,51.02363,"de:5966:60718"
"23561176","Kreuztal (Siegerland), Hessengarten",7.99799,50.9643,"de:5970:61176"
"23560712","Drolshagen, Hauptschule",7.7676,51.02595,"de:5966:60712"
"23560715","Herpel, Listertalsperre",7.79617,51.07112,"de:5966:60715"
"23560675","Drolshagen, Auf'm Beul",7.7655,51.022,"de:5966:60675"
"23560679","Gelslingen, Gelslingen",7.73643,51.0041,"de:5966:60679"
"23561535","Saßmicke, Schell",7.83712,50.99845,"de:5966:61535"
"23560700","Fahrenschotten, Fahrenschotten",7.79612,51.05068,"de:5966:60700"
"23560692","Bühren (Drolshagen), Bühren",7.80062,51.05765,"de:5966:60692"
"23561123","Fellinghausen, Bogenstraße",7.97868,50.96349,"de:5970:61123"
"23560744","Siebringhausen, Siebringhausen",7.78529,51.03167,"de:5966:60744"
"23560751","Wintersohl, Wintersohl",7.79397,51.04218,"de:5966:60751"
"23560674","Drolshagen, Annostraße",7.7779,51.02382,"de:5966:60674"
"23560731","Kalberschnacke, Kalberschnacke",7.80573,51.07234,"de:5966:60731"
"23560681","Drolshagen, Benolper Straße",7.7768,51.02191,"de:5966:60681"
"23561088","Kreuztal (Siegerland), Breslauer Straße",7.98901,50.96434,"de:5970:61088"
"23560708","Drolshagen, Grundschule",7.78109,51.02375,"de:5966:60708"
"23560693","Dirkingen, Dirkingen",7.77,51.01136,"de:5966:60693"
"23561133","Fellinghausen, Sonnenweg",7.97643,50.96394,"de:5970:61133"
"23560704","Frenkhauserhöh, Frenkhauserhöhe",7.80666,51.0403,"de:5966:60704"
"23560917","Dahlbruch, Drogerie",8.05287,50.97727,"de:5970:60917"
"23560734","Öhringhausen, Öhringhausen",7.80551,51.0356,"de:5966:60734"
"23560702","Frenkhausen (Drolshagen), Frenkhausen",7.81096,51.0398,"de:5966:60702"
"23561175","Kreuztal (Siegerland), Kreuztal Heidfeld",7.98477,50.96642,"de:5970:61175"
"23560722","Husten, Otzemicker Weg",7.75742,50.99375,"de:5966:60722"
"23560719","Husten, Husten",7.75782,50.99362,"de:5966:60719"
"23560721","Husten, Lange",7.75429,50.99157,"de:5966:60721"
"23560720","Husten, Abzw. Halbhusten",7.76412,50.99299,"de:5966:60720"
"23560723","Husten, Vorm Bruch",7.75531,50.98872,"de:5966:60723"
"23560728","Iseringhausen, Ort",7.77582,50.99831,"de:5966:60728"
"23560709","Halbhusten, Halbhusten",7.76144,50.99059,"de:5966:60709"
"23562730","Altenwenden, Altenwendener Weg",7.91416,50.9714,"de:5966:62730"
"23560727","Iseringhausen, Kirche",7.77994,50.99768,"de:5966:60727"
"23560682","Berlinghausen (Drolshagen), Berlinghausen",7.80431,51.01582,"de:5966:60682"
"23560697","Eichenermühle, Eichenermühle",7.81052,51.02088,"de:5966:60697"
"23560726","Iseringhausen, Brachtpetalstraße",7.7859,50.99937,"de:5966:60726"
"23560698","Eltge, Eltge",7.79076,50.99954,"de:5966:60698"
"23560689","Brachtpe, Ochel",7.80207,51.00723,"de:5966:60689"
"23560688","Brachtpe, Buchhagener Weg",7.7973,51.00307,"de:5966:60688"
"23562748","Heid (Kr Olpe), Heid",7.80669,50.94924,"de:5966:62748"
"23562749","Heid (Kr Olpe), Alte Schule",7.81064,50.94998,"de:5966:62749"
"23560925","Dahlbruch, Winterbach",8.05175,50.979,"de:5970:60925"
"23561248","Kreuztal (Siegerland), Zum Wolfsloch",7.99349,50.96768,"de:5970:61248"
"23561229","Kreuztal (Siegerland), Metzgerei Bock",7.99648,50.96808,"de:5970:61229"
"23562776","Schönau (Kr Olpe), Scherer",7.90843,50.97366,"de:5966:62776"
"23561119","Kreuztal (Siegerland), Kreuztal Ernsdorfstraße",7.99625,50.96846,"de:5970:61119"
"23561180","Kreuztal (Siegerland), Katholische Kirche",7.99041,50.96841,"de:5970:61180"
"23590006","Nuttmecke, Nuttmecke",7.85052,51.15996,"de:5966:90006"
"23561167","Kreuztal (Siegerland), Kreuztal Hammerseifen",7.98844,50.9686,"de:5970:61167"
"23561465","Dahl (Olpe), Firma Langenhahn",7.84095,51.00269,"de:5966:61465"
"23561237","Kreuztal (Siegerland), Oberstraße",7.99045,50.96897,"de:5970:61237"
"23590005","Neuenhof (Attendorn), Neuenhof",7.84537,51.15606,"de:5966:90005"
"23562775","Schönau (Kr Olpe), Kirche",7.90583,50.97614,"de:5966:62775"
"23562729","Altenwenden, Altenwenden",7.91702,50.97368,"de:5966:62729"
"23561217","Kreuztal (Siegerland), Leipziger Straße",7.98725,50.96954,"de:5970:61217"
"23561245","Kreuztal (Siegerland), Ulmenweg",7.98265,50.96939,"de:5970:61245"
"23562777","Schönau (Kr Olpe), Wendener Weg",7.90383,50.9773,"de:5966:62777"
"23561464","Dahl (Olpe), Am Buchhagen",7.84567,51.00216,"de:5966:61464"
"23560945","Müsen, Steinweg",8.04796,50.98195,"de:5970:60945"
"23561038","Kirchhundem, Quermke",8.01185,51.0536,"de:5966:61038"
"23561011","Benolpe (Kirchhundem), Benolpe",8.02319,51.06188,"de:5966:61011"
"23562738","Elben (Kr Olpe), Siedlung",7.86957,50.99034,"de:5966:62738"
"23561181","Kreuztal (Siegerland), Kattowitzer Straße",7.98848,50.9714,"de:5970:61181"
"23561466","Dahl (Olpe), Ort",7.85216,51.00032,"de:5966:61466"
"23590004","Lichtringhausen, Lichtringhausen",7.84363,51.15077,"de:5966:90004"
"23561525","Rüblinghausen, Gate",7.83441,51.01347,"de:5966:61525"
"23562737","Elben (Kr Olpe), Schule",7.87709,50.98883,"de:5966:62737"
"23562862","Welschen Ennest, Grundschule",7.99943,51.04362,"de:5966:62862"
"23590007","Lichtringhausen, Schule",7.84403,51.15003,"de:5966:90007"
"23561062","Welschen Ennest, Welschen Ennest Limker Weg",8.00627,51.04549,"de:5966:61062"
"23561041","Rahrbach, Vogelsang",7.97343,51.03729,"de:5966:61041"
"23561015","Kirchhundem, Dutzwinkel",7.95754,51.03753,"de:5966:61015"
"23561040","Rahrbach, Ort",7.97752,51.03704,"de:5966:61040"
"23561063","Welschen Ennest, Welschen Ennest Mitte",8.00275,51.04244,"de:5966:61063"
"23561029","Kruberg, Kruberg",7.96241,51.03672,"de:5966:61029"
"23560703","Frenkhausen (Drolshagen), Hobel",7.81428,51.03844,"de:5966:60703"
"23561039","Rahrbach, Rahrbach Hochstraße",7.98315,51.03689,"de:5966:61039"
"23561115","Eichen (Siegerl), Walzwerk",7.97713,50.97353,"de:5970:61115"
"23561528","Rüblinghausen, Mitte",7.83493,51.01655,"de:5966:61528"
"23561061","Welschen Ennest, Welschen Ennest K + K",7.99739,51.03916,"de:5966:61061"
"23562736","Elben (Kr Olpe), Mitte",7.88139,50.98984,"de:5966:62736"
"23561509","Oberneger, Oberneger",7.8971,51.06973,"de:5966:61509"
"23561523","Rüblinghausen, Düringer Straße",7.83356,51.01854,"de:5966:61523"
"23561526","Rüblinghausen, Habichtsweg",7.83313,51.0192,"de:5966:61526"
"23561019","Heidschott, Silberger Weg",8.04295,51.06772,"de:5966:61019"
"23561512","Rehringhausen, Rehringhausen",7.91914,51.04147,"de:5966:61512"
"23561507","Mittelneger, Mittelneger",7.89305,51.06604,"de:5966:61507"
"23561469","Olpe, Engelsberg",7.94707,51.02934,"de:5966:61469"
"23570457","Hülschotten, Hülschotten",7.918,51.17568,"de:5966:70457"
"23561112","Eichen (Siegerl), Ort",7.97232,50.97633,"de:5970:61112"
"23561524","Rüblinghausen, Falkenweg",7.83499,51.02067,"de:5966:61524"
"23560943","Müsen, Kirche",8.04141,50.98722,"de:5970:60943"
"23561530","Rüblinghausen, Schulweg",7.83582,51.02046,"de:5966:61530"
"23561545","Unterneger, Zur Alten Schule",7.88662,51.06684,"de:5966:61545"
"23561513","Rehringhausen, Vitt",7.90773,51.04178,"de:5966:61513"
"23561018","Heidschott, Heidschott",8.05252,51.07202,"de:5966:61018"
"23561522","Rüblinghausen, Düringer Schule",7.83826,51.01989,"de:5966:61522"
"23561544","Unterneger, Unterneger",7.88317,51.06823,"de:5966:61544"
"23560673","Alperscheid, Alperscheid",7.81954,51.04278,"de:5966:60673"
"23560941","Müsen, Baume Ecke",8.04083,50.98894,"de:5970:60941"
"23560942","Müsen, Grundschule",8.04031,50.98899,"de:5970:60942"
"23561520","Rosenthal (Olpe), Rosenthal - K 16 -",7.82517,51.03564,"de:5966:61520"
"23561527","Rüblinghausen, Lerchenweg",7.83638,51.02377,"de:5966:61527"
"23560944","Müsen, Stahlbergstraße",8.04217,50.99026,"de:5970:60944"
"23561462","Olpe, Bratzkopf",7.8387,51.02402,"de:5966:61462"
"23560940","Müsen, Auf der Platte Mitte",8.03851,50.99072,"de:5970:60940"
"23561268","Lennestadt, Bermke",8.0788,51.14755,"de:5966:61268"
"23561276","Halberbracht, Hasterbergstraße",8.09186,51.13739,"de:5966:61276"
"23561057","Varste, Varste",8.04785,51.04408,"de:5966:61057"
"23561070","Würdinghausen, Siedlung",8.12307,51.08424,"de:5966:61070"
"23561521","Rüblinghausen, Biggestraße",7.84167,51.02372,"de:5966:61521"
"23561025","Hofolpe, Lindenstraße",8.06523,51.07419,"de:5966:61025"
"23570265","Attendorn, Hallenbad",7.90373,51.12338,"de:5966:70265"
"23560939","Müsen, Am Egelsbruch Mitte",8.03885,50.99215,"de:5970:60939"
"23561008","Albaum, Im Knickhahn",8.11878,51.05725,"de:5966:61008"
"23561281","Halberbracht, Waldschänke",8.08392,51.14144,"de:5966:61281"
"23561280","Halberbracht, Schützenhalle",8.08705,51.13878,"de:5966:61280"
"23561277","Halberbracht, Kirche",8.09003,51.13618,"de:5966:61277"
"23561473","Griesemert, Abzw. Höhweg",7.88318,51.0467,"de:5966:61473"
"23561065","Würdinghausen, Kirche (GS)",8.12038,51.08515,"de:5966:61065"
"23561059","Varste, Ort",8.05224,51.04389,"de:5966:61059"
"23561541","Stachelau, Mitte",7.89166,51.03831,"de:5966:61541"
"23561215","Krombach (Siegerland), Zimmerstraße",7.96393,50.98282,"de:5970:61215"
"23570679","Attendorn, Kölner Tor",7.89928,51.12429,"de:5966:70679"
"23561068","Würdinghausen, Ort",8.11985,51.08752,"de:5966:61068"
"23560694","Dumicke, Dumicke",7.82002,51.0595,"de:5966:60694"
"23561496","Olpe, Johann-Hatzfeld-Straße",7.84876,51.02008,"de:5966:61496"
"23561278","Halberbracht, Ort",8.0869,51.13789,"de:5966:61278"
"23561053","Silberg (Kirchhundem), Ort",8.0388,51.03195,"de:5966:61053"
"23560947","Müsen, Werbelsbrunnen",8.03986,50.99421,"de:5970:60947"
"23561013","Böminghausen, Werk",8.11933,51.07159,"de:5966:61013"
"23561504","Olpe, Linkermicke",7.91716,51.02295,"de:5966:61504"
"23561539","Stachelau, Imhäuser",7.89624,51.03312,"de:5966:61539"
"23561052","Silberg (Kirchhundem), Müsener Straße",8.03636,51.03018,"de:5966:61052"
"23561026","Hofolpe, Mitte",8.07107,51.07374,"de:5966:61026"
"23561540","Stachelau, Imhäuser B 54",7.89514,51.03326,"de:5966:61540"
"23561051","Silberg (Kirchhundem), Friedhof",8.04274,51.03344,"de:5966:61051"
"23569733","Attendorn, Rathaus",7.90093,51.12696,"de:5966:69733"
"23561066","Würdinghausen, Liese",8.11911,51.08535,"de:5966:61066"
"23567298","Finnentrop, ZOB",7.96496,51.17283,"de:5966:67298"
"23561027","Hofolpe, Schweinsberg",8.0719,51.07595,"de:5966:61027"
"23590003","Windhausen (Attendorn), Windhausen",7.86264,51.14528,"de:5966:90003"
"23561497","Olpe, Jugendheim",7.8474,51.02317,"de:5966:61497"
"23561508","Neuenkleusheim, Neuenkleusheim",7.91359,51.02265,"de:5966:61508"
"23561519","Olpe, Röntgenstraße",7.85324,51.01857,"de:5966:61519"
"23561275","Halberbracht, Halberbrachter Straße",8.08416,51.13799,"de:5966:61275"
"23561032","Albaum, Ober-Albaum",8.11516,51.05955,"de:5966:61032"
"23561069","Würdinghausen, Schürholz",8.11587,51.08289,"de:5966:61069"
"23560946","Müsen, Wende",8.03763,50.99668,"de:5970:60946"
"23561493","Olpe, Hubertusweg",7.85225,51.02203,"de:5966:61493"
"23561538","Stachelau, B 54",7.88785,51.03609,"de:5966:61538"
"23561054","Silberg (Kirchhundem), Wende",8.03477,51.02681,"de:5966:61054"
"23561502","Olpe, Kurkölner Platz",7.8451,51.02846,"de:5966:61502"
"23561491","Olpe, Hoher-Stein-Platz",7.84996,51.02425,"de:5966:61491"
"23561031","Albaum, Nieder-Albaum",8.11333,51.06352,"de:5966:61031"
"23561208","Krombach (Siegerland), Brüche",7.96067,50.9867,"de:5970:61208"
"23561457","Kessenhammer, Abzw. Siedenstein",7.866,51.06125,"de:5966:61457"
"23561501","Olpe, Krankenhaus",7.84658,51.02865,"de:5966:61501"
"23571323","Thieringhausen, Thieringhauser Straße",7.88833,51.00296,"de:5966:71323"
"23561474","Günsen, Günsen",7.87281,51.01053,"de:5966:61474"
"23568956","Ennest, Dieselstraße",7.92044,51.13845,"de:5966:68956"
"23561050","Silberg (Kirchhundem), Altenheim",8.04584,51.03112,"de:5966:61050"
"23561543","Thieringhausen, Thieringhausen",7.89006,51.00255,"de:5966:61543"
"23590002","Keseberg, Keseberg",7.87502,51.14657,"de:5966:90002"
"23561498","Olpe, Kaiserhof",7.84844,51.0292,"de:5966:61498"
"23561471","Olpe, Gerberweg",7.8485,51.02937,"de:5966:61471"
"23561492","Olpe, Hoher-Stein-Schule",7.85037,51.02775,"de:5966:61492"
"23570110","Attendorn, Friedhof",7.8982,51.13077,"de:5966:70110"
"23561510","Olpe, Olpe Peterseim",7.85867,51.02126,"de:5966:61510"
"23560695","Dumicke, Abzw. Hitzendumicke",7.82782,51.06954,"de:5966:60695"
"23577527","Olpe, Am Attenberg",7.85642,51.0242,"de:5966:77527"
"23561009","Kirchhundem, Bahnhof B 517",8.07804,51.08822,"de:5966:61009"
"23561506","Olpe, Martinstraße 36",7.85138,51.02933,"de:5966:61506"
"23561279","Halberbracht, Pferdestall",8.0806,51.13196,"de:5966:61279"
"23561265","Altenhundem, ZOB",8.07186,51.104,"de:5966:61265"
"23561089","Burgholdinghausen, Burgholdinghausen",7.98295,51.00911,"de:5970:61089"
"23561475","Olpe, Günsestraße",7.8529,51.02845,"de:5966:61475"
"23561206","Krombach (Siegerland), Brauerei",7.95702,50.99103,"de:5970:61206"
"23561472","Olpe, Polizei",7.85345,51.02947,"de:5966:61472"
"23561481","Olpe, Hakemicke Ginsterweg",7.85815,51.02623,"de:5966:61481"
"23561484","Olpe, Hakemicke Schöne Aussicht",7.85786,51.02729,"de:5966:61484"
"23561024","Hofolpe, Eichacker",8.08055,51.07946,"de:5966:61024"
"23561479","Olpe, Hakemicke Buchenweg",7.85722,51.02844,"de:5966:61479"
"23561285","Meggen (Lennestadt), Verwaltung",8.07753,51.12976,"de:5966:61285"
"23561023","Herrntrop, Herrntrop",8.10343,51.08858,"de:5966:61023"
"23561477","Olpe, Hakemicke An der Eichhardt",7.86208,51.02623,"de:5966:61477"
"23561546","Olpe, Feuerwehr",7.85835,51.02995,"de:5966:61546"
"23561470","Olpe, Gartenstraße",7.85566,51.03292,"de:5966:61470"
"23561483","Olpe, Hakemicke Haselweg",7.86038,51.02862,"de:5966:61483"
"23561273","Grevenbrück (Lennestadt), ZOB",8.01794,51.14203,"de:5966:61273"
"23561500","Olpe, Kortemicke Arndt",7.85517,51.03532,"de:5966:61500"
"23561518","Rhonard, Grube Rhonard",7.90053,51.02176,"de:5966:61518"
"23561010","Kirchhundem, Bahnhof L 553",8.08105,51.08894,"de:5966:61010"
"23561517","Rhonard, Rhonard",7.88348,51.0147,"de:5966:61517"
"23561482","Olpe, Hakemicke Grubenstraße",7.86171,51.02942,"de:5966:61482"
"23561516","Rhode (Olpe), Schule",7.86274,51.05163,"de:5966:61516"
"23561213","Krombach (Siegerland), Ort",7.95879,50.9954,"de:5970:61213"
"23569107","Biekhofen, Hohler Weg",7.88378,51.12645,"de:5966:69107"
"23561542","Stade (Olpe), Stade",7.84143,51.05815,"de:5966:61542"
"23561461","Olpe, Bilsteiner Straße",7.85682,51.03568,"de:5966:61461"
"23590001","Attendorn, Biekhofer Straße",7.893,51.13258,"de:5966:90001"
"23561480","Olpe, Hakemicke Engelhardtstraße",7.86365,51.02982,"de:5966:61480"
"23561284","Meggen (Lennestadt), Siciliastraße",8.07271,51.12747,"de:5966:61284"
"23561017","Kirchhundem, Hauptschule",8.09829,51.08147,"de:5966:61017"
"23561487","Olpe, Hatzenberg Hatzenbergstraße",7.85455,51.03978,"de:5966:61487"
"23561536","Olpe, Schlösser",7.86236,51.03199,"de:5966:61536"
"23561537","Sondern (Olpe), Kirche",7.84024,51.07263,"de:5966:61537"
"23561478","Olpe, Hakemicke Brabeckstraße",7.86442,51.03152,"de:5966:61478"
"23561228","Littfeld, Siedlung",7.98024,51.00585,"de:5970:61228"
"23567302","Sondern (Olpe), Bahnhof",7.84164,51.07289,"de:5966:67302"
"23561489","Olpe, Hatzenberg Leipziger Straße",7.85335,51.04443,"de:5966:61489"
"23561210","Krombach (Siegerland), Gerlinger Walzwerk",7.96691,50.99849,"de:5970:61210"
"23561499","Kessenhammer, Negertalstraße",7.85523,51.0608,"de:5966:61499"
"23561490","Olpe, Hatzenberg Stettiner Straße",7.8553,51.04287,"de:5966:61490"
"23561488","Olpe, Hatzenberg Hochhaus",7.85842,51.03961,"de:5966:61488"
"23561515","Rhode (Olpe), Am Rhoder Stein",7.85926,51.05225,"de:5966:61515"
"23561505","Lütringhausen, Lütringhausen",7.87151,51.03725,"de:5966:61505"
"23567363","Heggen (Finnentrop), Fliederstraße",7.94493,51.15624,"de:5966:67363"
"23561486","Olpe, Hatzenberg Franz-Menke-Straße",7.85968,51.03883,"de:5966:61486"
"23561485","Olpe, Hakemicke Schule",7.86722,51.03164,"de:5966:61485"
"23573492","Littfeld, Adolf-Wurmbach-Straße",7.9785,51.00443,"de:5970:73492"
"23561028","Kirchhundem, Kirche",8.09279,51.08695,"de:5966:61028"
"23561460","Altenkleusheim, Wende",7.92015,51.00645,"de:5966:61460"
"23561459","Altenkleusheim, Kindergarten",7.92101,51.00641,"de:5966:61459"
"23561467","Olpe, Dohm",7.8667,51.03428,"de:5966:61467"
"23561283","Meggen (Lennestadt), Lindenhof",8.06834,51.12395,"de:5966:61283"
"23561463","Bruch (Olpe), Bruch",7.90519,51.01501,"de:5966:61463"
"23561226","Littfeld, Bruchgarten",7.97302,51.00122,"de:5970:61226"
"23561458","Altenkleusheim, Dorfmitte",7.92356,51.00666,"de:5966:61458"
"23561514","Rhode (Olpe), Alte Landstraße",7.85664,51.04791,"de:5966:61514"
"23561045","Kirchhundem, Schützenplatz (GS)",8.09051,51.08381,"de:5966:61045"
"23561227","Littfeld, Ort",7.97639,51.0032,"de:5970:61227"
"23567299","Heggen (Finnentrop), Bahnhof",7.96266,51.15391,"de:5966:67299"
"23541861","Netphen, Ziegelei",8.09254,50.91584,"de:5970:41861"
"23538359","Struthütten, Abzw. Dermbach",7.96947,50.78403,"de:5970:38359"
"23538378","Struthütten, Schupp",7.97748,50.78274,"de:5970:38378"
"23560519","Weuste (Attendorn), Weuste",7.85168,51.09591,"de:5966:60519"
"23539307","Richstein, Mühle",8.45073,50.99604,"de:5970:39307"
"23539714","Bad Berleburg, Schmelzhütte",8.45796,51.13889,"de:5970:39714"
"23540761","Girkhausen (Bad Berleburg), Süßbach",8.44635,51.11257,"de:5970:40761"
"23538912","Girkhausen (Bad Berleburg), Pfaffenhude",8.44867,51.11482,"de:5970:38912"
"23539576","Altenhundem, Sauerlandhalle",8.08124,51.10623,"de:5966:39576"
"23560497","Ennest, Mühlhardt",7.89984,51.14114,"de:5966:60497"
"23538548","Girkhausen (Bad Berleburg), Oberdorf",8.45832,51.12381,"de:5970:38548"
"23560534","Schwarzenau (Eder), Tankstelle",8.4775,51.01991,"de:5970:60534"
"23538373","Neunkirchen (Siegerl), Schreiber",7.98406,50.78428,"de:5970:38373"
"23538370","Neunkirchen (Siegerl), Pfarrau",7.98894,50.78555,"de:5970:38370"
"23538632","Olpe, Osterseifen",7.86272,51.04023,"de:5966:38632"
"23538364","Neunkirchen (Siegerl), Abzw. Altenseelbach",7.99461,50.78804,"de:5970:38364"
"23560553","Feudingen, Haus Sonneborn",8.31447,50.93862,"de:5970:60553"
"23539523","Meggen (Lennestadt), Sachtlebenbrücke",8.0616,51.12556,"de:5966:39523"
"23538631","Olpe, Osterseifen B 55",7.86509,51.04118,"de:5966:38631"
"23560551","Feudingen, Gemeindehaus",8.3228,50.94021,"de:5970:60551"
"23560549","Feudingen, Ortsmitte",8.32666,50.94139,"de:5970:60549"
"23540976","Trockenbrück, Trockenbrück",8.02793,51.14652,"de:5966:40976"
"23560555","Feudingen, Post",8.32619,50.94147,"de:5970:60555"
"23560541","Weide, Auf der Heide",8.29667,50.94008,"de:5970:60541"
"23560514","Petersburg (Attendorn), Petersburg",7.86217,51.11036,"de:5966:60514"
"23560554","Feudingen, Katholische Kirche",8.31667,50.94216,"de:5970:60554"
"23560552","Feudingen, Grundschule",8.3048,50.9439,"de:5970:60552"
"23538588","Oedingen (Sauerl), Oedingerberg",8.13071,51.17461,"de:5966:38588"
"23560495","Holzweg (Attendorn), Holzweg",7.90628,51.14661,"de:5966:60495"
"23538372","Neunkirchen (Siegerl), Rathaus",7.99985,50.78975,"de:5970:38372"
"23541867","Neunkirchen (Siegerl), Ziegeleistraße",7.99446,50.78379,"de:5970:41867"
"23538369","Neunkirchen (Siegerl), Nord",7.99943,50.7886,"de:5970:38369"
"23538366","Neunkirchen (Siegerl), Brenner",8.00422,50.79073,"de:5970:38366"
"23560491","Ennest, Abzw. Holzweg",7.903,51.14591,"de:5966:60491"
"23539297","Rhode (Olpe), Gastreich",7.8584,51.05297,"de:5966:39297"
"23538371","Neunkirchen (Siegerl), Postamt",8.00438,50.78914,"de:5970:38371"
"23538367","Neunkirchen (Siegerl), Hellerstraße",8.006,50.78852,"de:5970:38367"
"23560496","Ennest, Holzweger Straße",7.89993,51.14508,"de:5966:60496"
"23560515","Petersburg (Attendorn), Alte Handelsstraße",7.86361,51.11057,"de:5966:60515"
"23560484","Albringhausen (Attendorn), Papiermühle",7.85334,51.1116,"de:5966:60484"
"23538551","Lützel (ü Kreuztal), Oberdorf",8.17132,50.96862,"de:5970:38551"
"23560517","Wamge, Wamge",7.84853,51.10444,"de:5966:60517"
"23560486","Biekhofen, Daseberg",7.88022,51.12622,"de:5966:60486"
"23541048","Lützel (ü Kreuztal), Unterdorf",8.1782,50.9697,"de:5970:41048"
"23538625","Olpe, Hatzenberg",7.85877,51.03756,"de:5966:38625"
"23560571","Holzhausen (Bad Laasphe), Keller",8.3489,50.96188,"de:5970:60571"
"23560572","Holzhausen (Bad Laasphe), Holzhausen Ort",8.34521,50.96443,"de:5970:60572"
"23560500","Ennest, Siemensstraße",7.92178,51.14452,"de:5966:60500"
"23560509","Listerscheid, Ort",7.84899,51.10823,"de:5966:60509"
"23538376","Salchendorf (Neunkirchen/Siegerl), Ort",8.01204,50.7954,"de:5970:38376"
"23538374","Salchendorf (Neunkirchen/Siegerl), Pfannenberg",8.0138,50.80741,"de:5970:38374"
"23538375","Salchendorf (Neunkirchen/Siegerl), Kolonie",8.01644,50.80114,"de:5970:38375"
"23560502","Attendorn, Hettmecker Teich",7.89124,51.13193,"de:5966:60502"
"23560498","Ennest, Neue Straße",7.91521,51.14243,"de:5966:60498"
"23538618","Sondern (Olpe), Diehlberg",7.83962,51.06946,"de:5966:38618"
"23560520","Weuste (Attendorn), Listersperrmauer",7.84156,51.09535,"de:5966:60520"
"23539134","Neunkirchen (Siegerl), Rassberg Schule",8.01687,50.78892,"de:5970:39134"
"23538680","Weidenhausen (Kr SI), Ortsmitte",8.36465,50.99286,"de:5970:38680"
"23538360","Zeppenfeld, Abzw. Rassberg",8.01922,50.78459,"de:5970:38360"
"23539720","Weidenhausen (Kr SI), Schmiede",8.36869,50.99607,"de:5970:39720"
"23540259","Eiserfeld (Siegen), Brüderbund",8.00781,50.82358,"de:5970:40259"
"23554925","Eiserfeld (Siegen), Wiedthalstraße",7.99767,50.82857,"de:5970:54925"
"23541411","Weidenhausen (Kr SI), Mühle",8.36936,51.00416,"de:5970:41411"
"23539296","Rhode (Olpe), Dorf",7.86277,51.05158,"de:5966:39296"
"23540261","Eiserfeld (Siegen), Ortsmitte",7.98797,50.83594,"de:5970:40261"
"23540791","Saalhausen (Sauerl), Taubenstraße",8.15305,51.11741,"de:5966:40791"
"23540970","Leimstruth, Treude",8.31544,50.99142,"de:5970:40970"
"23538363","Zeppenfeld, Kalte Wiese",8.03147,50.78176,"de:5970:38363"
"23560494","Ennest, Bremger Weg  15",7.89746,51.13314,"de:5966:60494"
"23540263","Eisern, Schränke",8.02674,50.82101,"de:5970:40263"
"23538759","Erndtebrück, Oststraße",8.26033,50.99205,"de:5970:38759"
"23540936","Schüllar, Toresweg",8.41905,51.08207,"de:5970:40936"
"23560513","Nierhof, Nierhof",7.84173,51.10723,"de:5966:60513"
"23555546","Eiserfeld (Siegen), Bahnhof",7.98737,50.8461,"de:5970:55546"
"23538362","Wiederstein, Scheid",8.04368,50.7773,"de:5970:38362"
"23540089","Wemlighausen, Grundschule",8.41584,51.07603,"de:5970:40089"
"23540264","Eiserfeld (Siegen), Siegboot",7.99591,50.85021,"de:5970:40264"
"23560492","Ennest, Benzstraße",7.91928,51.14144,"de:5966:60492"
"23540260","Eiserfeld (Siegen), Hengsbach",8.00338,50.85132,"de:5970:40260"
"23560511","Neu-Listernohl, Friedhof",7.87019,51.11174,"de:5966:60511"
"23538608","Eichhagen, Ort",7.83552,51.05783,"de:5966:38608"
"23540253","Siegen, P+R Leimbachstadion",8.02131,50.85395,"de:5970:40253"
"23539242","Saalhausen (Sauerl), Reiherstraße",8.17164,51.12173,"de:5966:39242"
"23554953","Eichhagen, Eichhagener Straße",7.83572,51.05546,"de:5966:54953"
"23540254","Siegen, Rinsenau",8.01207,50.8629,"de:5970:40254"
"23539596","Schameder, Ort",8.2941,50.99854,"de:5970:39596"
"23538629","Olpe, Kreishaus",7.85041,51.03283,"de:5966:38629"
"23560490","Eichen (Attendorn), Langenohl",7.83337,51.09755,"de:5966:60490"
"23560518","Weschede, Weschede",7.84479,51.11777,"de:5966:60518"
"23540248","Siegen, Eintracht",8.00886,50.86663,"de:5970:40248"
"23540250","Siegen, Hindenburgsiedlung",8.02065,50.86387,"de:5970:40250"
"23560499","Ennest, Röntgenstraße",7.92235,51.14199,"de:5966:60499"
"23540257","Siegen, Unterm Klingelschacht",8.02053,50.86439,"de:5970:40257"
"23541424","Bad Berleburg, Weinberg",8.38454,51.03977,"de:5970:41424"
"23540256","Siegen, P+R Siegerlandhalle",8.00871,50.86801,"de:5970:40256"
"23540476","Bad Berleburg, Rathaus",8.39329,51.05384,"de:5970:40476"
"23540678","Lennestadt, Störmecke",8.18987,51.12496,"de:5966:40678"
"23560489","Attendorn, Eichen",7.82959,51.09422,"de:5966:60489"
"23560512","Neu-Listernohl, Schule",7.87522,51.11506,"de:5966:60512"
"23541712","Wilden, Oberwilden Landeskrone",8.08999,50.80245,"de:5970:41712"
"23541553","Bad Berleburg, Westf. Hof",8.39353,51.05826,"de:5970:41553"
"23541041","Bad Berleburg, Weide Unter der Weide",8.33699,51.01499,"de:5970:41041"
"23539983","Bad Berleburg, Schulzentrum",8.37754,51.03901,"de:5970:39983"
"23540229","Elspe (Lennestadt), Siedlung",8.04857,51.15303,"de:5966:40229"
"23541798","Womelsdorf, Womelsdorf",8.2608,51.00934,"de:5970:41798"
"23560528","Raumland, Bahnhof",8.36798,51.03491,"de:5970:60528"
"23541714","Wilden, Oberwilden",8.08963,50.80751,"de:5970:41714"
"23538431","Niederndorf (Siegerl), Schule",7.9034,50.86221,"de:5970:38431"
"23560506","Kraghammer, Ort",7.87367,51.11008,"de:5966:60506"
"23538987","Birkelbach (Erndtebrück), Post",8.26127,51.01516,"de:5970:38987"
"23560521","Ennest, Askay Mitte",7.92788,51.14018,"de:5966:60521"
"23540258","Siegen, Ziegelwerkstraße",8.01581,50.86918,"de:5970:40258"
"23560483","Albringhausen (Attendorn), Albringhausen",7.83147,51.10705,"de:5966:60483"
"23540638","Birkelbach (Erndtebrück), Streitplatz",8.27569,51.01549,"de:5970:40638"
"23538610","Kirchesohl, Kirchesohl",7.83207,51.04693,"de:5966:38610"
"23560527","Berghausen (Bad Berleburg), Schule",8.35253,51.03578,"de:5970:60527"
"23560485","Beukenbeul, Beukenbeul",7.8484,51.12988,"de:5966:60485"
"23538630","Olpe, Marktplatz",7.84468,51.03005,"de:5966:38630"
"23540252","Siegen, Kreishaus",8.01416,50.87051,"de:5970:40252"
"23540487","Berghausen (Bad Berleburg), Stahlschmidt",8.33616,51.03742,"de:5970:40487"
"23538626","Olpe, In der Wüste",7.84245,51.03202,"de:5966:38626"
"23540251","Siegen, Koblenzer Straße",8.01623,50.87164,"de:5970:40251"
"23560508","Attendorn, Krankenhaus",7.89741,51.12704,"de:5966:60508"
"23538635","Olpe, Winterbergstraße",7.84372,51.03034,"de:5966:38635"
"23540218","Röspe, Siedlung",8.24772,51.03414,"de:5970:40218"
"23554912","Röllecken, In der Schlade",7.98427,51.14372,"de:5966:54912"
"23539044","Berghausen (Bad Berleburg), Preisdorfbrücke",8.3189,51.04573,"de:5970:39044"
"23554951","Attendorn, Schwalbenohl Lübecker Straße",7.90992,51.13292,"de:5966:54951"
"23540969","Aue (Bad Berleburg), Treude",8.29901,51.04932,"de:5970:40969"
"23538634","Griesemert, Waukemicker Weg",7.87603,51.04746,"de:5966:38634"
"23539070","Bad Berleburg, Pulvermühle",8.27199,51.04878,"de:5970:39070"
"23539484","Rönkhausen, Mühlenweg",7.95186,51.22047,"de:5966:39484"
"23540107","Weringhausen, Schützenhalle",7.99769,51.16953,"de:5966:40107"
"23560480","Beukenbeul, Abzw.",7.84006,51.12533,"de:5966:60480"
"23539998","Finnentrop, Schulzentrum",7.97206,51.17183,"de:5966:39998"
"23540219","Rönkhausen, Siedlung",7.95348,51.2221,"de:5966:40219"
"23539483","Glinge, Glinge",7.9722,51.22735,"de:5966:39483"
"23541273","Rönkhausen, Waldesruh",7.95682,51.23529,"de:5966:41273"
"23540341","Siegen, Spandauer Straße",8.01826,50.87143,"de:5970:40341"
"23539650","Siegen, Schleifmühlchen",8.02961,50.87023,"de:5970:39650"
"23538984","Burbach (Siegerl), Post/Bahnhof",8.07757,50.74806,"de:5970:38984"
"23554446","Rothemühle (Biggetal), Stahl",7.8244,50.9527,"de:5966:54446"
"23540249","Siegen, Freudenberger Straße",8.01628,50.87702,"de:5970:40249"
"23538624","Olpe, Bruchstraße",7.84386,51.026,"de:5966:38624"
"23559683","Seelbach (Siegen), Ortsmitte",7.96405,50.88332,"de:5970:59683"
"23541321","Siegen, Wallgrabenstraße",8.03421,50.87376,"de:5970:41321"
"23554447","Ottfingen, Mitte",7.8461,50.9508,"de:5966:54447"
"23560522","Ennest, Askay Ende",7.93166,51.13793,"de:5966:60522"
"23539119","Ramscheid (Finnentrop), Ramscheid",8.08601,51.20584,"de:5966:39119"
"23554448","Hünsborn, Mitte",7.89148,50.93916,"de:5966:54448"
"23540288","Röllecken, Silbecker Straße",7.99006,51.14079,"de:5966:40288"
"23540266","Seelbach (Siegen), P+R Seelbacher Weiher",7.94452,50.88954,"de:5970:40266"
"23539926","Burbach (Siegerl), Schulzentrum",8.09197,50.74418,"de:5970:39926"
"23540270","Siegen, Sieghütte",8.02884,50.88753,"de:5970:40270"
"23539690","Oedingen (Sauerl), Schloßberg",8.1223,51.17856,"de:5966:39690"
"23538609","Griesemert, Griesemert",7.88311,51.04669,"de:5966:38609"
"23540373","Rönkhausen, Spielmann",7.95804,51.21673,"de:5966:40373"
"23538586","Oedingen (Sauerl), Mitte",8.12296,51.17558,"de:5966:38586"
"23539912","Rönkhausen, Schulte",7.96266,51.21378,"de:5966:39912"
"23539855","Oedingen (Sauerl), Schule",8.1224,51.17192,"de:5966:39855"
"23538813","Oedingen (Sauerl), Padberg",8.11827,51.17211,"de:5966:38813"
"23540267","Weidenau (Siegen), Schmiedestraße",8.03503,50.90044,"de:5970:40267"
"23538670","Feuersbach, Ort",8.10602,50.87659,"de:5970:38670"
"23538704","Weidenau (Siegen), Ost",8.03729,50.90954,"de:5970:38704"
"23540238","Feuersbach, Siedlung",8.1115,50.87828,"de:5970:40238"
"23538587","Oedingen (Sauerl), Oedinger Mühle",8.10966,51.16888,"de:5966:38587"
"23540599","Dreis-Tiefenbach, Stillingplatz",8.05897,50.91231,"de:5970:40599"
"23538693","Dreis-Tiefenbach, Ortsmitte",8.0559,50.91452,"de:5970:38693"
"23538377","Struthütten, Ort",7.9726,50.78346,"de:5970:38377"
"23560487","Attendorn, ZOB",7.90789,51.12487,"de:5966:60487"
"23560493","Ennest, Bremger Weg",7.89623,51.1385,"de:5966:60493"
"23554449","Löffelberg (Kr Olpe), Löffelberg",7.87089,50.93003,"de:5966:54449"
"23538633","Olpe, Schlachthof",7.84197,51.01925,"de:5966:38633"
"23540721","Eschenbach (Netphen), Sägewerk",8.11894,50.92695,"de:5970:40721"
"23540720","Oedingen (Sauerl), Sägewerk",8.10467,51.16665,"de:5966:40720"
"23560558","Fischelbach, Ortsmitte",8.35463,50.87382,"de:5970:60558"
"23560557","Fischelbach, Ortseingang",8.34954,50.87583,"de:5970:60557"
"23560556","Fischelbach, Firma Schmidt",8.34777,50.88188,"de:5970:60556"
"23560567","Hesselbach (Kr Siegen), Ort",8.3679,50.88551,"de:5970:60567"
"23560569","Hesselbach (Kr Siegen), Post",8.36398,50.88554,"de:5970:60569"
"23560568","Hesselbach (Kr Siegen), Ortseingang",8.35686,50.88622,"de:5970:60568"
"23560566","Hesselbach (Kr Siegen), Mühle",8.3453,50.88573,"de:5970:60566"
"23541713","Wilgersdorf, Buswende",8.14915,50.81377,"de:5970:41713"
"23560559","Bad Laasphe, Forsthaus Heidebach",8.3407,50.89546,"de:5970:60559"
"23560542","Banfe, Abzw. Bernshausen",8.34468,50.90121,"de:5970:60542"
"23560548","Bernshausen (Bad Laasphe), Bernshausen",8.32302,50.8984,"de:5970:60548"
"23560547","Banfe, Banfetal",8.34373,50.90414,"de:5970:60547"
"23560546","Banfe, West",8.34709,50.90974,"de:5970:60546"
"23560543","Banfe, Eiche",8.35271,50.91475,"de:5970:60543"
"23538627","Olpe, Jungbecker",7.83922,51.01519,"de:5966:38627"
"23560545","Banfe, Grundschule",8.35255,50.91588,"de:5970:60545"
"23560544","Banfe, Firma Stenger",8.35805,50.91821,"de:5970:60544"
"23560576","Laaspherhütte, Laaspherhütte",8.37922,50.92319,"de:5970:60576"
"23560540","Bad Laasphe, Am Dillstein",8.40358,50.92519,"de:5970:60540"
"23560481","Ebbelinghagen, Abzw.",7.82546,51.13106,"de:5966:60481"
"23560577","Niederlaasphe, Grundschule",8.44151,50.92634,"de:5970:60577"
"23560565","Herbertshausen (Bad Laasphe), Herbertshausen",8.36173,50.92279,"de:5970:60565"
"23560562","Bad Laasphe, Grundschule",8.41521,50.92861,"de:5970:60562"
"23560570","Bad Laasphe, Hirtsgrunder Weg",8.42433,50.93019,"de:5970:60570"
"23539580","Saßmicke, Dorf",7.8295,50.99764,"de:5966:39580"
"23560560","Glashütte (Bad Laasphe), Glashütte",8.28068,50.92174,"de:5970:60560"
"23540159","Nenkersdorf (Netphen), Sehlbachstraße",8.19494,50.89678,"de:5970:40159"
"23560561","Großenbach (Bad Laasphe), Großenbach",8.25285,50.91887,"de:5970:60561"
"23540570","Grissenbach, Sterndellweg",8.15939,50.88566,"de:5970:40570"
"23540272","Walpersdorf (Kr Siegen), Siegquelle",8.24512,50.91929,"de:5970:40272"
"23538615","Oberveischede, Schmellenberger Weg",7.96213,51.08093,"de:5966:38615"
"23538613","Oberveischede, Attendorner Straße",7.95369,51.08192,"de:5966:38613"
"23538561","Oberelspe, Oberelspe",8.08984,51.15965,"de:5966:38561"
"23560488","Ebbelinghagen, Ebbelinghagen",7.82334,51.13478,"de:5966:60488"
"23538614","Oberveischede, Hacke",7.95228,51.07657,"de:5966:38614"
"23538616","Oberveischede, Zeppenfeld",7.94528,51.07595,"de:5966:38616"
"23538612","Neuenwald, Neuenwald",7.92783,51.06649,"de:5966:38612"
"23538611","Neuenwald, Negerweg",7.9178,51.06186,"de:5966:38611"
"23554911","Helden, Zu den Gruben",7.95423,51.11301,"de:5966:54911"
"23532277","Birkelbach (Erndtebrück), Am Böhl",8.24883,51.02446,"de:5970:32277"
"23534570","Frettermühle, Frettermühle",8.01756,51.18253,"de:5966:34570"
"23536927","Emlinghausen, Emlinghausen",8.08344,51.05551,"de:5966:36927"
"23537538","Arfeld, Leisebach",8.44221,51.00372,"de:5970:37538"
"23534826","Friedrichsthal (Olpe), Friedrichsthal",7.8416,51.00359,"de:5966:34826"
"23536923","Kirchhundem, Kaiserhof",8.08807,51.08674,"de:5966:36923"
"23537355","Girkhausen (Bad Berleburg), Küchelbach",8.44161,51.10192,"de:5970:37355"
"23537499","Meggen (Lennestadt), Vetter",8.06597,51.12421,"de:5966:37499"
"23535063","Girkhausen (Bad Berleburg), Post",8.45478,51.11661,"de:5970:35063"
"23537493","Kirchveischede, Mitte",8.00012,51.09244,"de:5966:37493"
"23535943","Hilchenbach, Trafo",8.09122,50.99926,"de:5970:35943"
"23536546","Girkhausen (Bad Berleburg), Jägerhof",8.45737,51.11955,"de:5970:36546"
"23537492","Kirchveischede, Cafe Sauerland",7.99653,51.08981,"de:5966:37492"
"23534614","Finnentrop, Industriegebiet 2",7.97017,51.18874,"de:5966:34614"
"23536922","Kirchhundem, Flaper Schulweg",8.09002,51.0841,"de:5966:36922"
"23537491","Kirchveischede, Buswende",7.99285,51.08849,"de:5966:37491"
"23538073","Wunderthausen, Mitte",8.51385,51.0941,"de:5970:38073"
"23537254","Afholderbach, Krämer",8.13744,50.94282,"de:5970:37254"
"23536920","Flape, Abzw. Berghof",8.08751,51.06918,"de:5966:36920"
"23537478","Bilstein (Lennestadt), Freibad",8.02293,51.09725,"de:5966:37478"
"23534572","Heggen (Finnentrop), Ahauser Straße",7.95168,51.15433,"de:5966:34572"
"23537483","Bruchhausen (Lennestadt), Bruchhausen",7.96834,51.08459,"de:5966:37483"
"23534577","Heggen (Finnentrop), Lüdenstein",7.94542,51.15371,"de:5966:34577"
"23534574","Heggen (Finnentrop), Dorf",7.95385,51.1554,"de:5966:34574"
"23534576","Heggen (Finnentrop), Grundschule",7.95372,51.15216,"de:5966:34576"
"23536928","Flape, Flape",8.09257,51.07479,"de:5966:36928"
"23534615","Finnentrop, Industriegebiet 3",7.96707,51.19173,"de:5966:34615"
"23535938","Hilchenbach, In der Hasselbach",8.09728,50.99786,"de:5970:35938"
"23536733","Kessenhammer, Kessenhammer",7.85392,51.06119,"de:5966:36733"
"23534590","Schönholthausen, Breiter Weg",8.00692,51.18995,"de:5966:34590"
"23537510","Trockenbrück, Melbecker Straße",8.02876,51.1472,"de:5966:37510"
"23537506","Lennestadt, Tannenhof",8.01133,51.15252,"de:5966:37506"
"23537511","Trockenbrück, Thetener Straße",8.02673,51.14257,"de:5966:37511"
"23538332","Drolshagen, Schwarte",7.77411,51.02673,"de:5966:38332"
"23538356","Neunkirchen (Siegerl), Pitz",7.99478,50.78052,"de:5970:38356"
"23538358","Salchendorf (Neunkirchen/Siegerl), Oerter",8.00852,50.79272,"de:5970:38358"
"23538355","Neunkirchen (Siegerl), Ort",7.99775,50.77834,"de:5970:38355"
"23538351","Lennestadt, Neukamp",8.00268,51.14805,"de:5966:38351"
"23537485","Grevenbrück (Lennestadt), Abzw. Sporke",8.00208,51.14785,"de:5966:37485"
"23534583","Ostentrop, Ostentrop",8.02178,51.18965,"de:5966:34583"
"23536921","Kirchhundem, Altes Feld",8.09799,51.08148,"de:5966:36921"
"23534591","Schönholthausen, Koltermecke",8.01366,51.19113,"de:5966:34591"
"23534578","Hollenbock, Hollenbock",7.92968,51.14644,"de:5966:34578"
"23537507","Lennestadt, Sporke",8.00744,51.15591,"de:5966:37507"
"23536302","Erndtebrück, Im Grünewald",8.2249,50.97657,"de:5970:36302"
"23536435","Deuz, Irle Werk I",8.14888,50.88533,"de:5970:36435"
"23536662","Langenei, Karlshütte",8.12831,51.11318,"de:5966:36662"
"23535940","Hilchenbach, Schulzentrum",8.10395,50.99742,"de:5970:35940"
"23537500","Meggen (Lennestadt), Zum Ohl",8.06519,51.11748,"de:5966:37500"
"23534613","Finnentrop, Industriegebiet 1",7.9706,51.1847,"de:5966:34613"
"23535072","Lennestadt, Gleierbrück",8.1434,51.11659,"de:5966:35072"
"23536930","Wirme, Spielplatz",8.06926,51.04422,"de:5966:36930"
"23535172","Grissenbach, Ortsmitte",8.16705,50.88611,"de:5970:35172"
"23537910","Walpersdorf (Kr Siegen), Martinstraße",8.20895,50.90363,"de:5970:37910"
"23535812","Grissenbach, Hembach",8.17223,50.88732,"de:5970:35812"
"23537980","Balde, Melbach",8.32156,50.99054,"de:5970:37980"
"23538319","Walpersdorf (Kr Siegen), Kirche",8.20479,50.90015,"de:5970:38319"
"23538199","Walpersdorf (Kr Siegen), Märzbecherweg",8.20203,50.8986,"de:5970:38199"
"23538314","Nenkersdorf (Netphen), Ortsmitte",8.18986,50.89368,"de:5970:38314"
"23534582","Müllen (Sauerl), Müllen",7.9886,51.18334,"de:5966:34582"
"23535941","Hilchenbach, Siedlung",8.084,51.00134,"de:5970:35941"
"23537497","Maumke, Strübecke",8.05917,51.12175,"de:5966:37497"
"23538086","Erndtebrück, Mitte",8.25686,50.98901,"de:5970:38086"
"23537377","Bad Laasphe, Im Laasphetal",8.40006,50.93416,"de:5970:37377"
"23535617","Kunst Wittgenstein, Haus Bald",8.38973,50.93074,"de:5970:35617"
"23534575","Heggen (Finnentrop), Dünscheder Weg",7.9588,51.1489,"de:5966:34575"
"23535396","Erndtebrück, Hachenbergschule",8.25013,50.99093,"de:5970:35396"
"23537376","Bad Laasphe, Abzw. Bergstraße",8.40458,50.92939,"de:5970:37376"
"23534587","Sange (Finnentrop), Sange",7.941,51.15975,"de:5966:34587"
"23537728","Leimstruth, Luisenburg",8.31291,50.99113,"de:5970:37728"
"23537489","Lennestadt, Hespecke",8.01638,51.15691,"de:5966:37489"
"23537498","Meggen (Lennestadt), Schulzentrum",8.06393,51.11603,"de:5966:37498"
"23536272","Eiserfeld (Siegen), IHW-Park",7.98762,50.8435,"de:5970:36272"
"23537476","Altenhundem, Olper Straße",8.07187,51.10621,"de:5966:37476"
"23537975","Saalhausen (Sauerl), Meisenstraße",8.15952,51.1175,"de:5966:37975"
"23537474","Altenhundem, Krankenhaus",8.06933,51.10933,"de:5966:37474"
"23534719","Elspe (Lennestadt), Freilichtbühne",8.04094,51.15054,"de:5966:34719"
"23535939","Hilchenbach, Rathaus",8.10934,50.99713,"de:5970:35939"
"23536918","Brachthausen, Abzw. Silberg",8.08186,51.03092,"de:5966:36918"
"23537870","Hilchenbach, Markt",8.10917,50.99662,"de:5970:37870"
"23536925","Brachthausen, Bender",8.08476,51.03345,"de:5966:36925"
"23536846","Saalhausen (Sauerl), Kirche",8.16661,51.11777,"de:5966:36846"
"23537508","Theten, Bauhof",8.02863,51.13762,"de:5966:37508"
"23535718","Schüllar, Heiderbrücke",8.41085,51.0716,"de:5970:35718"
"23536926","Brachthausen, Graube",8.08493,51.03194,"de:5966:36926"
"23536931","Wirme, Unterdorf",8.06853,51.04692,"de:5966:36931"
"23537482","Lennestadt, Bonzelerhammer",8.03017,51.1116,"de:5966:37482"
"23537505","Saalhausen (Sauerl), Schule",8.17013,51.11806,"de:5966:37505"
"23535139","Raumland, Grebe",8.38275,51.03048,"de:5970:35139"
"23536924","Kirchhundem, Mennekes",8.07844,51.09104,"de:5966:36924"
"23535387","Finnentrop, Habbecke",7.97154,51.18053,"de:5966:35387"
"23537479","Bonzel, Kirche",8.02321,51.11674,"de:5966:37479"
"23535942","Hilchenbach, Stadtmitte",8.11174,50.99611,"de:5970:35942"
"23537481","Lennestadt, Großhaus",8.03517,51.10916,"de:5966:37481"
"23536929","Brachthausen, Vorspanneiche",8.07379,51.02096,"de:5966:36929"
"23537473","Altenhundem, Kockmecke",8.04724,51.0962,"de:5966:37473"
"23537438","Langenei, Mitte",8.12024,51.11265,"de:5966:37438"
"23537736","Bad Berleburg, EJOT",8.40276,51.06563,"de:5970:37736"
"23537480","Bonzel, Mitte",8.02393,51.12011,"de:5966:37480"
"23534581","Mißmecke, Mißmecke",8.01454,51.17442,"de:5966:34581"
"23536999","Raumland, Klinker L 553",8.37676,51.03006,"de:5970:36999"
"23535307","Bad Berleburg, Gunzetal",8.38725,51.04239,"de:5970:35307"
"23537490","Kickenbach, Ohl",8.0992,51.11115,"de:5966:37490"
"23537509","Theten, Theten",8.03182,51.13399,"de:5966:37509"
"23537495","Maumke, Friedhof",8.05438,51.1201,"de:5966:37495"
"23535984","Bad Berleburg, Weide Hof Born",8.33684,51.01889,"de:5970:35984"
"23537487","Grevenbrück (Lennestadt), Schule",8.01838,51.13874,"de:5966:37487"
"23536825","Birkelbach (Erndtebrück), Kirche",8.26868,51.01452,"de:5970:36825"
"23534618","Finnentrop, Thyssen",7.96966,51.16903,"de:5966:34618"
"23537503","Lennestadt, Kreisstraße",8.20348,51.11759,"de:5966:37503"
"23537504","Lennestadt, Niedermelbecke",8.03115,51.16088,"de:5966:37504"
"23534592","Schönholthausen, Schönholthausen Siedlung",8.00194,51.18483,"de:5966:34592"
"23537501","Lennestadt, Härdlerstraße",8.21125,51.11503,"de:5966:37501"
"23534580","Lenhausen, Kirche",7.96818,51.20143,"de:5966:34580"
"23537502","Lennestadt, Kirche",8.21403,51.1149,"de:5966:37502"
"23535944","Hilchenbach, Addenbach",8.07436,51.01492,"de:5970:35944"
"23536753","Kickenbach, Kickenbach",8.10544,51.11103,"de:5966:36753"
"23537496","Maumke, Kirche",8.04972,51.12067,"de:5966:37496"
"23535291","Berghausen (Bad Berleburg), Grünewald",8.32613,51.04861,"de:5970:35291"
"23534595","Weringhausen, Zur Egge",7.99906,51.1687,"de:5966:34595"
"23535398","Elspe (Lennestadt), Hachener Weg",8.06451,51.14912,"de:5966:35398"
"23536656","Bad Berleburg, Kappler Mühle",8.28491,51.05757,"de:5970:36656"
"23536806","Wingeshausen, Kirche",8.28931,51.06844,"de:5970:36806"
"23534589","Schliprüthen, Schliprüthen",8.08318,51.23381,"de:5966:34589"
"23534616","Finnentrop, Killeschlader Weg",7.97618,51.17114,"de:5966:34616"
"23538320","Netphen, Hohen Rain",8.10438,50.91941,"de:5970:38320"
"23534584","Rönkhausen, Am Nückel",7.96472,51.22166,"de:5966:34584"
"23534586","Rönkhausen, Therecker Weg",7.94937,51.22289,"de:5966:34586"
"23534588","Schliprüthen, Abzw. Röhrenspring",8.07475,51.2409,"de:5966:34588"
"23537475","Altenhundem, Missionshaus",8.05905,51.09858,"de:5966:37475"
"23534571","Glinge, Lindenhof",7.97694,51.22725,"de:5966:34571"
"23536430","Dreis-Tiefenbach, Industriestraße",8.06581,50.91205,"de:5970:36430"
"23534619","Finnentrop, Zum Schee",7.97783,51.17545,"de:5966:34619"
"23537486","Grevenbrück (Lennestadt), Förde",8.01604,51.13073,"de:5966:37486"
"23537874","Elspe (Lennestadt), Markt",8.05769,51.1538,"de:5966:37874"
"23537477","Altenhundem, Wiesenkamp",8.06852,51.09783,"de:5966:37477"
"23537323","Siegen, Kölner Tor",8.02028,50.87449,"de:5970:37323"
"23534617","Finnentrop, Rathaus",7.97215,51.17239,"de:5966:34617"
"23537488","Grevenbrück (Lennestadt), Schützenhalle",8.01462,51.1364,"de:5966:37488"
"23537439","Langenei, Schweinsberg",8.11303,51.11306,"de:5966:37439"
"23535960","Siegen, Hindenburgbrücke",8.02223,50.87707,"de:5970:35960"
"23537472","Altenhundem, Haub",8.06908,51.09358,"de:5966:37472"
"23534594","Serkenrode, Mitte",8.07885,51.21239,"de:5966:34594"
"23535463","Serkenrode, Hallenstraße",8.07606,51.21112,"de:5966:35463"
"23537484","Germaniahütte, Germaniahütte",8.03147,51.12974,"de:5966:37484"
"23535908","Siegen, Hessische Straße",8.04019,50.87699,"de:5970:35908"
"23536434","Kaan-Marienborn, Irle-Brauerei",8.04793,50.87432,"de:5970:36434"
"23536574","Siegen, Kaisergarten",8.02835,50.88132,"de:5970:36574"
"23534593","Serkenrode, Jostes",8.07187,51.20839,"de:5966:34593"
"23534585","Rönkhausen, Lenscheider Straße",7.95804,51.21843,"de:5966:34585"
"23534747","Lindenberg (Siegerland), Ort",7.92673,50.90093,"de:5970:34747"
"23534745","Freudenberg (Siegerland), Landruf",7.86983,50.8839,"de:5970:34745"
"23536568","Kaan-Marienborn, Ortsmitte",8.06222,50.87076,"de:5970:36568"
"23537494","Maumke, Dinsel",8.04382,51.12094,"de:5966:37494"
"23534743","Freudenberg (Siegerland), Asdorfer Weiher",7.87071,50.87863,"de:5970:34743"
"23536681","Oedingen (Sauerl), Kastanienweg",8.12299,51.17456,"de:5966:36681"
"23534744","Freudenberg (Siegerland), Kreuzseifen",7.86833,50.88132,"de:5970:34744"
"23534612","Finnentrop, In der Mark",7.98294,51.17376,"de:5966:34612"
"23532584","Berlinghausen (Attendorn), Abzw.",7.90831,51.09755,"de:5966:32584"
"23533372","Oedingen (Sauerl), Brachter Straße",8.12202,51.17376,"de:5966:33372"
"23533625","Lippe (Siegerl), Lippe Ort",8.05873,50.7082,"de:5970:33625"
"23534528","Richstein, Feuerwehrhaus",8.46326,50.98411,"de:5970:34528"
"23533612","Burbach (Siegerl), Neuwiese",8.11887,50.75513,"de:5970:33612"
"23533605","Lippe (Siegerl), Gewerbegebiet Rübgarten",8.07841,50.71676,"de:5970:33605"
"23534563","Deutmecke, Ort",8.02779,51.18242,"de:5966:34563"
"23533624","Lippe (Siegerl), Daadener Straße",8.05571,50.70906,"de:5970:33624"
"23534412","Olpe, Hüppcherhammer",7.81479,51.02411,"de:5966:34412"
"23534525","Kaan-Marienborn, Feuersbacher Furt",8.07897,50.8699,"de:5970:34525"
"23534568","Frettermühle, Gierschlade",8.01829,51.18057,"de:5966:34568"
"23533613","Burbach (Siegerl), Parkplatz Firma Otto",8.10833,50.75288,"de:5970:33613"
"23534382","Benfe, Birkenhof",8.24397,50.93766,"de:5970:34382"
"23533614","Lippe (Siegerl), Siegerlandkaserne",8.07191,50.72361,"de:5970:33614"
"23534146","Rhode (Olpe), Eben",7.85931,51.04911,"de:5966:34146"
"23533607","Burbach (Siegerl), Carl-Benz-Straße",8.10087,50.75032,"de:5970:33607"
"23534411","Eichen (Drolshagen), Eichen",7.81014,51.02263,"de:5966:34411"
"23533617","Lippe (Siegerl), Zollhaus",8.06753,50.70478,"de:5970:33617"
"23533615","Burbach (Siegerl), Siemensstraße",8.09964,50.7521,"de:5970:33615"
"23534410","Drolshagen, Krähenberg",7.80401,51.02841,"de:5966:34410"
"23533606","Burbach (Siegerl), Steinhardt",8.08891,50.74176,"de:5970:33606"
"23534385","Benfe, Schützenhalle",8.24488,50.94107,"de:5970:34385"
"23534562","Deutmecke, Haag",8.0332,51.18425,"de:5966:34562"
"23533608","Burbach (Siegerl), Daimlerstraße",8.09468,50.75012,"de:5970:33608"
"23533626","Lützeln, Ort",8.10253,50.72216,"de:5970:33626"
"23534409","Wenkhausen, Wenkhausen",7.79887,51.02747,"de:5966:34409"
"23534408","Drolshagen, In der Wünne",7.78732,51.02299,"de:5966:34408"
"23533616","Burbach (Siegerl), Staudig",8.08829,50.74425,"de:5970:33616"
"23533627","Lützeln, Schule",8.10632,50.72174,"de:5970:33627"
"23534246","Weidenau (Siegen), Abzw. Einheitsstraße",8.03806,50.9041,"de:5970:34246"
"23533610","Burbach (Siegerl), Haigerweg",8.08569,50.74625,"de:5970:33610"
"23534407","Drolshagen, Hagener Straße",7.77769,51.02124,"de:5966:34407"
"23534565","Fretter, Abzw. Schöndelt",8.05393,51.19439,"de:5966:34565"
"23534559","Bamenohl, Romke",7.99243,51.15583,"de:5966:34559"
"23534406","Drolshagen, Markt",7.77685,51.02369,"de:5966:34406"
"23533609","Burbach (Siegerl), Freibadweg",8.0801,50.74506,"de:5970:33609"
"23533604","Burbach (Siegerl), Grundschule",8.07876,50.74425,"de:5970:33604"
"23534405","Drolshagen, Meyer & Teubner",7.77047,51.02857,"de:5966:34405"
"23534404","Hützemert, Bender & Wirth",7.75605,51.03477,"de:5966:34404"
"23534390","Benfe, Obere Siedlung",8.24909,50.94972,"de:5970:34390"
"23534403","Hützemert, Bahnhof",7.75073,51.03749,"de:5966:34403"
"23534402","Wegeringhausen, Post",7.74199,51.04579,"de:5966:34402"
"23534380","Benfe, Forsth Ludwigseck",8.25046,50.95431,"de:5970:34380"
"23534383","Benfe, Ederkopf",8.2442,50.93489,"de:5970:34383"
"23534391","Benfe, Untere Siedlung",8.25767,50.95805,"de:5970:34391"
"23534384","Benfe, Ortsausgang",8.24118,50.93341,"de:5970:34384"
"23534381","Benfe, Wendeplatz",8.23643,50.93152,"de:5970:34381"
"23534259","Erndtebrück, Eisenwerk Klein",8.23526,50.98216,"de:5970:34259"
"23534511","Dreis-Tiefenbach, Feldwasserstraße",8.04984,50.91434,"de:5970:34511"
"23534387","Erndtebrück, Bärenbach",8.25773,50.98049,"de:5970:34387"
"23533661","Olpe, ZOB",7.84091,51.02968,"de:5966:33661"
"23534107","Bad Berleburg, Dödesberg",8.43136,51.09377,"de:5970:34107"
"23533538","Netphen, Brücke",8.09866,50.9144,"de:5970:33538"
"23534166","Erndtebrück, Ederfeldstraße",8.24289,50.98579,"de:5970:34166"
"23534386","Erndtebrück, Bergstraße",8.25495,50.98579,"de:5970:34386"
"23534567","Fretter, Fretter",8.04631,51.19297,"de:5966:34567"
"23534388","Erndtebrück, Grundschule",8.25351,50.98602,"de:5970:34388"
"23534260","Eiserfeld (Siegen), Hundsbergstraße",7.99231,50.8321,"de:5970:34260"
"23534557","Altfinnentrop, Altfinnentrop",7.96091,51.16124,"de:5966:34557"
"23534564","Fehrenbracht, Fehrenbracht",8.09952,51.22793,"de:5966:34564"
"23533628","Oberdresselndorf, Oberdresselndorf",8.13722,50.71462,"de:5970:33628"
"23534520","Wingeshausen, Festplatz",8.28828,51.06579,"de:5970:34520"
"23534389","Erndtebrück, Hackler",8.25605,50.98849,"de:5970:34389"
"23534111","Schüllar, Döngeshof",8.42533,51.08639,"de:5970:34111"
"23533534","Aue (Bad Berleburg), Brücke",8.2851,51.05363,"de:5970:33534"
"23534569","Frettermühle, Mühlenwinkel",8.01295,51.18004,"de:5966:34569"
"23534566","Fretter, Bausenroder Weg",8.05745,51.20176,"de:5966:34566"
"23533632","Wahlbach (Kr Siegen), Stöcken",8.0497,50.7696,"de:5970:33632"
"23533629","Wahlbach (Kr Siegen), Hellern",8.0536,50.76131,"de:5970:33629"
"23533600","Niederdresselndorf, Bahnhof",8.13573,50.72085,"de:5970:33600"
"23533630","Wahlbach (Kr Siegen), Ort",8.0562,50.758,"de:5970:33630"
"23533601","Niederdresselndorf, Kirche",8.13665,50.72332,"de:5970:33601"
"23533602","Niederdresselndorf, Ort",8.13521,50.72374,"de:5970:33602"
"23533623","Holzhausen (Siegerl), Kontramarkt",8.14,50.73346,"de:5970:33623"
"23533631","Wahlbach (Kr Siegen), Schule",8.06279,50.75588,"de:5970:33631"
"23533621","Holzhausen (Siegerl), Holzhausen Ort",8.14315,50.73836,"de:5970:33621"
"23534165","Berghausen (Bad Berleburg), Ederbrücke",8.33935,51.03503,"de:5970:34165"
"23534556","Altfinnentrop, Lindenbaum",7.95777,51.16497,"de:5966:34556"
"23533622","Holzhausen (Siegerl), Hoorwaldstraße",8.13581,50.73574,"de:5970:33622"
"23534204","Bad Berleburg, Eichendorf",8.33874,51.00838,"de:5970:34204"
"23534164","Raumland, Ederbrücke",8.37889,51.03076,"de:5970:34164"
"23534561","Bamenohl, Volksbank",7.98415,51.16544,"de:5966:34561"
"23533434","Berghausen (Bad Berleburg), Breuer",8.34998,51.03456,"de:5970:33434"
"23533620","Gilsbach, Wendeplatz",8.08401,50.77387,"de:5970:33620"
"23534299","Bad Berleburg, Emil-Wolff-Straße",8.38931,51.04689,"de:5970:34299"
"23534558","Bamenohl, Am Kreuz",7.99256,51.16622,"de:5966:34558"
"23534413","Rosenthal (Olpe), Rosenthal",7.82681,51.03423,"de:5966:34413"
"23533619","Gilsbach, Schule",8.08411,50.76839,"de:5970:33619"
"23533634","Würgendorf, Mühlenweg",8.12927,50.75904,"de:5970:33634"
"23533633","Würgendorf, Wasserscheide",8.14052,50.76106,"de:5970:33633"
"23533611","Burbach (Siegerl), Kreuzborn",8.0685,50.75266,"de:5970:33611"
"23533618","Gilsbach, Ort",8.08494,50.77096,"de:5970:33618"
"23534074","Birkelbach (Erndtebrück), Dreschhalle",8.25865,51.01463,"de:5970:34074"
"23534027","Berghausen (Bad Berleburg), Dorfschänke",8.35956,51.03511,"de:5970:34027"
"23534560","Bamenohl, Sieler",7.9746,51.16848,"de:5966:34560"
"23532791","Stünzel, Ort",8.36141,50.98218,"de:5970:32791"
"23533232","Birkefehl, Birkefehl",8.29441,51.01091,"de:5970:33232"
"23533368","Bad Laasphe, Bracht",8.39161,50.94774,"de:5970:33368"
"23533280","Siegen, Blumenstraße",8.03632,50.87558,"de:5970:33280"
"23533257","Dreis-Tiefenbach, Bittenbach",8.07811,50.91256,"de:5970:33257"
"23532744","Arfeld, Ederbrücke",8.42595,51.01365,"de:5970:32744"
"23524314","Attendorn, Schwalbenohl Rundturnhalle",7.90412,51.13316,"de:5966:24314"
"23532603","Hofkühl, Hofkühl",7.91898,51.09562,"de:5966:32603"
"23532592","Dünschede, Kirche",7.97554,51.13621,"de:5966:32592"
"23532619","Silbecke, Silbecke",7.97838,51.14714,"de:5966:32619"
"23532634","Attendorn, Waldenburger Weg",7.90747,51.12261,"de:5966:32634"
"23531733","Feuersbach, Abzw. Flammersbach",8.08819,50.86827,"de:5970:31733"
"23532586","Biekhofen, Am Stappenweg",7.88998,51.12706,"de:5966:32586"
"23532768","Richstein, Post",8.46191,50.98509,"de:5970:32768"
"23532781","Bad Berleburg, Kontramarkt",8.39541,51.05724,"de:5970:32781"
"23532769","Richstein, Unterdorf",8.45952,50.98818,"de:5970:32769"
"23532587","Biekhofen, Luke",7.88156,51.13051,"de:5966:32587"
"23532593","Dünschede, Schützenhalle",7.97964,51.13519,"de:5966:32593"
"23532583","Attendorn, Schwalbenohl Wiesbadener Straße",7.90668,51.13623,"de:5966:32583"
"23532628","Attendorn, Mooskamp",7.90998,51.12172,"de:5966:32628"
"23532843","Bad Berleburg, ZOB",8.39391,51.05114,"de:5970:32843"
"23532611","Niederhelden, Platte",7.96692,51.11294,"de:5966:32611"
"23532717","Raumland, Klinker B 480",8.37555,51.02993,"de:5970:32717"
"23532778","Bad Berleburg, Berufsschule",8.39945,51.05971,"de:5970:32778"
"23532787","Bad Berleburg, Limburgstraße",8.39126,51.04527,"de:5970:32787"
"23532746","Arfeld, Stedenhof",8.44182,51.01119,"de:5970:32746"
"23532620","Sankt Claas, St. Claas",7.98444,51.13229,"de:5966:32620"
"23532745","Arfeld, Kuhmichel",8.44645,51.02074,"de:5970:32745"
"23532626","Attendorn, Ewig",7.88219,51.11696,"de:5966:32626"
"23532783","Bad Berleburg, Krankenhaus",8.40219,51.061,"de:5970:32783"
"23532623","Attendorn, Burg Schnellenberg",7.91922,51.12035,"de:5966:32623"
"23532131","Berghausen (Bad Berleburg), Alte Mühle",8.33712,51.03136,"de:5970:32131"
"23532776","Bad Berleburg, Berliner Straße",8.3929,51.04205,"de:5970:32776"
"23532615","Rieflinghausen, Rieflinghausen",7.92637,51.09543,"de:5966:32615"
"23532775","Bad Berleburg, Altenzentrum",8.40474,51.06086,"de:5970:32775"
"23532750","Beddelhausen, Post",8.49253,50.99965,"de:5970:32750"
"23532771","Schwarzenau (Eder), Alte Fabrik",8.46086,51.02338,"de:5970:32771"
"23532748","Beddelhausen, Ederhöhe",8.49953,50.99799,"de:5970:32748"
"23532889","Lenhausen, Bahnhof",7.96424,51.19948,"de:5966:32889"
"23532777","Bad Berleburg, Bernauer Straße",8.39708,51.04381,"de:5970:32777"
"23532588","Biekhofen, Mitte",7.87876,51.12877,"de:5966:32588"
"23532806","Niederlaasphe, Amalienhütte",8.45184,50.92076,"de:5970:32806"
"23532582","Attendorn, Schwalbenohl Stettiner Straße",7.90674,51.13154,"de:5966:32582"
"23532609","Niederhelden, Halberstadt",7.97783,51.12512,"de:5966:32609"
"23531914","Erndtebrück, Abzw. Schameder",8.26383,50.99755,"de:5970:31914"
"23532633","Attendorn, Reper Höhe",7.92748,51.11641,"de:5966:32633"
"23532598","Helden, Abzw. Mecklinghausen",7.95864,51.1093,"de:5966:32598"
"23532811","Bad Laasphe, Friedrichshütte",8.40317,50.92246,"de:5970:32811"
"23532789","Bad Berleburg, Klinik Wittgenstein",8.40813,51.05869,"de:5970:32789"
"23532596","Ennest, Mitte",7.91166,51.14527,"de:5966:32596"
"23532471","Bilstein (Lennestadt), Amtshausplatz",8.02092,51.09457,"de:5966:32471"
"23532766","Raumland, Ort",8.38505,51.02763,"de:5970:32766"
"23532764","Hemschlar, Rundweg",8.36261,51.01331,"de:5970:32764"
"23532749","Beddelhausen, Raumelsberg",8.48618,51.00957,"de:5970:32749"
"23531979","Rinthe, Abzw. Rinthe",8.34104,51.00433,"de:5970:31979"
"23532407","Schüllar, Am Stein",8.41436,51.07756,"de:5970:32407"
"23532790","Rinthe, Ort",8.3468,51.00534,"de:5970:32790"
"23532606","Mecklinghausen, Mecklinghausen",7.95729,51.10544,"de:5966:32606"
"23532813","Niederlaasphe, Niederlaasphe",8.44357,50.92419,"de:5970:32813"
"23532605","Mecklinghausen, Abzw. Jäckelchen",7.95664,51.09924,"de:5966:32605"
"23532803","Bad Laasphe, Emmaburg",8.40908,50.92376,"de:5970:32803"
"23532613","Niederhelden, Unterdorf",7.97523,51.12359,"de:5966:32613"
"23532635","Aue (Bad Berleburg), Bahnhof",8.29006,51.05233,"de:5970:32635"
"23532784","Bad Berleburg, Laibach",8.44392,51.0678,"de:5970:32784"
"23532589","Biggen, Haus am See",7.9406,51.13702,"de:5966:32589"
"23532772","Schwarzenau (Eder), Röser",8.47329,51.02366,"de:5970:32772"
"23532738","Wemlighausen, Im Gängelchen",8.42111,51.076,"de:5970:32738"
"23532788","Bad Berleburg, Winterbach",8.44938,51.08252,"de:5970:32788"
"23532780","Christianseck, Christianseck Abzw.",8.45791,51.0686,"de:5970:32780"
"23532767","Raumland, Steinbruch",8.38983,51.02166,"de:5970:32767"
"23532805","Bad Laasphe, Wilhelmsplatz",8.41213,50.9266,"de:5970:32805"
"23532762","Elsoff (Bad Berleburg), Längersbach",8.51157,51.01065,"de:5970:32762"
"23532612","Niederhelden, Kapelle",7.97205,51.12015,"de:5966:32612"
"23532802","Bad Laasphe, Abzw. Puderbach",8.43521,50.92938,"de:5970:32802"
"23532759","Elsoff (Bad Berleburg), Dornbachsmühle",8.50894,51.01443,"de:5970:32759"
"23532786","Bad Berleburg, Lichtenberg",8.46523,51.07331,"de:5970:32786"
"23532636","Aue (Bad Berleburg), Tankstelle",8.28118,51.05298,"de:5970:32636"
"23532804","Bad Laasphe, Firma Mittelmann",8.42839,50.93094,"de:5970:32804"
"23532782","Bad Berleburg, Kraftsholz",8.46608,51.08864,"de:5970:32782"
"23532812","Kunst Wittgenstein, Lahnbrücke",8.38347,50.93332,"de:5970:32812"
"23531975","Aue (Bad Berleburg), Abzw. Wingeshausen",8.28761,51.05396,"de:5970:31975"
"23532796","Kunst Wittgenstein, Gasthof Haferkiste",8.38027,50.93616,"de:5970:32796"
"23532760","Elsoff (Bad Berleburg), Dreschhalle",8.51187,51.02077,"de:5970:32760"
"23532602","Helden, Repetal",7.94528,51.11561,"de:5966:32602"
"23532209","Erndtebrück, Altenschlager Weg",8.24823,50.98918,"de:5970:32209"
"23532624","Attendorn, Am Stürzenberg",7.91292,51.12688,"de:5966:32624"
"23533165","Siegen, Berliner Straße",8.01574,50.87195,"de:5970:33165"
"23532243","Netphen, Altwiese",8.10743,50.92233,"de:5970:32243"
"23532617","Röllecken, Hamerland",7.99278,51.14237,"de:5966:32617"
"23532978","Balde, Balde",8.33428,50.9904,"de:5970:32978"
"23532600","Helden, Kirche",7.95343,51.1168,"de:5966:32600"
"23532614","Repe, Repe",7.92847,51.10865,"de:5966:32614"
"23532763","Elsoff (Bad Berleburg), Ortsmitte",8.51005,51.02344,"de:5970:32763"
"23532608","Neu-Listernohl, Neu Listernohl",7.87833,51.11348,"de:5966:32608"
"23532753","Diedenshausen (Kr SI), Sohl",8.47655,51.0753,"de:5970:32753"
"23532756","Dotzlar, Hude",8.39969,51.0174,"de:5970:32756"
"23532765","Bad Berleburg, Meckhausen",8.41399,51.02645,"de:5970:32765"
"23531756","Bad Berleburg, Dödesberg Abzw. Girkhausen",8.43475,51.09742,"de:5970:31756"
"23532622","Attendorn, Sonnenschule",7.90038,51.12804,"de:5966:32622"
"23532819","Volkholz, West",8.27722,50.93001,"de:5970:32819"
"23532200","Elspe (Lennestadt), Altenheim",8.03567,51.14883,"de:5966:32200"
"23532758","Elsoff (Bad Berleburg), Bernhardsmühle",8.51077,51.0286,"de:5970:32758"
"23531940","Weidenhausen (Kr SI), Abzw. Stünzel",8.35189,50.98828,"de:5970:31940"
"23532535","Siegen, AOK",8.02299,50.87119,"de:5970:32535"
"23532737","Dotzlar, Abzw. Sassenhausen",8.40812,51.01439,"de:5970:32737"
"23532818","Volkholz, Ost",8.28575,50.93282,"de:5970:32818"
"23532757","Dotzlar, Schule",8.41371,51.01799,"de:5970:32757"
"23532755","Dotzlar, Scheid",8.4142,51.01512,"de:5970:32755"
"23532807","Amtshausen, Amtshausen",8.30049,50.97393,"de:5970:32807"
"23532540","Deuz, Apotheke",8.14433,50.88428,"de:5970:32540"
"23532761","Elsoff (Bad Berleburg), Hof Burbach",8.50786,51.03664,"de:5970:32761"
"23532770","Sassenhausen, Sassenhausen",8.39216,50.99206,"de:5970:32770"
"23532779","Bad Berleburg, Burgfeldschule",8.38797,51.05738,"de:5970:32779"
"23532747","Arfeld, Zoll",8.42983,51.01335,"de:5970:32747"
"23532797","Rüppershausen, Schwarzacker",8.30458,50.96405,"de:5970:32797"
"23532210","Hilchenbach, Altenteich",8.20412,50.97214,"de:5970:32210"
"23532553","Arfeld, Post",8.43734,51.0143,"de:5970:32553"
"23532591","Borghausen, Borghausen",7.99577,51.14864,"de:5966:32591"
"23532801","Volkholz, Abzw. Benfe",8.24165,50.92293,"de:5970:32801"
"23532816","Rüppershausen, Ort",8.3076,50.95996,"de:5970:32816"
"23532121","Dreis-Tiefenbach, Alte Burg",8.0457,50.91249,"de:5970:32121"
"23532785","Bad Berleburg, Landebach",8.49404,51.0929,"de:5970:32785"
"23532740","Alertshausen, Garsbach",8.50901,51.04794,"de:5970:32740"
"23532752","Diedenshausen (Kr SI), Schwan",8.49893,51.07836,"de:5970:32752"
"23532817","Rüppershausen, Abzw.",8.30934,50.95754,"de:5970:32817"
"23532814","Oberndorf (Bad Laasphe), Ort",8.30425,50.95633,"de:5970:32814"
"23532751","Diedenshausen (Kr SI), Post",8.50211,51.07584,"de:5970:32751"
"23532754","Diedenshausen (Kr SI), Eichbach",8.50637,51.0848,"de:5970:32754"
"23532581","Attendorn, Schwalbenohl Danziger Straße",7.91149,51.13238,"de:5966:32581"
"23532590","Biggen, Haus Biggen",7.92881,51.13333,"de:5966:32590"
"23532616","Röllecken, Dorfplatz",7.98847,51.1383,"de:5966:32616"
"23532815","Rückershausen (Bad Laasphe), Rückershausen",8.3005,50.95174,"de:5970:32815"
"23532741","Alertshausen, Ortsmitte",8.51909,51.05586,"de:5970:32741"
"23524556","Attendorn, Waldfriedhof",7.89444,51.13499,"de:5966:24556"
"23532822","Weide, Weide",8.29309,50.94877,"de:5970:32822"
"23532794","Feudingen, Hermannsteg",8.32267,50.95087,"de:5970:32794"
"23532773","Wunderthausen, Unterdorf",8.51454,51.09103,"de:5970:32773"
"23532743","Alertshausen, Abzw. Dachsloch",8.51886,51.06877,"de:5970:32743"
"23533169","Elspe (Lennestadt), Bermker Weg",8.07245,51.14999,"de:5966:33169"
"23532742","Alertshausen, Oberdorf",8.52463,51.06081,"de:5970:32742"
"23532595","Ennest, Linde",7.91049,51.1421,"de:5966:32595"
"23532739","Alertshausen, Schneidemühle",8.5232,51.06541,"de:5970:32739"
"23532601","Helden, Mitte",7.95166,51.11548,"de:5966:32601"
"23532597","Helden, Schule",7.9566,51.11625,"de:5966:32597"
"23532630","Attendorn, Mubea II",7.89677,51.11879,"de:5966:32630"
"23532821","Weide, Espen",8.29212,50.94506,"de:5970:32821"
"23532808","Bermershausen, Bermershausen",8.34379,50.95076,"de:5970:32808"
"23532585","Biekhofen, Am Noacken",7.88659,51.13123,"de:5966:32585"
"23531983","Oechelhausen, Abzw.",8.14546,50.95597,"de:5970:31983"
"23532629","Attendorn, Mubea I",7.89166,51.11855,"de:5966:32629"
"23532795","Feudingen, Tankstelle Benfer",8.32177,50.93807,"de:5970:32795"
"23532594","Ennest, Brokamp",7.91877,51.14546,"de:5966:32594"
"23532607","Neu-Listernohl, Biggestaudamm",7.88121,51.11104,"de:5966:32607"
"23532798","Saßmannshausen, Dornhof",8.36048,50.94953,"de:5970:32798"
"23532632","Attendorn, Niederste Tor",7.90856,51.12617,"de:5966:32632"
"23524388","Attendorn, St.-Ursula-Schulen",7.8983,51.12422,"de:5966:24388"
"23532799","Saßmannshausen, Ortsmitte",8.36845,50.95039,"de:5970:32799"
"23532820","Weide, Abzw.",8.29316,50.93896,"de:5970:32820"
"23532618","Röllecken, Weber",7.99016,51.1405,"de:5966:32618"
"23532810","Feudingerhütte, Feudingerhütte",8.33472,50.94033,"de:5970:32810"
"23532793","Feudingen, Dernbacher Brücke",8.30899,50.93915,"de:5970:32793"
"23532631","Attendorn, Muhr & Söhne",7.89984,51.12129,"de:5966:32631"
"23532599","Helden, Dorfstraße",7.95149,51.11619,"de:5966:32599"
"23510568","Leimstruth, Erndtebrück-Leimstruth",8.31275,50.99066,"de:5970:10568"
"23510495","Heggen (Finnentrop), Heggen",7.96333,51.15367,"de:5966:10495"
"23510529","Weidenau (Siegen), Siegen-Weidenau",8.02987,50.89586,"de:5970:10529"
"23511047","Finnentrop, Finnentrop",7.9646,51.17316,"de:5966:11047"
"23516796","Freudenberg (Siegerland), Mórer Platz",7.87339,50.89628,"de:5970:16796"
"23510798","Würgendorf, Würgendorf",8.14152,50.76006,"de:5970:10798"
"23510799","Würgendorf, Würgendorf Ort",8.12671,50.75694,"de:5970:10799"
"23524128","Attendorn, Post",7.90518,51.12616,"de:5966:24128"
"23516795","Freudenberg (Siegerland), Schlossberg",7.87193,50.89874,"de:5970:16795"
"23510605","Meggen (Lennestadt), Lennestadt-Meggen",8.06534,51.12277,"de:5966:10605"
"23510759","Vormwald (ü Kreuztal), Vormwald Dorf",8.12726,50.98991,"de:5970:10759"
"23510758","Vormwald (ü Kreuztal), Vormwald",8.14304,50.98045,"de:5970:10758"
"23510718","Sondern (Olpe), Sondern",7.84251,51.07305,"de:5966:10718"
"23510731","Allenbach (Kr Siegen), Stift Keppel-Allenbach",8.09214,50.97795,"de:5970:10731"
"23510893","Lützel (ü Kreuztal), Lützel",8.17402,50.96703,"de:5970:10893"
"23514415","Olpe, Olpe",7.84055,51.02953,"de:5966:14415"
"23510651","Rückershausen (Bad Laasphe), Bad Laasphe-Oberndorf",8.30016,50.95227,"de:5970:10651"
"23510675","Raumland, Raumland-Markhausen",8.36821,51.03403,"de:5970:10675"
"23510546","Kirchhundem, Kirchhundem",8.07817,51.08604,"de:5966:10546"
"23510891","Holzhausen (Siegerl), Holzhausen (Siegen)",8.13538,50.73935,"de:5970:10891"
"23510582","Listerscheid, Listerscheid",7.84936,51.1082,"de:5966:10582"
"23510528","Geisweid, Siegen-Geisweid",8.01436,50.91567,"de:5970:10528"
"23510553","Kraghammer, Kraghammer",7.87383,51.10918,"de:5966:10553"
"23510861","Hohen Hagen (Attendorn), Attendorn-Hohen Hagen",7.85524,51.09016,"de:5966:10861"
"23510583","Littfeld, Kreuztal-Littfeld",7.98713,51.00719,"de:5970:10583"
"23510508","Hilchenbach, Hilchenbach",8.10687,50.99219,"de:5970:10508"
"23510688","Rudersdorf (Siegerland), Wilnsdorf-Rudersdorf",8.14412,50.83901,"de:5970:10688"
"23510554","Kredenbach, Kredenbach",8.0427,50.9632,"de:5970:10554"
"23510511","Dahlbruch, Hillnhütten",8.07119,50.97282,"de:5970:10511"
"23510700","Schameder, Erndtebrück-Schameder",8.29283,50.99773,"de:5970:10700"
"23510560","Bad Laasphe, Bad Laasphe",8.42068,50.92936,"de:5970:10560"
"23510892","Wahlbach (Kr Siegen), Wahlbach (Kr Siegen)",8.05383,50.75842,"de:5970:10892"
"23511628","Niederlaasphe, Bad Laasphe-Niederlaasphe",8.44234,50.92413,"de:5970:11628"
"23510767","Welschen Ennest, Kirchhundem-Welschen Ennest",8.00358,51.04193,"de:5966:10767"
"23510637","Niederdresselndorf, Niederdresselndorf",8.13639,50.7212,"de:5970:10637"
"23510438","Ferndorf (Siegerland), Ferndorf (Siegen)",8.00906,50.95953,"de:5970:10438"
"23510439","Feudingen, Bad Laasphe-Feudingen",8.32903,50.94095,"de:5970:10439"
"23510472","Grevenbrück (Lennestadt), Lennestadt-Grevenbrück",8.01766,51.14182,"de:5966:10472"
"23510250","Attendorn, Attendorn",7.90825,51.1247,"de:5966:10250"
"23510400","Eichen (Siegerl), Kreuztal-Eichen",7.97814,50.97359,"de:5970:10400"
"23510401","Eichhagen, Eichhagen",7.83695,51.05831,"de:5966:10401"
"23510413","Erndtebrück, Erndtebrück",8.25515,50.991,"de:5970:10413"
"23510285","Birkelbach (Erndtebrück), Birkelbach",8.25286,51.02051,"de:5970:10285"
"23510252","Aue (Bad Berleburg), Aue-Wingeshausen",8.28985,51.05188,"de:5970:10252"
"23510270","Berghausen (Bad Berleburg), Berghausen (b Wittgenstein)",8.34987,51.03296,"de:5970:10270"
"23510320","Burbach (Siegerl), Burbach (Kr Siegen)",8.07786,50.74882,"de:5970:10320"
"23510272","Bad Berleburg, Bad Berleburg",8.39406,51.05132,"de:5970:10272"
"23510333","Dahlbruch, Dahlbruch",8.05358,50.97046,"de:5970:10333"
"23510238","Altenhundem, Lennestadt-Altenhundem",8.07153,51.10405,"de:5966:10238"
"23510191","Kreuztal (Siegerland), Kreuztal",7.99211,50.95591,"de:5970:10191"
"23510102","Neunkirchen (Siegerl), Neunkirchen (Siegen)",8.00593,50.7848,"de:5970:10102"
"23510101","Neunkirchen (Siegerl), Altenseelbach",7.99247,50.78384,"de:5970:10101"
"23510100","Struthütten, Struthütten",7.97338,50.78141,"de:5970:10100"
"23510099","Niederschelden, Niederschelden Nord",7.97096,50.84431,"de:5970:10099"
"23510098","Eiserfeld (Siegen), Eiserfeld (Sieg)",7.98674,50.84713,"de:5970:10098"
"23510097","Siegen, Siegen",8.01628,50.87589,"de:5970:10097"
"15033201","Niederschelden, Bahnhof Niederschelden",7.96505,50.83916,"de:5970:7331"
