"stop_id","stop_name","stop_lon","stop_lat","stop_code"
"1005408","Erling (Kr STA), Erlinger Höhe",11.1771663255,47.9645500114,"de:9188:5408"
"1005407","Erling (Kr STA), Herrschinger Straße",11.1836414506,47.9666467578,"de:09188:5407"
"1005405","Erling (Kr STA), Alte Schmiede",11.1847425202,47.9673111158,"de:09188:5405"
"1005402","Erling (Kr STA), Starnberger Straße",11.1876372591,47.9680331234,"de:09188:5402"
"1005406","Erling (Kr STA), Andechser Straße",11.1844135866,47.971194073700005,"de:09188:5406"
"1005692","Machtlfing, Angerweg",11.2192384008,47.9487537055,"de:9188:5692"
"1005411","Herrsching (a Ammersee), Strittholzstraße",11.1687569659,47.9828996581,"de:9188:5411"
"1005606","Machtlfing, Machtlfing",11.2237223795,47.9470123094,"de:9188:5606"
"1005404","Andechs, Kloster",11.185253073199998,47.9731696535,"de:9188:5404"
"1005510","Machtlfing, Machtlfing, IWL",11.234775028,47.9437047781,"de:9188:5510"
"1005409","Herrsching (a Ammersee), Panoramastraße",11.1708833052,47.9898221832,"de:9188:5409"
"1005422","Ried (am Ammersee), Schloß Ried",11.1432164959,48.0068512024,"de:9188:5422"
"1005418","Herrsching (a Ammersee), Lochschwab",11.1539345044,48.003800789900005,"de:9188:5418"
"1005414","Herrsching (a Ammersee), Dampfersteg",11.1703251242,47.9953942481,"de:9188:5414"
"1005412","Herrsching (a Ammersee), Martinsweg",11.174111016,47.994935852800005,"de:9188:5412"
"1005410","Herrsching (a Ammersee), Herrsching",11.170828352000001,47.99827586040001,"de:9188:5410"
"1005416","Herrsching (a Ammersee), Hechendorfer Straße",11.1649535677,48.004438975099994,"de:9188:5416"
"1005415","Herrsching (a Ammersee), Mitterweg",11.1751852883,47.999836133399995,"de:9188:5415"
"1005403","Herrsching (a Ammersee), Realschule",11.170048319300001,48.003468580900005,"de:9188:5403"
"1005398","Rothenfeld, Rothenfeld",11.2217533935,47.9747446656,"de:9188:5398"
"1005413","Herrsching (a Ammersee), Goethestraße",11.1817887337,48.0017180382,"de:9188:5413"
"1005424","Breitbrunn (Ammersee), Neue Siedlung",11.141104712199999,48.026693460299995,"de:9188:5424"
"1005426","Breitbrunn (Ammersee), Obstgarten",11.1360056675,48.0349743731,"de:9188:5426"
"1005396","Starnberg, Seewiesen",11.2334724897,47.97840291039999,"de:9188:5396"
"1005428","Breitbrunn (Ammersee), Bucher Weg",11.1369876933,48.0388040455,"de:9188:5428"
"1005394","Landstetten (Obb), Landstetten",11.248345392100001,47.9845448935,"de:9188:5394"
"1005399","Widdersberg, Kirchplatz",11.1987051797,48.017872907699996,"de:9188:5399"
"1005432","Buch (am Ammersee), Abzw. Seeleiten",11.142031687000001,48.048402024699996,"de:9188:5432"
"1005397","Widdersberg, Burgstraße",11.1976582011,48.0196913164,"de:9188:5397"
"1005512","Frieding (Andechs), Frieding",11.2170888924,48.0104269201,"de:9188:5512"
"1005434","Buch (am Ammersee), Gemeindehaus",11.1387704186,48.054151540999996,"de:9188:5434"
"1005401","Hechendorf (am Pilsensee), Oberfeld",11.181985111400001,48.0333861006,"de:9188:5401"
"1005499","Inning am Ammersee, Schlagenhofen-Weich",11.1698823786,48.0430574327,"de:9188:5499"
"1005495","Schlagenhofen, Am Wörthsee",11.158194619400001,48.051678266799996,"de:9188:5495"
"1005436","Inning am Ammersee, Waldstraße",11.1430932888,48.0620352584,"de:9188:5436"
"1005349","Seefeld (Oberbay), Schloss",11.205094870500002,48.0321272188,"de:9188:5349"
"1005497","Bachern (am Wörthsee), Wallerstraße",11.1611445948,48.058355095699994,"de:9188:5497"
"1005511","Drößling, Drößling",11.227311028199999,48.022394678699996,"de:9188:5511"
"1005520","Seefeld (Oberbay), Hubertusstraße",11.208790263600001,48.0333578564,"de:9188:5520"
"1005400","Seefeld (Oberbay), Seefeld-Hechendorf",11.1976634649,48.0409612958,"de:9188:5400"
"1005518","Seefeld (Oberbay), Krankenhaus",11.2140496471,48.0349228476,"de:9188:5518"
"1005443","Stegen (Ammersee), Stegen",11.133168432,48.0770251185,"de:9188:5443"
"1005496","Bachern (am Wörthsee), Bachern",11.1640784746,48.0627563449,"de:9188:5496"
"1005438","Inning am Ammersee, Obermühle",11.146733740399998,48.0715056026,"de:9188:5438"
"1005517","Oberalting, Neuer Friedhof",11.2043017237,48.0435885977,"de:9188:5517"
"1005516","Oberalting, Marienplatz",11.2187636792,48.036214084,"de:9188:5516"
"1006230","Türkenfeld (Obb), Türkenfeld",11.0780730687,48.1050791703,"de:9179:6230"
"1005514","Oberalting, Mühlbachstraße",11.2166957521,48.0399413581,"de:9188:5514"
"1005551","Inning am Ammersee, Bacherner Weg",11.1571728923,48.071555619099996,"de:9188:5551"
"1005929","Türkenfeld (Obb), Keltenstraße",11.082829977800001,48.1041279219,"de:9179:5929"
"1005441","Inning am Ammersee, Landsberger Straße",11.145347158600002,48.0774490526,"de:9188:5441"
"1005513","Oberalting, Am Saganger",11.213980124399999,48.043025620499996,"de:9188:5513"
"1005442","Inning am Ammersee, Marktplatz",11.1523188005,48.0770599773,"de:9188:5442"
"1005932","Türkenfeld (Obb), Duringstraße",11.0857116898,48.107451502900005,"de:9179:5932"
"1005515","Oberalting, Espe-Platz",11.2302772948,48.038378262799995,"de:9188:5515"
"1005928","Türkenfeld (Obb), Schule",11.0900274026,48.1079174274,"de:9179:5928"
"1005924","Zankenhausen, Zankenhausen",11.1061176621,48.1023237429,"de:9179:5924"
"1005489","Walchstadt (Wörthsee), Osterholzweg",11.176797933100001,48.0711491936,"de:9188:5489"
"1005505","Steinebach (Wörthsee), St.-Martin-Kirche",11.2018262741,48.063195466900005,"de:9188:5505"
"1005390","Steinebach (Wörthsee), Steinebach",11.2069499306,48.0615491209,"de:9188:5390"
"1005498","Walchstadt (Wörthsee), Walchstadt",11.183871339400001,48.073591908400005,"de:9188:5498"
"1005523","Meiling (Kr STA), Dorfstraße",11.2253852921,48.0516199673,"de:9188:5523"
"1005555","Inning am Ammersee, GP Inning/Wörthsee",11.1521188286,48.090054200299996,"de:9188:5555"
"1005920","Pleitmannswang, Pleitmannswang",11.113948348600001,48.1076365775,"de:9179:5920"
"1005504","Meiling (Kr STA), Dellinger Weg",11.223657544199998,48.0550168856,"de:9188:5504"
"1005501","Steinebach (Wörthsee), Seestraße",11.202354348599998,48.0672282547,"de:9188:5501"
"1005742","Walchstadt (Wörthsee), Am See",11.194910318,48.0739305453,"de:9188:5742"
"1005502","Steinebach (Wörthsee), Maistraße",11.2025610253,48.0738309688,"de:9188:5502"
"1005503","Delling, Delling",11.236255282,48.0594631437,"de:9188:5503"
"1005500","Waldbrunn (Wörthsee), Lerchenstraße",11.2007489774,48.081660771500005,"de:9188:5500"
"1005423","Etterschlag, Etterschlag, Am Anger",11.1976191603,48.085281362500005,"de:9188:5423"
"1005393","Etterschlag, Etterschlag Süd",11.2008456538,48.084953082999995,"de:9188:5393"
"1005395","Etterschlag, Eichenweg",11.200785343200002,48.0862477347,"de:9188:5395"
"1005916","Kottgeisering, Kriegerdenkmal",11.131522556,48.1190125543,"de:9179:5916"
"1005912","Kottgeisering, Siedlung",11.1391326413,48.1225592568,"de:9179:5912"
"1005902","Grafrath, Rassosiedlung",11.156952173699999,48.1204069208,"de:9179:5902"
"1005906","Unteralting, Unteralting",11.164825344199999,48.1177843042,"de:9179:5906"
"1005380","Weßling, Weßling",11.2505179142,48.07692356530001,"de:9188:5380"
"1005910","Mauern (Grafrath), Mauern (FFB)",11.1883162754,48.1092467895,"de:9179:5910"
"1005905","Grafrath, Graf-Rasso-Straße",11.1560195979,48.124042448699996,"de:9179:5905"
"1005914","Mauern (Grafrath), Mauern (FFB), Römerstraße",11.1881374742,48.1095153328,"de:9179:5914"
"1005911","Unteralting, Aussiedlerhof",11.1783375697,48.1143741743,"de:9179:5911"
"1005908","Grafrath, Schule",11.161046798700001,48.1230090065,"de:9179:5908"
"1005901","Grafrath, Brandweg",11.1738892659,48.1229400941,"de:9179:5901"
"1006421","Schöngeising, Jexhof",11.1996534208,48.1211527058,"de:9179:6421"
"1007130","Thalhausen (b Aichach), Thalhausen (DAH)",11.2157856156,48.4197860827,"de:9174:7130"
"1007123","Wollomoos, Schulweg",11.198252772599998,48.4032170579,"de:9174:7123"
"1007125","Wollomoos, Weilachstraße",11.199138439799999,48.4001386017,"de:9174:7125"
"1007221","Haag (Altomünster), Haag",11.2369070053,48.428507328399995,"de:9174:7221"
"1007332","Pfaffenhofen (Altomünster), Pfaffenhofen/Alto.,Pfaffenberg",11.206569803899999,48.3955676167,"de:9174:7332"
"1007109","Pfaffenhofen (Altomünster), Pfaffenhofen/Alto.,Ort",11.2056469343,48.3932590271,"de:9174:7109"
"1007171","Schielach, Schielach",11.235303269100001,48.414701394800005,"de:9174:7171"
"1007223","Lauterbach (Altomünster), Lauterbach, Abzw.",11.250197744400001,48.4298176821,"de:9174:7223"
"1007213","Pfaffenhofen (Altomünster), Pfaffenhofen/Alto.,Süd",11.2123737023,48.38874575210001,"de:9174:7213"
"1007219","Arnberg, Arnberg",11.2459612994,48.416570286100004,"de:9174:7219"
"1007147","Kiemertshofen, Kiemertshofen",11.1929216649,48.3687992401,"de:9174:7147"
"1007149","Radenzhofen, Radenzhofen",11.2007530811,48.3711830927,"de:9174:7149"
"1007200","Asbach (Altomünster), Asbach (Altomünster)",11.260290215400001,48.4234169796,"de:9174:7200"
"1007115","Lichtenberg (Altomünster), Lichtenberg, Abzw.",11.191241903,48.360657670799995,"de:9174:7115"
"1007113","Oberndorf (Altomünster), Oberndorf (b.Altomünster)",11.213759479,48.3750317715,"de:9174:7113"
"1007101","Hohenzell (b Aichach), Ort",11.183138637999999,48.3500784853,"de:9174:7101"
"1006953","Humersberg, Humersberg, Abzw.",11.228283490699999,48.3839972292,"de:9174:6953"
"1007122","Hohenzell (b Aichach), Maibaum",11.186309321300001,48.350073962399996,"de:9174:7122"
"1007133","Hohenzell (b Aichach), Abzw. Irchenbrunn",11.188707198000001,48.3503067229,"de:9174:7133"
"1007264","Miesberg (Obb), Miesberg",11.128933526399999,48.310129003200004,"de:9174:7264"
"1007266","Stockach (Kr Dachau), Stockach",11.135666142500002,48.3050176549,"de:9174:7266"
"1007268","Oberumbach, Oberumbach",11.148524611200001,48.3115976199,"de:9174:7268"
"1007120","Oberzeitlbach, Ort",11.232761215600002,48.3726149258,"de:9174:7120"
"1006794","Tegernbach (Kr FFB), Baindlkirchner Straße",11.0771771984,48.2712704145,"de:9179:6794"
"1006308","Tegernbach (Kr FFB), Tegernbach",11.072948073400001,48.2689880935,"de:9179:6308"
"1006952","Altomünster, Sportplatz",11.2489462131,48.3844846024,"de:9174:6952"
"1007131","Irchenbrunn, Irchenbrunn",11.2163011642,48.3545268159,"de:9174:7131"
"1007386","Altomünster, Am Klosterweiher",11.2598571365,48.3917946783,"de:9174:7386"
"1006950","Altomünster, Altomünster",11.254288943099999,48.3856614504,"de:9174:6950"
"1007317","Oberzeitlbach, Ost",11.2392818406,48.3707246801,"de:9174:7317"
"1007271","Weitenried, Weitenried",11.1278534938,48.2927998545,"de:9174:7271"
"1007270","Unterumbach, Unterumbach",11.1646411967,48.3137212141,"de:9174:7270"
"1007105","Hadersried, Hadersried",11.184730087299998,48.3247200524,"de:9174:7105"
"1007127","Plixenried, Plixenried",11.2335863246,48.3580965511,"de:9174:7127"
"1006601","Altomünster, Gewerbepark",11.260640306400001,48.379668057500005,"de:9174:6601"
"1007111","Ruppertskirchen (Obb), Ruppertskirchen, Abzw.",11.2488193016,48.368323195500004,"de:9174:7111"
"1007129","Langengern, Langengern",11.2320784412,48.3533741056,"de:9174:7129"
"1006313","Mittelstetten (FFB), Tegernbacher Straße",11.0857678469,48.2616711964,"de:9179:6313"
"1007103","Miegersbach, Miegersbach",11.1939389071,48.323966532600004,"de:9174:7103"
"1007121","Röckersberg, Röckersberg",11.244444212100001,48.361163032099995,"de:9174:7121"
"1007112","Sixtnitgern, Sixtnitgern",11.209685169299998,48.3329789683,"de:9174:7112"
"1007262","Kaltenbach (Kr DAH), Kaltenbach, Abzw.",11.1414532345,48.288684287799995,"de:9174:7262"
"1007258","Egenburg, Egenburg",11.1524657816,48.292588050499994,"de:9174:7258"
"1007263","Bayerzell, Bayerzell",11.130669825599998,48.2793132926,"de:9174:7263"
"1006306","Oberdorf (Mittelstetten), Oberdorf (FFB)",11.077515660600001,48.251703687399996,"de:9179:6306"
"1007254","Wagenhofen (Kr DAH), Wagenhofen",11.1720047447,48.3019123775,"de:9174:7254"
"1007252","Höfa, Abzw.Unterumbach",11.189124601400001,48.3129070629,"de:9174:7252"
"1007256","Pfaffenhofen (Glonn), Pfaffenhofen",11.163315692100001,48.2958240718,"de:9174:7256"
"1007118","Unterzeitlbach, Unterzeitlbach",11.2598728565,48.3636824011,"de:9174:7118"
"1007265","Wagenhofen (Kr DAH), Wagenhofen, Abzw.",11.1702396469,48.2977088217,"de:9174:7265"
"1007261","Ebersried, Kreisstraße",11.147423248600001,48.2838093644,"de:9174:7261"
"1007108","Miegersbach, Miegersbach, Abzw.",11.204245231300002,48.319388772299995,"de:9174:7108"
"1006304","Mittelstetten (FFB), Ziegeleistraße",11.088305796,48.2522483558,"de:9179:6304"
"1007267","Höfa, Höfa",11.1910047054,48.3099615301,"de:9174:7267"
"1006932","Röckersberg, Röckersberg, Abzw.",11.2601690283,48.3618676973,"de:9174:6932"
"1006303","Mittelstetten (FFB), Schulstraße",11.0981172107,48.256390662099996,"de:9179:6303"
"1006299","Mittelstetten (FFB), Feuerhausstraße",11.0949544471,48.2547470304,"de:9179:6299"
"1006292","Mittelstetten (FFB), Schule",11.1003940439,48.2571099651,"de:9179:6292"
"1007289","Ebersried, Ort",11.1481199042,48.2824295622,"de:9174:7289"
"1006300","Vogach, Vogach",11.1181476121,48.26474781739999,"de:9179:6300"
"1006286","Weyhern (Egenhofen), Weyhern (FFB)",11.1534684087,48.284105804700005,"de:9179:6286"
"1007110","Roßbach (Odelzhausen), Roßbach",11.2162803355,48.3241837761,"de:9174:7110"
"1007106","Odelzhausen, Am Schloßberg",11.2045420481,48.315038120100006,"de:9174:7106"
"1006862","Odelzhausen, Hauptstraße",11.1964798645,48.3089926465,"de:9174:6862"
"1006861","Odelzhausen, Schloßstraße",11.1988704991,48.310430237999995,"de:9174:6861"
"1006301","Mittelstetten (FFB), Muthilostraße",11.0970178617,48.251516655799996,"de:9179:6301"
"1006322","Althegnenberg, Kohlstattweg",11.0662644477,48.2372865361,"de:9179:6322"
"1006321","Althegnenberg, Schule",11.070729931399999,48.2389954553,"de:9179:6321"
"1007107","Odelzhausen, Schule",11.1927243695,48.3052072049,"de:9174:7107"
"1007132","Sittenbach, Nelkenweg",11.2289051592,48.330267487899995,"de:9174:7132"
"1006530","Althegnenberg, Althegnenberg",11.0622347489,48.2345827332,"de:9179:6530"
"1006856","Taxa, Taxa",11.2120264933,48.31669039130001,"de:9174:6856"
"1007114","Sittenbach, Maibaum",11.2327699383,48.3315613488,"de:9174:7114"
"1006844","Odelzhausen, Lukkaer-Straße",11.2005122371,48.307168127699995,"de:9174:6844"
"1006320","Althegnenberg, Oberdorfer Straße",11.0654686188,48.2336737397,"de:9179:6320"
"1006284","Egenhofen (Kr FFB), Egenhofen",11.1636671843,48.2833709854,"de:9179:6284"
"1007087","Odelzhausen, Rudolf-Diesel-Straße",11.203538202899999,48.30762977490001,"de:9174:7087"
"1006319","Althegnenberg, Hörbacher Straße",11.064918030300001,48.2321224084,"de:9179:6319"
"1006216","Egenhofen (Kr FFB), Oststraße",11.1674412125,48.2841268051,"de:9179:6216"
"1006305","Mittelstetten (FFB), Kreisstraße",11.098946133699998,48.2467653127,"de:9179:6305"
"1007277","Odelzhausen, Robert-Bosch-Straße",11.2026081486,48.305024298099994,"de:9174:7277"
"1007116","Gaggers, Gaggers",11.2495368029,48.3378321923,"de:9174:7116"
"1006852","Essenbach (Obb), Essenbach",11.226939045500002,48.3157842808,"de:9174:6852"
"1007388","Lukka, Gärtnerei",11.2068730693,48.301204673600004,"de:9174:7388"
"1006282","Poigern, Poigern",11.165121944500001,48.271816215399994,"de:9179:6282"
"1006315","Längenmoos, West",11.119851974,48.2462706286,"de:9179:6315"
"1006298","Längenmoos, Ort",11.1206566666,48.246456648000006,"de:9179:6298"
"1006253","Egenhofen (Kr FFB), Dirlesried",11.1895943084,48.284923464900004,"de:9179:6253"
"1007104","Lukka, Lukka",11.2109921098,48.2963136962,"de:9174:7104"
"1006324","Hörbach (Kr FFB), Hörbach",11.071602481500001,48.2205211462,"de:9179:6324"
"1006848","Orthofen (Wiedenzhausen), Orthofen",11.234969685800001,48.309812501100005,"de:9174:6848"
"1006280","Rottenfuß, Rottenfuß",11.1804967353,48.271567006400005,"de:9179:6280"
"1006519","Hörbach (Kr FFB), Wendeschleife",11.0763707574,48.217294934499996,"de:9179:6519"
"1006183","Rottenfuß, Gewerbepark",11.1813824825,48.270089421899996,"de:9179:6183"
"1006283","Herrnzell, Herrnzell",11.155666654900001,48.2553524667,"de:9179:6283"
"1006520","Haspelmoor, Haspelmoor",11.0985789748,48.2231998753,"de:9179:6520"
"1006524","Haspelmoor, Haspelmoor Bf Nord",11.0992616432,48.2234120697,"de:9179:6524"
"1007102","Ebertshausen (Kr DAH), Ebertshausen",11.2186775722,48.2890366509,"de:9174:7102"
"1006522","Haspelmoor, Haspelmoor Bf Süd",11.0977789597,48.2220064799,"de:9179:6522"
"1006296","Günzlhofen, Hauptplatz",11.1440963105,48.244178229999996,"de:9179:6296"
"1006846","Wiedenzhausen, Rohrbachbrücke",11.23775013,48.300531979400006,"de:9174:6846"
"1006278","Oberweikertshofen, Oberweikertshofen",11.1828741237,48.264398289099994,"de:9179:6278"
"1006289","Günzlhofen, Schule",11.1476276744,48.2447620315,"de:9179:6289"
"1006186","Waltenhofen (Kr FFB), Waltenhofen",11.1989389775,48.2724253204,"de:9179:6186"
"1006295","Günzlhofen, Flurstraße",11.144836503699999,48.241773524399996,"de:9179:6295"
"1006847","Wiedenzhausen, Hochstraße",11.2421367223,48.300129273699994,"de:9174:6847"
"1006314","Hattenhofen (Kr FFB), Valesistraße",11.107710019199999,48.222848372799994,"de:9179:6314"
"1006297","Oberschweinbach, Hauptstraße",11.1559434244,48.2442567579,"de:9179:6297"
"1006277","Unterschweinbach, Baarerstraße",11.1779391738,48.25631415,"de:9179:6277"
"1006312","Hattenhofen (Kr FFB), Schule",11.113860865400001,48.2220505401,"de:9179:6312"
"1006247","Hattenhofen (Kr FFB), Pfeiffergassl",11.118468740199999,48.22253560909999,"de:9179:6247"
"1006310","Hattenhofen (Kr FFB), Ort",11.118195103,48.2220118972,"de:9179:6310"
"1006184","Wenigmünchen, Wenigmünchen",11.213531709100002,48.273101545799996,"de:9179:6184"
"1006279","Eurastetten, Eurastetten",11.1932935806,48.2604877856,"de:9179:6279"
"1006276","Unterschweinbach, Kriegerdenkmal",11.179870167499999,48.251777323000006,"de:9179:6276"
"1006293","Oberschweinbach, Am Maibaum",11.1591415487,48.23971156980001,"de:9179:6293"
"1006294","Oberschweinbach, Weiherstraße",11.156435055400001,48.2380999399,"de:9179:6294"
"1006127","Oberschweinbach, Kloster Spielberg",11.1626441938,48.2379204641,"de:9179:6127"
"1006433","Zell (Kr FFB), Zell (Lkr. FFB)",11.0086048044,48.1717457106,"de:9179:6433"
"1006833","Oberwinden (Sulzemoos), Oberwinden, Abzw.",11.2348369643,48.2789828687,"de:9174:6833"
"1006420","Steinbach (Kr FFB), Steinbach",11.0532911161,48.1866556313,"de:9179:6420"
"1006302","Oberschweinbach, Fichtenweg",11.161603640300001,48.2348641491,"de:9179:6302"
"1006311","Mammendorf (Oberbay), Abzw. Wiesmichl",11.1348640702,48.2199620655,"de:9179:6311"
"1006275","Waltershofen (Kr FFB), Waltershofen",11.1978003674,48.252200504,"de:9179:6275"
"1006798","Sulzemoos, Steindlbachstraße",11.2605801884,48.2923442098,"de:9174:6798"
"1006416","Luttenwang, Luttenwang",11.0913907709,48.1981597073,"de:9179:6416"
"1006182","Dürabuch, Dürabuch",11.218950915399999,48.2640192875,"de:9179:6182"
"1006316","Hattenhofen (Kr FFB), Loitershofen",11.1203629202,48.209374825,"de:9179:6316"
"1006797","Sulzemoos, Am Mühlberg",11.262811119299998,48.29090161999999,"de:9174:6797"
"1006842","Sulzemoos, Hauptstraße",11.2634663593,48.2912565505,"de:9174:6842"
"1006835","Hilpertsried, Hilpertsried",11.2411351653,48.2758319707,"de:9174:6835"
"1006285","Aufkirchen (Maisach), Schule",11.1879808085,48.2421580538,"de:9179:6285"
"1006273","Aufkirchen (Maisach), Schulstraße",11.189591570500001,48.2424661895,"de:9179:6273"
"1006274","Aufkirchen (Maisach), Aufkirchen",11.1909372188,48.240802904000006,"de:9179:6274"
"1006178","Kuchenried, Kuchenried",11.2136898095,48.2540009201,"de:9179:6178"
"1006281","Englertshofen, Englertshofen",11.2006781565,48.2455385121,"de:9179:6281"
"1006434","Dünzelbach, Kirche",11.0221194955,48.1645497267,"de:9179:6434"
"1006419","Grunertshofen, Grunertshofen West",11.0819528418,48.1865552126,"de:9179:6419"
"1006418","Grunertshofen, Ort",11.0861051253,48.1867501608,"de:9179:6418"
"1006432","Dünzelbach, Schäfflerweg",11.0277055511,48.164174395399996,"de:9179:6432"
"1006271","Pischertshofen, Pischertshofen",11.198917783999999,48.2401392794,"de:9179:6271"
"1006407","Mammendorf (Oberbay), Peretshofen",11.1398380858,48.2090274587,"de:9179:6407"
"1006414","Nassenhausen, Nassenhausen",11.1150245703,48.1974626087,"de:9179:6414"
"1006272","Aufkirchen (Maisach), Abzw. Geisenhofen",11.1981673477,48.2381914968,"de:9179:6272"
"1006422","Purk (Obb), Purk",11.080303395,48.179518168,"de:9179:6422"
"1006176","Deisenhofen (Maisach), Deisenhofen",11.2272963856,48.2518627604,"de:9179:6176"
"1006149","Mammendorf (Oberbay), Am Haldenberg",11.1499370099,48.2077445276,"de:9179:6149"
"1006425","Langwied (Kr FFB), Langwied (FFB), Ort",11.0880549467,48.179939626,"de:9179:6425"
"1006424","Langwied (Kr FFB), Langwied (FFB), Kreisstraße",11.0865602386,48.179298225100005,"de:9179:6424"
"1006251","Geisenhofen, Geisenhofen",11.1971466727,48.232005969700005,"de:9179:6251"
"1006163","Mammendorf (Oberbay), Furtmühlweg",11.1523047639,48.2069436025,"de:9179:6163"
"1006249","Egenhofen (Kr FFB), Rammertshofen",11.192216997100001,48.227061107900006,"de:9179:6249"
"1006165","Mammendorf (Oberbay), Schule",11.1648047471,48.2118554766,"de:9179:6165"
"1006160","Mammendorf (Oberbay), Mammendorf",11.1745363424,48.2166832002,"de:9179:6160"
"1006534","Mammendorf (Oberbay), Mammendorf (S) Ost",11.177203809799998,48.216495461499996,"de:9179:6534"
"1006162","Mammendorf (Oberbay), Espenstraße",11.157539596200001,48.206055740400004,"de:9179:6162"
"1006161","Mammendorf (Oberbay), Michael-Aumüller-Straße",11.1652510166,48.2092326533,"de:9179:6161"
"1006423","Römertshofen, Römertshofen",11.0936687329,48.1765305206,"de:9179:6423"
"1006155","Mammendorf (Oberbay), Münchner Straße",11.163968860899999,48.2078203775,"de:9179:6155"
"1006158","Mammendorf (Oberbay), Pfarrkirche",11.1644128089,48.2078236029,"de:9179:6158"
"1006154","Holzmühl (Kr FFB), Holzmühl, Abzw.",11.1921380904,48.2218084458,"de:9179:6154"
"1006535","Mammendorf (Oberbay), Kugelbichl",11.1805908632,48.2150627124,"de:9179:6535"
"1006173","Rottbach, Abzw. Deisenhofen",11.2421114992,48.2498748498,"de:9179:6173"
"1006412","Adelshofen (Kr FFB), Adelshofen",11.116711502000001,48.183832576200004,"de:9179:6412"
"1006157","Mammendorf (Oberbay), Lessingstraße",11.172814694000001,48.2099438028,"de:9179:6157"
"1006156","Mammendorf (Oberbay), Bahnhofstraße",11.173735761,48.2104000899,"de:9179:6156"
"1006174","Rottbach, Rottbach",11.2460821262,48.250908180799996,"de:9179:6174"
"1006429","Albertshofen (Oberbay), Kreisstraße",11.082737781799999,48.1681788907,"de:9179:6429"
"1006175","Maisach, Oberlappach",11.2322349539,48.241292726299996,"de:9179:6175"
"1006229","Adelshofen (Kr FFB), Sportplatz",11.114066389,48.1796842531,"de:9179:6229"
"1006426","Albertshofen (Oberbay), Ort",11.0831525979,48.1667792198,"de:9179:6426"
"1006270","Stefansberg, Stefansberg",11.2230375382,48.2334158037,"de:9179:6270"
"1006177","Mammendorf (Oberbay), Aicher Straße",11.1743817271,48.206204826100006,"de:9179:6177"
"1006430","Eismerszell, Eismerszell",11.0604132504,48.1508930975,"de:9179:6430"
"1006410","Pfaffenhofen (Kr FFB), Pfaffenhofen (FFB)",11.1378313084,48.181870372700004,"de:9179:6410"
"1006409","Egg (Mammendorf), Ort",11.152183485,48.1881914966,"de:9179:6409"
"1006428","Moorenweis, Post",11.076582955100001,48.156042427,"de:9179:6428"
"1006427","Moorenweis, Schule",11.075735765400001,48.1553161438,"de:9179:6427"
"1006268","Frauenberg (Kr FFB), Abzw. Germerswang",11.229848794,48.2280386262,"de:9179:6268"
"1006172","Weiherhaus (Maisach), Weiherhaus",11.2611817197,48.2468602154,"de:9179:6172"
"1006446","Moorenweis, Landsberger Straße",11.0792913603,48.1549129772,"de:9179:6446"
"1006148","Germerswang, Germerswang",11.223955153999999,48.2225760494,"de:9179:6148"
"1006146","Germerswang, Frauenberger Straße",11.2253311947,48.223250829,"de:9179:6146"
"1006241","Frauenberg (Kr FFB), Dorfstraße",11.234872358599999,48.228737647799996,"de:9179:6241"
"1006518","Moorenweis, Am Gewerbering",11.085230670100001,48.154240894299996,"de:9179:6518"
"1006153","Galgen, Galgen, Ort",11.201643404999999,48.206837918,"de:9179:6153"
"1006150","Malching (Obb), Malching",11.2194642616,48.2160974479,"de:9179:6150"
"1006151","Malching (Obb), Ort",11.2196880642,48.2128793487,"de:9179:6151"
"1006152","Obermalching, Obermalching",11.2135802728,48.2092853872,"de:9179:6152"
"1006443","Jesenwang, Schule",11.1359898582,48.1698053664,"de:9179:6443"
"1006444","Jesenwang, Abzw. Mammendorf",11.130567584200001,48.166068204,"de:9179:6444"
"1006406","Eitelsried, Eitelsried",11.1686955054,48.1834375875,"de:9179:6406"
"1006442","Jesenwang, Altersheim",11.132655434399998,48.1666235739,"de:9179:6442"
"1006143","Maisach, Realschule",11.255841561499999,48.219549104,"de:9179:6143"
"1006144","Maisach, Karlstraße",11.253303026000001,48.2173562715,"de:9179:6144"
"1006532","Maisach, Otto-Hahn-Straße",11.2452478744,48.21239335,"de:9179:6532"
"1006142","Maisach, Mittelschule",11.2592932311,48.2200300363,"de:9179:6142"
"1006404","Fürstenfeldbruck, Dorfstraße",11.1856299771,48.17983545439999,"de:9179:6404"
"1006141","Maisach, Grundschule",11.2569224963,48.2173886976,"de:9179:6141"
"1006440","Babenried, Babenried",11.1645087131,48.167974549200004,"de:9179:6440"
"1006317","Fürstenfeldbruck, Schlossbergstraße",11.187010587,48.1784152686,"de:9179:6317"
"1006166","Maisach, Enzianstraße",11.2647743418,48.2207037173,"de:9179:6166"
"1006533","Maisach, Westendstraße",11.251660931,48.212759001399995,"de:9179:6533"
"1006164","Maisach, Hauptstraße",11.2613922726,48.2172466049,"de:9179:6164"
"1006140","Maisach, Maisach",11.2573645062,48.2147385181,"de:9179:6140"
"1006403","Aich (FFB), Pucher Weg",11.1930930172,48.1789887072,"de:9179:6403"
"1006218","Aich (FFB), Weilerweg",11.1926727784,48.1783472268,"de:9179:6218"
"1006137","Maisach, Maisach (S) Süd",11.2578251465,48.2135903434,"de:9179:6137"
"1006436","Fürstenfeldbruck, Abzw.Aich",11.1862349993,48.174740472799996,"de:9179:6436"
"1006266","Lindach (Fürstenfeldbruck), Lindach, Abzw.",11.238990012399999,48.2006427831,"de:9179:6266"
"1006371","Landsberied, Brucker Straße",11.171690400700001,48.1661468642,"de:9179:6371"
"1006438","Landsberied, Babenrieder Straße",11.167995435599998,48.1626936978,"de:9179:6438"
"1006189","Fürstenfeldbruck, Hugo-Junkers-Straße",11.246445091899998,48.200485007999994,"de:9179:6189"
"1006290","Puch (b Fürstenfeldbruck), Kaisersäule",11.2259847894,48.1887926877,"de:9179:6290"
"1006525","Fürstenfeldbruck, Hasenheide Nord",11.252356240000001,48.2001098793,"de:9179:6525"
"1006193","Fürstenfeldbruck, Messerschmittstraße",11.2523509283,48.197699624100004,"de:9179:6193"
"1006287","Puch (b Fürstenfeldbruck), Fürstenfelder Weg",11.223656391499999,48.1817711484,"de:9179:6287"
"1006391","Fürstenfeldbruck, Liebigstraße",11.251156219599999,48.1966036568,"de:9179:6391"
"1006269","Fürstenfeldbruck, Pucher Meer",11.2373921123,48.1868363691,"de:9179:6269"
"1006265","Fürstenfeldbruck, Rudolf-Diesel-Ring",11.2500647422,48.1930441669,"de:9179:6265"
"1006203","Fürstenfeldbruck, Am Hardtanger",11.2512852322,48.193285943999996,"de:9179:6203"
"1006264","Fürstenfeldbruck, Neulindach",11.249165557500001,48.1901424358,"de:9179:6264"
"1006204","Fürstenfeldbruck, Zenettistraße",11.256757796199999,48.1943466733,"de:9179:6204"
"1006392","Fürstenfeldbruck, Maisacher Straße",11.2563044062,48.194073942299994,"de:9179:6392"
"1006335","Fürstenfeldbruck, Hubertusstraße",11.2301001886,48.1789185821,"de:9179:6335"
"1006431","Fürstenfeldbruck, Bajuwarenstraße",11.2263790863,48.1759887493,"de:9179:6431"
"1006398","Fürstenfeldbruck, Fliegerhorst",11.2620426455,48.1944436476,"de:9179:6398"
"1006395","Fürstenfeldbruck, Wiesenstraße",11.2557885769,48.190680106100004,"de:9179:6395"
"1006318","Fürstenfeldbruck, Theodor-Heuss-Straße",11.2415669833,48.1818906265,"de:9179:6318"
"1006339","Fürstenfeldbruck, Waldfriedhofstraße",11.235777852400002,48.1787136193,"de:9179:6339"
"1006336","Fürstenfeldbruck, Konrad-Adenauer-Straße",11.239614787699999,48.1793146226,"de:9179:6336"
"1006345","Fürstenfeldbruck, Cerveteristraße",11.2264774071,48.1721312397,"de:9179:6345"
"1006396","Fürstenfeldbruck, Kronprinz-Rupprecht-Straße",11.255094735099998,48.1875099475,"de:9179:6396"
"1006263","Fürstenfeldbruck, Hochfeldweg",11.2508670977,48.185054282799996,"de:9179:6263"
"1006340","Fürstenfeldbruck, Dianastraße",11.2334769847,48.1751998786,"de:9179:6340"
"1006334","Fürstenfeldbruck, Parsevalstraße",11.237827450000001,48.1774231748,"de:9179:6334"
"1006393","Fürstenfeldbruck, Ganghoferstraße",11.2465850096,48.181752725900004,"de:9179:6393"
"1006259","Fürstenfeldbruck, Pestalozzischule",11.2446314912,48.180166072000006,"de:9179:6259"
"1006613","Fürstenfeldbruck, Neufeld Nord",11.2648432988,48.19142182,"de:9179:6613"
"1006261","Fürstenfeldbruck, Bismarckstraße",11.2449046485,48.1789627507,"de:9179:6261"
"1006325","Fürstenfeldbruck, St. Bernhard",11.2327383537,48.1724339793,"de:9179:6325"
"1006262","Fürstenfeldbruck, Kapellenstraße",11.253625851499999,48.1821493645,"de:9179:6262"
"1006288","Fürstenfeldbruck, Viscardi-Gymnasium",11.2260251731,48.167334709200006,"de:9179:6288"
"1006342","Fürstenfeldbruck, Schule West",11.2313759072,48.1700326372,"de:9179:6342"
"1006332","Fürstenfeldbruck, Holzstraße",11.243798900899998,48.1764283432,"de:9179:6332"
"1006394","Fürstenfeldbruck, Feldstraße",11.254930817199998,48.1821128567,"de:9179:6394"
"1006341","Fürstenfeldbruck, Klosterstraße",11.2412346428,48.1743339828,"de:9179:6341"
"1006343","Fürstenfeldbruck, Gnadenkirche",11.229536380499999,48.16717841249999,"de:9179:6343"
"1006347","Fürstenfeldbruck, Amtsgericht/Klinikum",11.2579431016,48.1821143399,"de:9179:6347"
"1006549","Fürstenfeldbruck, Adolf-Kolping-Straße",11.2546755352,48.180240578399996,"de:9179:6549"
"1006201","Fürstenfeldbruck, Industriestraße",11.2219744144,48.1622710668,"de:9179:6201"
"1006330","Fürstenfeldbruck, Auf der Lände",11.249088044499999,48.1761032544,"de:9179:6330"
"1006344","Fürstenfeldbruck, Buchenauer Straße",11.2279485397,48.1645866554,"de:9179:6344"
"1006337","Fürstenfeldbruck, O.-Kubel-Str./Isar-Amper-Klinikum",11.2625822051,48.1830794823,"de:9179:6337"
"1006348","Fürstenfeldbruck, Sinzingerstr./Isar-Amper-Klinikum",11.2632121447,48.1832274126,"de:9179:6348"
"1006349","Fürstenfeldbruck, Dachauer Straße",11.257382474,48.179961302699994,"de:9179:6349"
"1006210","Schöngeising, Schöngeising",11.1915211776,48.1463674898,"de:9179:6210"
"1006328","Fürstenfeldbruck, Schöngeisinger Str.",11.2532144746,48.1771373763,"de:9179:6328"
"1006346","Fürstenfeldbruck, Josef-Spital-Str./Klinikum",11.259208149900001,48.180179921500006,"de:9179:6346"
"1006618","Fürstenfeldbruck, Abt-Führer-Str.",11.237857593300001,48.168124194200004,"de:9179:6618"
"1006260","Fürstenfeldbruck, Hauptplatz",11.255467809099999,48.1775297047,"de:9179:6260"
"1006200","Buchenau (FFB), Buchenau",11.2254138392,48.161502857900004,"de:9179:6200"
"1006327","Fürstenfeldbruck, Fürstenfeld",11.245652863,48.1710354813,"de:9179:6327"
"1006547","Fürstenfeldbruck, Fürstenfelder Straße",11.2558131252,48.17596708840001,"de:9179:6547"
"1006326","Fürstenfeldbruck, Hans-Sachs-Straße",11.2565396729,48.174074179499996,"de:9179:6326"
"1006333","Fürstenfeldbruck, Deichensteg",11.262236494,48.1771776035,"de:9179:6333"
"1006258","Fürstenfeldbruck, Landratsamt",11.2615172893,48.176696338999996,"de:9179:6258"
"1006329","Fürstenfeldbruck, Realschule",11.256880458200001,48.1737526191,"de:9179:6329"
"1006441","Schöngeising, Bahnhofstraße",11.1980980387,48.143427704800004,"de:9179:6441"
"1006435","Schöngeising, Rothschwaiger Straße",11.198333171600002,48.1429976579,"de:9179:6435"
"1006417","Schöngeising, Ahornstraße",11.2041278639,48.143667443700004,"de:9179:6417"
"1006190","Fürstenfeldbruck, Fürstenfeldbruck",11.2627775444,48.1722616845,"de:9179:6190"
"1006390","Pfaffing (FFB), Pfaffing (FFB)",11.2548871979,48.160978078300005,"de:9179:6390"
"1006388","Biburg (Alling), Biburg",11.2587764831,48.1531969135,"de:9179:6388"
"1006397","Alling (Oberbay), Neuried",11.2443051595,48.1437765526,"de:9179:6397"
"1006386","Germannsberg, Germannsberg",11.262482397100001,48.1403061557,"de:9179:6386"
"1004258","Schalldorf (Obb), West",12.0754230749,47.9957530321,"de:9175:4258"
"1004148","Schalldorf (Obb), Kapelle",12.079432302,47.9976119835,"de:9175:4148"
"1004146","Bruckhof (Emmering), Bruckhof",12.0655615211,47.9959390056,"de:9175:4146"
"1004138","Westerberg (Emmering), Westerberg",12.0442651333,47.9901394288,"de:9175:4138"
"1004140","Emmering (Kr Ebersberg), Emmering",12.055244738,47.9965110793,"de:9175:4140"
"1004136","Moos (Emmering), Moos, Abzw.",12.0346596321,47.9911140865,"de:9175:4136"
"1004144","Mühlbichl, Mühlbichl",12.064393028,48.0044116332,"de:9175:4144"
"1004142","Hirschbichl (Obb), Hirschbichl",12.0575037454,48.0035609329,"de:9175:4142"
"1004134","Längholz, Abzw. Sixtenreit",12.026071477999999,47.9910084771,"de:9175:4134"
"1004282","Wollwies, Wollwies, Abzw.",12.019908470499999,47.9911266587,"de:9175:4282"
"1004133","Aßling (Oberbay), Martermühle",12.0149383831,47.99299810669999,"de:9175:4133"
"1004201","Aßling (Oberbay), Rotter Straße",12.0093112092,47.9939340635,"de:9175:4201"
"1004130","Aßling (Oberbay), Steinkirchner Straße",12.014497342399999,47.9968024568,"de:9175:4130"
"1004132","Aßling (Oberbay), Rathaus",12.004809052599999,47.9920816816,"de:9175:4132"
"1004128","Steinkirchen (Aßling), Steinkirchen (b.Aßling)",12.0260779501,48.0035725248,"de:9175:4128"
"1004209","Aßling (Oberbay), Bahnhofstraße Abzw.",12.001432682099999,47.991605129599996,"de:9175:4209"
"1004202","Aßling (Oberbay), Aßling",11.9939835461,47.9896354196,"de:9175:4202"
"1004126","Gersdorf (Kr Ebersberg), Gersdorf",12.037679136300001,48.0159444035,"de:9175:4126"
"1004029","Lorenzenberg (Obb), Gewerbegebiet, Abzw.",11.9872568158,47.994491448999995,"de:9175:4029"
"1004124","Tegernau (b Wasserburg), Tegernau",12.040444752299999,48.021375559,"de:9175:4124"
"1004200","Lorenzenberg (Obb), Waldsiedlung",11.981133569,47.994418688799996,"de:9175:4200"
"1004198","Dorfen (Aßling), Dorfen (b. Aßling)",11.9738862152,47.991557342,"de:9175:4198"
"1004147","Aichat (Obb), Aichat",12.041910124500001,48.026411415,"de:9175:4147"
"1004129","Pörsdorf, Pörsdorf, Abzw.",11.9976270744,48.007442844,"de:9175:4129"
"1004682","Wimpersing (Kr EBE), Wimpersing",12.0358220029,48.024578821599995,"de:09175:4682"
"1004279","Jakobneuharting, Bergstraße",12.0455450168,48.0281637545,"de:9175:4279"
"1004344","Lorenzenberg (Obb), Süd",11.9722362388,47.9953882366,"de:9175:4344"
"1004120","Jakobneuharting, Hauptstraße",12.046150520200001,48.0305557921,"de:9175:4120"
"1004196","Lorenzenberg (Obb), Ort",11.9724759941,47.998131339100006,"de:9175:4196"
"1004118","Haus (Frauenneuharting), Haus (Frauenneuharting)",12.045335553,48.0338567492,"de:9175:4118"
"1004238","Antholing, Antholing",11.914475555700001,47.952883132100006,"de:9175:4238"
"1004116","Frauenneuharting, Frauenneuharting",12.0467736088,48.037444584999996,"de:9175:4116"
"1004236","Netterndorf, Netterndorf",11.9150276477,47.959152119100004,"de:9175:4236"
"1004194","Pfadendorf, Pfadendorf",11.9708762605,48.0074842804,"de:9175:4194"
"1004108","Katzenreuth, Katzenreuth",12.017175584199999,48.031040582299994,"de:9175:4108"
"1004115","Hungerberg (Kr EBE), Hungerberg, Abzw.",12.0401511228,48.040037259900004,"de:9175:4115"
"1004107","Filzhof, Filzhof",12.001916691999998,48.026347298,"de:9175:4107"
"1004114","Haging, Haging",12.0234397801,48.0364445581,"de:9175:4114"
"1004681","Haging, Kreuzung",12.0256664603,48.037757126399995,"de:09175:4681"
"1004234","Kulbing (Kr EBE), Kulbing",11.9104771039,47.9658129791,"de:9175:4234"
"1004253","Straußdorf, Hauptstraße",11.9924246318,48.025114996300005,"de:9175:4253"
"1004297","Lauterbach (Frauenneuharting), Lauterbach",12.053195014200002,48.048431841900005,"de:9175:4297"
"1004106","Straußdorf, Blumenstraße",11.9925183617,48.0259963697,"de:9175:4106"
"1004192","Eisendorf (Grafing), Eisendorf",11.9685540564,48.013554341200006,"de:9175:4192"
"1004112","Katzenreuth, Abzw.",12.016131658,48.0369854656,"de:9175:4112"
"1004230","Berganger, Berganger",11.9167899961,47.9791372641,"de:9175:4230"
"1004257","Piusheim, Schule",11.8943134403,47.9593149048,"de:9175:4257"
"1004232","Weiterskirchen, Weiterskirchen",11.905750546299998,47.972878221399995,"de:9175:4232"
"1004296","Baumberg (Frauenneuharting), Baumberg",12.0186827737,48.0456818035,"de:9175:149"
"1004104","Dichau, Dichau, Abzw.",11.9847808855,48.0317605057,"de:9175:4104"
"1004110","Neudichau, Neudichau",11.997263832700002,48.040647027000006,"de:9175:4110"
"1004190","Oberelkofen, Oberelkofen",11.960102174400001,48.023417694699994,"de:9175:4190"
"1004233","Haslach (Glonn), Haslach",11.8848067204,47.9714202515,"de:9175:4233"
"1004188","Bachhäusl, Bachhäusl",11.9596127395,48.0322581809,"de:9175:4188"
"1004102","Grafing (b München), Bergstraße",11.975498122300001,48.0405726093,"de:9175:4102"
"1004293","Traxl, Traxl",12.018191219299998,48.0585965604,"de:9175:4293"
"1004345","Grafing (b München), Mühlenstraße",11.971769003699999,48.0422895354,"de:9175:4345"
"1004228","Wetterling, Wetterling",11.8854846879,47.98590066049999,"de:9175:4228"
"1004193","Grafing (b München), Sanftlring",11.958575726600001,48.038013678400006,"de:9175:4193"
"1004100","Grafing (b München), Griesstraße",11.967436557100001,48.0432866921,"de:9175:4100"
"1004099","Grafing (b München), Rotter Straße",11.9742077159,48.046660946500005,"de:9175:4099"
"1004186","Grafing (b München), Dobelklause",11.9601969728,48.0398309359,"de:9175:4186"
"1004164","Alxing, Alxing",11.9301668336,48.02265708549999,"de:9175:4164"
"1004103","Grafing (b München), Haidlinger Weg",11.960651279899999,48.0420345035,"de:9175:4103"
"1004243","Grafing (b München), Evangelische Kirche",11.9647804605,48.044212254600005,"de:9175:4243"
"1004241","Grafing (b München), Pienzenauer Straße",11.9591094517,48.041449394,"de:9175:4241"
"1004113","Grafing (b München), Leonhardikirche",11.967474623100001,48.0467941747,"de:9175:4113"
"1004098","Grafing (b München), Jahnstraße",11.9640552913,48.045579048499995,"de:9175:4098"
"1004171","Zinneberg, Zinneberg, Abzw.",11.8849885741,47.9921597183,"de:9175:4171"
"1004068","Ödenhub (Glonn), Ödenhub",11.8740515341,47.982776960500004,"de:9175:4068"
"1004170","Westerndorf (Glonn), Westerndorf",11.8891048355,47.997038275499996,"de:9175:4170"
"1004101","Grafing (b München), Gymnasium",11.9600457351,48.0447143668,"de:9175:4101"
"1004060","Grafing (b München), Grafing Stadt",11.9616267692,48.04685535469999,"de:9175:4060"
"1004073","Grafing (b München), Goldberg",11.9565050633,48.0446411508,"de:9175:4073"
"1004184","Tulling, Tulling",12.0607200028,48.0826572812,"de:9175:4184"
"1004197","Tulling, Gasthaus",12.0611634576,48.0831067167,"de:9175:4197"
"1004172","Glonn (Kr Ebersberg), Fuggerstraße",11.8756840191,47.989137214900005,"de:9175:4172"
"1004294","Englmeng, Englmeng",12.021189639000001,48.0746494001,"de:9175:4294"
"1004096","Grafing (b München), Goethering",11.9644657904,48.053376548100005,"de:9175:4096"
"1004162","Pienzenau, Pienzenau",11.925659843299998,48.033824263199996,"de:9175:4162"
"1004166","Bruck (Kr Ebersberg), Bruck",11.9066271422,48.0218220711,"de:9175:4166"
"1004295","Ruhensdorf, Ruhensdorf",12.0190568947,48.0772219166,"de:9175:149"
"1004168","Einharding, Einharding, Abzw.",11.892477951,48.0117279867,"de:9175:4168"
"1004050","Grafing Bahnhof, Grafing Bahnhof",11.940680093300001,48.0437527856,"de:9175:4050"
"1004163","Pullenhofen, Pullenhofen",11.9141756208,48.0293825014,"de:9175:4163"
"1008857","Steinhöring (Kr EBE), Steinhöring",12.0316491741,48.0836673868,"de:9175:8857"
"1004299","Oed (Steinhöring), Abzw.Dichtlmühle",12.0568639112,48.0910681518,"de:9175:4299"
"1004160","Bauhof, Bauhof, Abzw.",11.8935125055,48.01705313710001,"de:9175:4160"
"1004181","Ruhensdorf, Ruhensdorf, Abzw.",12.0205616943,48.0814305907,"de:9175:4181"
"1004093","Gsprait, Gsprait",11.9696917454,48.063019047999994,"de:9175:4093"
"1004150","Taglaching, Taglaching",11.925771143199999,48.040407599299996,"de:9175:4150"
"1004094","Wiesham, Wiesham",11.9640583303,48.060733105699995,"de:9175:4094"
"1004003","Nettelkofen, Nettelkofen",11.9435695441,48.0506522523,"de:9175:4003"
"1004180","Neuhausen (Ebersberg), Neuhausen, Abzw.",12.0090993657,48.0790488607,"de:9175:4180"
"1004182","Steinhöring (Kr EBE), Gh. Post",12.031610771399999,48.086653224600006,"de:9175:4182"
"1004183","Steinhöring (Kr EBE), Abzw. Seeweg",12.0256101701,48.085422645899996,"de:9175:4183"
"1004318","Steinhöring (Kr EBE), Rathaus",12.0306584687,48.087831629600004,"de:9175:4319"
"1004317","Steinhöring (Kr EBE), Berger Straße",12.0299745634,48.088964988099995,"de:9175:4317"
"1004178","Oberndorf (Kr EBE), Kirche",11.9966448932,48.0787074836,"de:9175:4178"
"1004179","Oberndorf (Kr EBE), Feuerwehrhaus",11.995396790700001,48.0784196558,"de:9175:4179"
"1004301","Endorf (Steinhöring), Endorf",12.0564406802,48.0967971848,"de:9175:4301"
"1004092","Ebersberg (Oberbay), Kriegersiedlung",11.9698340924,48.0721564629,"de:9175:4092"
"1004313","Langwied (Ebersberg), Langwied (EBE)",11.987558892200001,48.0795253105,"de:9175:4313"
"1004302","Holzhäusln (Obb), Holzhäusln",12.060715238099998,48.1012377403,"de:9175:4302"
"1004152","Baumhau, Baumhau, Abzw.",11.9021350685,48.036648709199994,"de:9175:4152"
"1004154","Gutterstätt, Gutterstätt",11.894098675299999,48.0320009587,"de:9175:4154"
"1004153","Ebersberg (Oberbay), Rosenheimer Straße",11.971416148000001,48.074711005699996,"de:9175:4153"
"1004070","Ebersberg (Oberbay), Ebersberg",11.970060486300001,48.0751963148,"de:9175:4070"
"1004149","Ebersberg (Oberbay), Sparkassenplatz",11.9649478311,48.0747722018,"de:9175:4149"
"1004304","Unterseifsieden, Unterseifsieden",12.061701123899999,48.1059947326,"de:9175:4304"
"1004155","Falkenberg (Moosach), Falkenberg",11.8911958014,48.035163986200004,"de:9175:4155"
"1004090","Ebersberg (Oberbay), Marienplatz",11.9694548312,48.0782359507,"de:9175:4090"
"1004173","Ebersberg (Oberbay), Kreisklinik West",11.9623569301,48.07603048120001,"de:9175:4173"
"1004071","Ebersberg (Oberbay), Realschule",11.9570578169,48.07385223,"de:9175:4071"
"1004157","Ebersberg (Oberbay), Eberhardstraße (Feuerwehr)",11.967629201,48.0789369505,"de:9175:4157"
"1004174","Ebersberg (Oberbay), Kreisklinik Ost",11.9624367735,48.0769748212,"de:9175:4174"
"1004314","Berg (Steinhöring), Berg",12.019749599399999,48.098203516800005,"de:9175:4314"
"1004156","Moosach (Kr Ebersberg), Sägewerk",11.8835298418,48.0332858538,"de:9175:4156"
"1004308","Abersdorf (Kr EBE), Abersdorf (Kr EBE)",12.0357835715,48.103307829600006,"de:9175:149"
"1004086","Ebersberg (Oberbay), Eichenallee",11.9557546178,48.075641442999995,"de:9175:4086"
"1004303","Oberseifsieden, Oberseifsieden",12.0567227016,48.1089561582,"de:9175:4303"
"1004084","Vorderegglburg, Egglburg",11.944258150200001,48.0715354757,"de:9175:4084"
"1004312","Meiletskirchen, Meiletskirchen",12.0261024558,48.1029687353,"de:9175:4312"
"1004158","Moosach (Kr Ebersberg), Doblbachstraße",11.876518842,48.032505123600004,"de:9175:4158"
"1004054","Ebersberg (Oberbay), Klostersee",11.9679082086,48.0835686598,"de:9175:4054"
"1004332","Winkl (b Berg), Winkl",12.0076667443,48.1003274696,"de:9175:4332"
"1004305","Sankt Christoph, Sankt Christoph",12.055440382399999,48.1152341927,"de:9175:4305"
"1004315","Niederaltmannsberg, Niederaltmannsberg",12.039590834300002,48.1127946188,"de:9175:4315"
"1004057","Gmaind (Ebersberg), Gmaind",11.975111043799998,48.0936700527,"de:9175:4057"
"1004327","Zaißing (Obb), Zaißing",12.024991601,48.1101996985,"de:9175:4327"
"1004306","Sprinzenöd (Kr EBE), Sprinzenöd (Kr EBE)",12.0485795992,48.1173867565,"de:9175:4306"
"1004052","Ebersberg (Oberbay), Anzinger Siedlung",11.9657147183,48.0923096713,"de:9175:4052"
"1004331","Lieging, Lieging",12.003142531000002,48.106668070599994,"de:9175:4331"
"1004328","Dietmering, Dietmering",12.017620195,48.1131959091,"de:9175:4328"
"1004330","Thailing, Thailing",12.002525119700001,48.111236745,"de:9175:4330"
"1004048","Ebersberg (Oberbay), Gewerbepark Abzw.",11.9616300873,48.0973087534,"de:9175:4048"
"1004320","Schützen (Steinhöring), Schützen",12.053235125599999,48.1255057092,"de:9175:4320"
"1004082","Kirchseeon, Dorf (Ost)",11.9052901125,48.071393247100005,"de:9175:4082"
"1004329","Kraiß, Kraiß",12.0081794747,48.1152115405,"de:9175:4329"
"1005010","Ebersberg (Oberbay), An der Schafweide",11.9809849587,48.1106147635,"de:9175:5010"
"1004040","Kirchseeon, Kirchseeon",11.8877652141,48.0713685615,"de:9175:4040"
"1004342","Kirchseeon, Rathaus",11.886819014099999,48.0745243482,"de:9175:4342"
"1004080","Kirchseeon, Waldbahn",11.884387724,48.075574176399996,"de:9175:4080"
"1004046","Ebersberger Forst, Sauschütt Abzw.",11.9542055179,48.112900669,"de:9175:4046"
"1004056","Ebersberger Forst, Sebastianssäule",11.980456092699999,48.1245724403,"de:9175:4056"
"1002612","Neufahrn (Schäftlarn), Neufahrn (Lkr.München)",11.4193591779,47.99568066,"de:9184:2612"
"1005446","Fercha, Fercha",11.4149054438,48.0032577076,"de:9188:5446"
"1005654","Mörlbach (Oberbay), Mörlbach",11.4063449715,47.964415164,"de:9188:5654"
"1005452","Buchhof (Starnberg), Buchhof",11.380337699200002,48.0026449177,"de:9188:5452"
"1005449","Wangen (b Starnberg), Olympiastraße",11.4053790365,48.0112671289,"de:9188:5449"
"1005368","Farchach, Kirche",11.381808601,47.9624871055,"de:9188:5368"
"1005448","Wangen (b Starnberg), Ort",11.4022113822,48.01165541779999,"de:9188:5448"
"1005373","Bachhausen (Kr STA), Mühlenweg",11.389316857499999,47.959406419900006,"de:9188:5373"
"1005358","Kempfenhausen, Seestraße",11.3627974636,47.9828979065,"de:9188:5358"
"1005356","Kempfenhausen, Milchberg",11.361288838200002,47.9879169962,"de:9188:5356"
"1002561","Schäftlarn, Rathaus",11.4501989922,47.9911195847,"de:9184:2561"
"1005372","Bachhausen (Kr STA), Bachhausen",11.3885951339,47.9558860442,"de:9188:5372"
"1005454","Starnberg, Bucentaurweg",11.361876472199999,47.9935053227,"de:9188:5454"
"1005355","Percha (Starnberg), Buchhofstraße",11.3645499804,47.9994739274,"de:9188:5355"
"1005366","Farchach, Auf der Lüften",11.3767407081,47.9596626999,"de:9188:5366"
"1005343","Bachhausen (Kr STA), Biberkorstraße",11.3859861585,47.9557282397,"de:9188:5343"
"1005586","Wildmoos (Starnberg), Wildmoos",11.3894564188,48.0146372377,"de:9188:5586"
"1005354","Percha (Starnberg), Berger Straße",11.363054124100001,47.999069929799994,"de:9188:5354"
"1005353","Percha (Starnberg), Würmstraße",11.3624934657,47.99998417449999,"de:9188:5353"
"1002570","Ebenhausen-Schäftlarn, Ebenhausen-Schäftlarn",11.4561524724,47.9791773429,"de:9184:2570"
"1002560","Schäftlarn, Hohenschäftlarn",11.4564892442,47.9904929522,"de:9184:2560"
"1005344","Bachhausen (Kr STA), Frauental",11.3936343404,47.9497340525,"de:9188:5344"
"1005362","Berg (a Starnberger See), Grafstraße",11.356125815699999,47.96676203649999,"de:9188:5362"
"1005347","Berg (a Starnberger See), Lohacker",11.3574156486,47.964260011,"de:9188:5347"
"1005351","Starnberg, Landratsamt / Wasserpark",11.3531735676,48.000516706999996,"de:9188:5351"
"1005364","Aufkirchen (Kr STA), Aufkirchen",11.363298623899999,47.95736759,"de:9188:5364"
"1002563","Schäftlarn, Schäftlarn, Kloster",11.466995593999998,47.977231522800004,"de:9184:2563"
"1005458","Berg (a Starnberger See), Abzw.Leoni",11.3526663415,47.961751102799994,"de:9188:5458"
"1005450","Starnberg, Starnberg",11.344459789,47.9965551152,"de:9188:5450"
"1005352","Starnberg, Leutstettener Straße",11.345572734300001,48.00073451,"de:9188:5352"
"1005374","Aufhausen (Kr STA), Aufhausen",11.367215257300002,47.9491149954,"de:9188:5374"
"1005490","Starnberg, Starnberg Nord",11.3479664322,48.0053888305,"de:9188:5490"
"1005577","Starnberg, Gymnasium",11.3456191539,48.0034238744,"de:9188:5577"
"1005549","Starnberg, Wittelsbacherstraße",11.3429938654,47.9990919513,"de:9188:5549"
"1005528","Starnberg, Stadtmarkt",11.3432705147,48.0005235223,"de:9188:5528"
"1005538","Starnberg, Tutzinger-Hof-Platz",11.342444197299999,48.000168047,"de:9188:5538"
"1005546","Starnberg, Brunnangerhalle",11.3430756726,48.002150259400004,"de:9188:5546"
"1005529","Starnberg, Kirchplatz",11.3406589745,47.998296137,"de:9188:5529"
"1005575","Starnberg, Franziskusweg",11.348291779799998,48.010418118000004,"de:9188:5575"
"1005345","Höhenrain (Kr STA), Lärchenweg",11.392745893399999,47.9387120464,"de:9188:5345"
"1005581","Starnberg, Einbettl West",11.3715639855,48.025504055599995,"de:9188:5581"
"1005548","Starnberg, Riedener Weg",11.3444164038,48.007392212,"de:9188:5548"
"1005462","Berg (a Starnberger See), Kreuzweg",11.3496510654,47.95553741569999,"de:9188:5462"
"1005530","Starnberg, Agentur für Arbeit",11.3401710865,48.0029340611,"de:9188:5530"
"1005578","Starnberg, Wilhelmshöhenstraße",11.334804207200001,47.98882806060001,"de:9188:5578"
"1005580","Starnberg, Pilotystraße",11.3322478588,47.9823917576,"de:9188:5580"
"1005574","Starnberg, Am Schloßhölzl",11.3504592692,48.017130635399994,"de:9188:5574"
"1005550","Starnberg, Rosenstraße",11.343697090300001,48.011273358699995,"de:9188:5550"
"1005376","Biberkor, Oberbiberkor",11.378422560699999,47.9377541026,"de:9188:5376"
"1005559","Starnberg, Bozener Straße",11.3379634182,48.0068515922,"de:9188:5559"
"1005540","Starnberg, Jahnstraße",11.3306773515,47.9909356075,"de:9188:5540"
"1005582","Leutstetten (Kr STA), Leutstetten",11.3692114372,48.029322449000006,"de:9188:5582"
"1005554","Starnberg, Schießstättstraße",11.3416835635,48.0125659241,"de:9188:5554"
"1005583","Starnberg, Petersbrunn",11.3622684836,48.0269548095,"de:9188:5583"
"1005382","Starnberg, Frühlingsgarten",11.3306659345,47.998040533,"de:9188:5382"
"1005584","Niederpöcking, Niederpöcking",11.328377156,47.977170860200005,"de:9188:5584"
"1005573","Starnberg, Ina-Seidl-Weg",11.3272570107,47.9881365998,"de:9188:5573"
"1005532","Starnberg, Klinikum-MediCenter",11.3356198623,48.008798687,"de:9188:5532"
"1005342","Starnberg, Waldschmidtstraße",11.3376115249,48.01131040919999,"de:9188:5342"
"1005531","Starnberg, Klinikum Starnberg",11.3343392122,48.007289341900005,"de:9188:5531"
"1005464","Assenhausen (Kr STA), Assenhausen",11.3493827957,47.9470368283,"de:9188:5464"
"1005348","Höhenrain (Kr STA), Ehem. Post",11.3821849954,47.9331336142,"de:9188:5348"
"1005569","Starnberg, Prinz-Karl-Straße",11.330951140999998,48.0039690089,"de:9188:5569"
"1005547","Starnberg, Hofbuchetstraße",11.3373761375,48.012945894,"de:9188:5547"
"1005346","Höhenrain (Kr STA), J.-u.-R.-Werner-Platz",11.394069154699999,47.930840511,"de:9188:5346"
"1005543","Starnberg, Ernst-Heimeran-Weg",11.3249067289,47.9865219486,"de:9188:5543"
"1005378","Höhenrain (Kr STA), Höhenrain",11.394359296200001,47.930059583900004,"de:9188:5378"
"1005534","Starnberg, Egerer Straße",11.332781945599999,48.01165122290001,"de:9188:5534"
"1005541","Starnberg, Waldspielplatz",11.3224162533,47.988467917600005,"de:9188:5541"
"1005466","Sibichhausen, Sibichhausen",11.3486788027,47.943399373000005,"de:9188:5466"
"1005384","Söcking (Kr STA), Staatssiedlung",11.326086337900001,48.0019170253,"de:9188:5384"
"1005533","Starnberg, Mühltal",11.3597112797,48.0331641698,"de:9188:5533"
"1005635","Söcking (Kr STA), Auersberg",11.3244746288,48.0032206395,"de:9188:5635"
"1005556","Söcking (Kr STA), Cappius",11.328551916,48.0122651455,"de:9188:5556"
"1005634","Starnberg, Heimgartenstraße",11.3305179552,48.0146689162,"de:9188:5634"
"1005560","Söcking (Kr STA), Riedesel-/Wankstraße",11.323954796299999,48.0081371076,"de:9188:5560"
"1005558","Söcking (Kr STA), Esterbergstraße",11.3253465209,48.0103577178,"de:9188:5558"
"1005468","Allmannshausen, Allmannshausen",11.347677883500001,47.937835565200004,"de:9188:5468"
"1005386","Söcking (Kr STA), Mitte",11.319083704999999,48.0024783393,"de:9188:5386"
"1005564","Söcking (Kr STA), Kreissparkasse",11.3179952438,48.003722005,"de:9188:5564"
"1005562","Söcking (Kr STA), Rummelsberger Stift Söcking",11.3183941977,48.0049744879,"de:9188:5562"
"1002550","Baierbrunn, Baierbrunn",11.4852515099,48.0191080884,"de:9184:2550"
"1005387","Söcking (Kr STA), Georg-Bader-Weg",11.3144760773,48.00129077650001,"de:9188:5387"
"1002484","Beigarten, Beigarten, Abzw.",11.5002921542,47.976049975500004,"de:9184:2484"
"1005568","Maxhof (Pöcking), Maxhof",11.3088997627,47.9843403022,"de:9188:5568"
"1005388","Söcking (Kr STA), Bründlwiese",11.310292770199998,48.0004563273,"de:9188:5388"
"1005536","Hanfeld, Hanfeld",11.3213931733,48.0225837739,"de:9188:5536"
"1005585","Possenhofen, Schloßberg",11.3092482726,47.9602033079,"de:9188:5585"
"1005597","Pöcking, Enzianweg",11.3039623922,47.9719351949,"de:9188:5597"
"1005460","Possenhofen, Possenhofen",11.3062417465,47.9627394172,"de:9188:5460"
"1005595","Pöcking, Parkstraße",11.305091103999999,47.964666115300005,"de:9188:5595"
"1005593","Pöcking, Piusweg",11.302476521600001,47.9678970089,"de:9188:5593"
"1002478","Hailafing, Hailafing",11.5123673584,47.9909593197,"de:9184:2478"
"1002473","Straßlach, Gewerbestraße",11.512267405300001,47.9973083998,"de:9184:2473"
"1005620","Buchendorf (b Gauting), Buchendorf",11.403227331999998,48.0572221999,"de:9188:5620"
"1005598","Pöcking, Altes Rathaus",11.3004560196,47.9667785045,"de:9188:5598"
"1005596","Starnberg, Taubenhüll",11.3212483928,48.031576531300004,"de:9188:5596"
"1002482","Kleindingharting, Kleindingharting",11.514231182500001,47.9707854524,"de:9184:2482"
"1005567","Maising, Schluchtweg",11.295085499499999,47.9865048446,"de:9188:5567"
"1002476","Straßlach, Gh.Wildpark",11.5142224576,48.003162528400004,"de:9184:2476"
"1005506","Pöcking, Birkenstraße",11.296980344100001,47.964346985400006,"de:9188:5506"
"1002480","Großdingharting, Großdingharting",11.5200119802,47.9814402305,"de:9184:2480"
"1005636","Hausen (b Gauting), Hausen",11.330624017099998,48.042738583500004,"de:9188:5636"
"1005638","Königswiesen (Gauting), Königswiesen",11.364768386,48.0570251939,"de:9188:5638"
"1005566","Maising, Maising",11.290051443400001,47.9852956934,"de:9188:5566"
"1005599","Pöcking, Abzw.Lindenberg Siedlg.",11.2938345037,47.9632844315,"de:9188:5599"
"1002474","Straßlach, Frundsbergstraße",11.5153945866,48.0110908443,"de:9184:2474"
"1002540","Buchenhain (Obb), Buchenhain",11.4979492343,48.0326276129,"de:9184:2540"
"1005627","Gauting, Untertaxetweg",11.390831166699998,48.062958046300004,"de:9188:5627"
"1005618","Gauting, Buchendorfer Berg",11.3903786836,48.0637830546,"de:9188:5618"
"1005640","Gauting, Magdalenenstraße",11.374608369199999,48.062016585799995,"de:9188:5640"
"1005612","Gauting, Buchendorfer Straße",11.3866617634,48.0649504399,"de:9188:5612"
"1005610","Gauting, Würmbrücke",11.3814674455,48.066226684600004,"de:9188:5610"
"1005616","Gauting, Sonnwendstraße",11.3937239912,48.0679737402,"de:9188:5616"
"1005625","Buchendorf (b Gauting), Neurieder Straße",11.4080463329,48.0686778945,"de:9188:5625"
"1005608","Gauting, Rathaus",11.378904225600001,48.067382030699996,"de:9188:5608"
"1005470","Feldafing, Feldafing",11.2899297692,47.9472425449,"de:9188:5470"
"1005614","Gauting, Feldstraße",11.3947245589,48.0707580119,"de:9188:5614"
"1005611","Gauting, J.-Dosch-Schule",11.376912736200001,48.068963114700004,"de:9188:5611"
"1005613","Gauting, Planegger Straße",11.390431157,48.0707083562,"de:9188:5613"
"1005526","Hadorf, Hadorf",11.2834577085,48.0145381449,"de:9188:5526"
"1005430","Gauting, Gauting",11.3762692001,48.070029857200005,"de:9188:5430"
"1005601","Oberbrunn (Kr STA), Kohlschwarzweg",11.3176311051,48.0496412343,"de:9188:5601"
"1005693","Hadorf, Uneringer Straße",11.2833826801,48.016084583,"de:09188:5693"
"1005431","Gauting, Gauting (S) Ausstieg",11.3768947318,48.070455944100004,"de:9188:5431"
"1005589","Oberbrunn (Kr STA), Hochstadter Straße",11.315242425,48.049725963899995,"de:9188:5589"
"1005525","Perchting, Am Laichholz",11.2757073753,48.003238524000004,"de:9188:5525"
"1005623","Gauting, Ammerseestraße",11.3649636686,48.0695183102,"de:9188:5623"
"1005392","Perchting, Ort",11.2749508991,48.0007964736,"de:9188:5392"
"1005641","Gauting, Pippinplatz",11.3761413343,48.0717289415,"de:9188:5641"
"1005624","Gauting, A.-Fachkliniken",11.353855854299999,48.0671630853,"de:9188:5624"
"1005741","Gauting, Friedhof",11.392313311,48.073830077299995,"de:9188:5741"
"1002472","Grünwald (Kr München), Friedhof",11.520260744700002,48.031256881999994,"de:9184:2472"
"1005622","Gauting, Unterbrunner Straße",11.3642331483,48.0699999251,"de:9188:5622"
"1002530","Höllriegelskreuth, Höllriegelskreuth",11.5100109438,48.0431931039,"de:9184:2530"
"1006109","Gauting, Pentenrieder Straße",11.3582455485,48.0702364752,"de:9188:6109"
"1002528","Pullach (im Isartal), Tannenstraße",11.507528906900001,48.0461054091,"de:9184:2528"
"1002470","Grünwald (Kr München), Hirtenweg",11.5214123781,48.0357674574,"de:9184:2470"
"1002523","Pullach (im Isartal), Franz-Höllriegel-Str.",11.509875364200001,48.0461783859,"de:9184:2523"
"1002457","Grünwald (Kr München), Isarbrücke",11.5160210871,48.043002703099994,"de:9184:2457"
"1002526","Pullach (im Isartal), Römerstraße",11.5106448746,48.0484840106,"de:9184:2526"
"1002455","Grünwald (Kr München), Rathaus",11.5210650984,48.0414139683,"de:9184:2455"
"1005607","Gauting, Schulzentrum",11.375474551,48.0791539759,"de:9188:5607"
"1005602","Wieling, Wieling",11.2684778545,47.954338984399996,"de:9188:5602"
"1002454","Grünwald (Kr München), Gymnasium",11.5259998923,48.0385384829,"de:9184:2454"
"1002456","Grünwald (Kr München), Derbolfinger Platz",11.5235982008,48.041586371099996,"de:9184:2456"
"1005655","Wieling, Wieling West",11.2673389118,47.95440368,"de:9188:5655"
"1005421","Garatshausen, Weylerstraße",11.2908905756,47.923954639,"de:9188:5421"
"1005632","Unterbrunn (Kr STA), Feuerwehr",11.3251115542,48.066395421900005,"de:9188:5632"
"1005626","Pentenried, Pentenried",11.3501448722,48.0763065898,"de:9188:5626"
"1005631","Unterbrunn (Kr STA), Hauptstraße",11.3234623688,48.0673300543,"de:9188:5631"
"1002508","Pullach (im Isartal), Jakobusplatz",11.5128615824,48.053799609500004,"de:9184:2508"
"1005646","Stockdorf, Max-Dingler-Straße",11.4005797723,48.0842339882,"de:9188:5646"
"1005437","Aschering, Aschering",11.256905740799999,47.9658576684,"de:9188:5437"
"1002452","Grünwald (Kr München), Josef-Sammer-Straße",11.5358535109,48.0373735266,"de:9184:2452"
"1005628","Pentenried, Gut",11.3442690968,48.078242821,"de:9188:5628"
"1002525","Pullach (im Isartal), Jaiserstraße",11.5172379702,48.054879296500005,"de:9184:2525"
"1005647","Stockdorf, Gautinger Straße",11.4037637371,48.0874702122,"de:9188:5647"
"1002521","Pullach (im Isartal), Gartenstr./Rathaus",11.5191712636,48.054707522799994,"de:9184:2521"
"1002522","Pullach (im Isartal), P.-Rupert-Mayer-Straße",11.5173607421,48.0589718691,"de:9184:2522"
"1005605","Traubing, Schule",11.260627196500002,47.9434153135,"de:9188:5605"
"1005429","Tutzing, Mühlfeldstraße",11.2849087493,47.915256560399996,"de:9188:5429"
"1005648","Stockdorf, Baierplatz",11.4073047427,48.091211822,"de:9188:5648"
"1002537","Neuried (Kr München), Eichenstraße",11.453520649300001,48.086422299800006,"de:9184:2537"
"1002520","Pullach (im Isartal), Pullach",11.5216505602,48.0578655958,"de:9184:2520"
"1005604","Traubing, Maibaum",11.2581192876,47.9446852595,"de:9188:5604"
"1002504","Neuried (Kr München), Dr.-Rehm-Str.",11.4535820504,48.086962201199995,"de:9184:2504"
"1005649","Stockdorf, Harmsplatz",11.4048753957,48.09234145240001,"de:9188:5649"
"1001448","München, Kemptener Straße",11.4835279398,48.0789704243,"de:9162:1448"
"1005472","Krailling, Muggenthalerstraße",11.413077382100001,48.09236560909999,"de:9188:5472"
"1001421","München, Forstenrieder Park",11.4882276369,48.0773725974,"de:9162:1421"
"1002464","Grünwald (Kr München), Ludwig-Thoma-Straße",11.535569794,48.049558643699996,"de:9184:2464"
"1002527","Pullach (im Isartal), Mozartstraße",11.5186679214,48.0626646919,"de:9184:2527"
"1002503","Neuried (Kr München), Hainbuchenring",11.4590374621,48.08769847160001,"de:9184:2503"
"1005420","Stockdorf, Stockdorf",11.401249033,48.0936536699,"de:9188:5420"
"1002549","Neuried (Kr München), Laubenweg",11.4530050656,48.0894776373,"de:9184:2549"
"1005453","Krailling, Lohfeldstraße",11.4113637642,48.0943084404,"de:9188:5453"
"1005630","Krailling, Frohnloh",11.3290431985,48.081869325999996,"de:9188:5630"
"1002518","Pullach (im Isartal), Metzstraße",11.521321719500001,48.0629545642,"de:9184:2518"
"1002486","Pullach (im Isartal), Saarlandstraße",11.519239659200002,48.064663644599996,"de:9184:2486"
"1002501","Neuried (Kr München), Fichtenstraße",11.4588458179,48.0893343859,"de:9184:2501"
"1001446","München, Allgäuer Straße",11.485658688600001,48.081983800100005,"de:9162:1446"
"1005427","Tutzing, Fischergassl",11.2808690768,47.9113460337,"de:9188:5427"
"1005473","Krailling, Heimstraße",11.413397819399998,48.0960635685,"de:9188:5473"
"1001442","München, Gautinger Straße",11.4806558957,48.0843086263,"de:9162:1442"
"1001422","München, Mindelheimer Straße",11.492213115,48.08014227060001,"de:9162:1422"
"1001444","München, Vinzenz-Schüpfer-Straße",11.4840207319,48.0833794507,"de:9162:1444"
"1002516","Pullach (im Isartal), Hans-Keis-Straße",11.524588972,48.0636516204,"de:9184:2516"
"1005478","Krailling, Mitterweg",11.4108925476,48.096779237599996,"de:9188:5478"
"1002531","Neuried (Kr München), Fliederstraße",11.4535251372,48.092340038799996,"de:9184:2531"
"1001362","München, Waldfriedhof Solln",11.5170943544,48.068818657799994,"de:9162:1362"
"1005389","Unering (Kr STA), Am Weiher",11.2522944359,48.030213455100004,"de:9188:5389"
"1005465","Krailling, KIM, Konrad-Zuse-Bogen",11.3608982721,48.0933466059,"de:9188:5465"
"1005482","Krailling, Bibliothek",11.4124016554,48.097479455000006,"de:9188:5482"
"1002529","Neuried (Kr München), Mangfallstraße",11.4592456825,48.0921692152,"de:9184:2529"
"1002535","Neuried (Kr München), Kraillinger Weg",11.4633717786,48.0917028886,"de:9184:2535"
"1005619","Krailling, Forst-Kasten-Straße",11.418488652999999,48.09821187989999,"de:9188:5619"
"1002517","Pullach (im Isartal), Freizeitbad",11.5259431686,48.06521308760001,"de:9184:2517"
"1001423","München, Spielmannsauer Straße",11.493977961899999,48.0822005647,"de:9162:1423"
"1005425","Tutzing, Gymnasium",11.279634211,47.907785748100004,"de:9188:5425"
"1001441","München, Maxhofstraße",11.478767772800001,48.087861509999996,"de:9162:1441"
"1005591","Hochstadt (Oberbay), Dorfstraße",11.273272441700001,48.056393424199996,"de:9188:5591"
"1005479","Krailling, Erlenweg",11.4042625906,48.0989125217,"de:9188:5479"
"1005475","Krailling, Rathaus",11.4055645276,48.098946237599996,"de:9188:5475"
"1005469","Krailling, Pionierstraße",11.3639322758,48.0955218646,"de:9188:5469"
"1002536","Neuried (Kr München), Starnberger Straße",11.472140362,48.0901336239,"de:9184:2536"
"1002462","Grünwald (Kr München), Parkplatz",11.540684318899999,48.0551371839,"de:9184:2462"
"1005417","Tutzing, Krankenhaus",11.2785920543,47.9076982666,"de:9188:5417"
"1005476","Krailling, Margaretenstraße",11.4179413056,48.0991264469,"de:9188:5476"
"1001355","München, Nesselwanger Straße",11.491229210999999,48.084652658799996,"de:9162:1355"
"1001416","München, Neurieder Straße",11.485382146000001,48.086839050500004,"de:9162:1416"
"1001352","München, Parkstadt Solln",11.5035600599,48.0795082902,"de:9162:1352"
"1001500","München, Fürstenried West",11.480397810800001,48.0886153436,"de:9162:1500"
"1002511","Pullach (im Isartal), Gymnasium",11.5271096892,48.0667647736,"de:9184:2511"
"1002534","Neuried (Kr München), Rathaus",11.465786916,48.0931171131,"de:9184:2534"
"1001452","München, Tessiner Straße",11.4751139842,48.0907677807,"de:9162:1452"
"1005477","Krailling, Sperberweg",11.4010888786,48.100514868,"de:9188:5477"
"1002538","Neuried (Kr München), Neuer Friedhof",11.4600103047,48.094789911,"de:9184:2538"
"1001356","München, Forstenried",11.4946419362,48.0842989678,"de:9162:1356"
"1002541","Neuried (Kr München), Am Haderner Winkel",11.4625781828,48.0944332032,"de:9184:2541"
"1001357","München, Eberlestraße",11.508752910199998,48.078208537,"de:9162:1357"
"1001326","München, Melchiorstraße",11.5197988826,48.0723464417,"de:9162:1326"
"1001358","München, Bleibtreustraße",11.513777221899998,48.076251311200004,"de:9162:1358"
"1002514","Großhesselohe, Am Grundelberg",11.528131888999999,48.0679651083,"de:9184:2514"
"1005463","Krailling, Waldsanatorium",11.3888607039,48.101367884400005,"de:9188:5463"
"1005592","Hochstadt (Oberbay), Schule",11.2665200524,48.0557749605,"de:9188:5592"
"1001351","München, Gulbranssonstraße",11.5037778707,48.0819824418,"de:9162:1351"
"1002532","Neuried (Kr München), Ammerseestraße",11.472240767,48.09344368719999,"de:9184:2532"
"1005481","Planegg, Münchener Straße",11.4259149981,48.101666704900005,"de:9184:5481"
"1005480","Tutzing, Tutzing",11.2733471111,47.906837792,"de:9188:5480"
"1001454","München, Appenzeller Straße",11.475493935700001,48.0930088913,"de:9162:1454"
"1001411","München, Hatzelweg",11.495668801899999,48.0863539902,"de:9162:1411"
"1002588","Planegg, Kardinal-Faulhaber-Straße",11.4259226222,48.102188364599996,"de:9184:2588"
"1005563","Krailling, Altenheim Maria Eich",11.408324115,48.102998538600005,"de:9188:5563"
"1001403","München, Plattlinger Straße",11.5128538588,48.0788195464,"de:9162:1403"
"1002502","Neuried (Kr München), Falkenweg",11.467653346899999,48.0956799141,"de:9184:2502"
"1001349","München, Wilhelm-Busch-Straße",11.5064195838,48.0822276369,"de:9162:1349"
"1002533","Neuried (Kr München), Waldhauserstraße",11.4714590295,48.0950589249,"de:9184:2533"
"1002556","Planegg, Bräuhausstraße",11.421103156300001,48.1033153767,"de:9184:2556"
"1001359","München, Stridbeckstraße",11.5193055058,48.0763374976,"de:9162:1359"
"1001360","München, Gilgstraße",11.5092575921,48.0815922463,"de:9162:1360"
"1001304","München, Ringelnatzweg",11.5225534283,48.074858101000004,"de:9162:1304"
"1001438","München, Forst-Kasten-Allee",11.476484037999999,48.0946592083,"de:9162:1438"
"1002586","Planegg, Kettelerstraße",11.4294923912,48.103564138900005,"de:9184:2586"
"1001415","München, Bad Forstenried",11.4994209964,48.0869909287,"de:9162:1415"
"1001490","München, Basler Straße",11.4902987539,48.0905302819,"de:9162:1490"
"1001437","München, Bellinzonastraße",11.481071576100002,48.0936997038,"de:9162:1437"
"1002512","Großhesselohe, Wettersteinstraße",11.529990626699998,48.0716150892,"de:9184:2512"
"1002548","Planegg, Friedhof",11.433708414400002,48.1035759773,"de:9184:2548"
"1005572","Hochstadt (Oberbay), Neuhochstadter Straße",11.2668358174,48.0609392862,"de:9188:5572"
"1002600","Planegg, Planegg",11.414625366700001,48.1050183356,"de:9184:2600"
"1002554","Planegg, Tandlerschlucht",11.423490412000001,48.1047663215,"de:9184:2554"
"1002500","Großhesselohe, Großhesselohe,  Isartalbahnhof",11.5311581096,48.0716108593,"de:9184:2500"
"1001436","München, Tischlerstraße",11.4806147408,48.0950736446,"de:9162:1436"
"1001354","München, Stäblistraße",11.502978178300001,48.0869793712,"de:9162:1354"
"1002552","Planegg, Schulangerweg",11.4257113555,48.105487915000005,"de:9184:2552"
"1002601","Planegg, Planegg (S) West",11.413605476899999,48.1061463187,"de:9184:2601"
"1002460","Grünwald (Kr München), Robert-Koch-Straße",11.5450578555,48.062718117699994,"de:9184:2460"
"1001413","München, Kriegelsteinerstraße",11.4969215003,48.090037811200006,"de:9162:1413"
"1001325","München, Sollner Straße",11.5252317717,48.0769286971,"de:9162:1325"
"1002584","Planegg, Germeringer Straße",11.422343433699998,48.1064693272,"de:9184:2584"
"1002647","Planegg, Mathildenstraße",11.4190092262,48.1068302615,"de:9184:2647"
"1002515","Großhesselohe, Marienstraße",11.5345927367,48.071678766,"de:9184:2515"
"1002547","Martinsried, Kopernikusweg",11.4468283887,48.104683057399996,"de:9184:2547"
"1001332","München, Weltistraße",11.507188592399999,48.0874381649,"de:9162:1332"
"1001347","München, Glötzleweg",11.510180408999998,48.0861828599,"de:9162:1347"
"1001350","München, Munckerstraße",11.5028459533,48.0895599304,"de:9162:1350"
"1001344","München, Bastian-Schmid-Platz",11.512860664,48.0852139497,"de:9162:1344"
"1002582","Planegg, Hutfeldstraße",11.423534806500001,48.10800419339999,"de:9184:2582"
"1002579","Planegg, Richard-Wagner-Straße",11.4254563622,48.1078878981,"de:9184:2579"
"1001346","München, Hofbrunnstraße",11.5172374116,48.083667531399996,"de:9162:1346"
"1001318","München, Diefenbachstraße",11.523520875500001,48.0805460037,"de:9162:1318"
"1001353","München, Allescherstraße",11.5199457512,48.082536690699996,"de:9162:1353"
"1002513","Großhesselohe, Staatsbahnhof",11.536578937599998,48.073152725099995,"de:9184:2513"
"1001434","München, Ehrenmal",11.4790431588,48.0991495767,"de:9162:1434"
"1001320","München, Solln",11.5274664723,48.0791053306,"de:9162:1320"
"1005657","Hochstadt (Oberbay), Waldsiedlung",11.2640468683,48.06553517,"de:9188:5657"
"1001334","München, Fertigstraße",11.5087730362,48.0887939639,"de:9162:1334"
"1005369","Gilching, Gewerbegebiet Süd",11.313308709100001,48.0932971506,"de:9188:5369"
"1002458","Grünwald (Kr München), Bavariafilmplatz",11.546262928700001,48.0675793754,"de:9184:2458"
"1002553","Planegg, Steinkirchen",11.4331786273,48.1090234102,"de:9184:2553"
"1002542","Martinsried, Am Klopferspitz",11.4525272358,48.106688882,"de:9184:2542"
"1002581","Planegg, Ruffiniallee",11.4173693346,48.110545263,"de:9184:2581"
"1002578","Planegg, Zweigstraße",11.4270837955,48.1100724335,"de:9184:2578"
"1001480","München, Forstenrieder Allee",11.498473695700001,48.0946942176,"de:9162:1480"
"1002551","Planegg, Behringstraße",11.430805589399998,48.1098930526,"de:9184:2551"
"1002558","Martinsried, Max-Planck-Institute",11.458751564499998,48.106007851,"de:9184:2558"
"1001329","München, Solln Bf Wendeschleife",11.5275527811,48.0814080198,"de:9162:1329"
"1001405","München, Staffelseestraße",11.5063387995,48.0920841524,"de:9162:1405"
"1002546","Martinsried, Keplerweg",11.4489526587,48.108200704199994,"de:9184:2546"
"1001328","München, Friedastraße",11.528884079400001,48.0811256872,"de:9162:1328"
"1001409","München, Limmatstraße",11.500931047,48.0946329559,"de:9162:1409"
"1005375","Gilching, Zeppelinstraße",11.3068673528,48.093114613699996,"de:9188:5375"
"1002544","Martinsried, Lochhamer Straße",11.452079130800001,48.108422487199995,"de:9184:2544"
"1001408","München, Züricher Straße",11.5039685763,48.0942683663,"de:9162:1408"
"1001342","München, Spindlerplatz",11.514278319699999,48.0900404519,"de:9162:1342"
"1002555","Martinsried, IZB",11.4603885357,48.1074095278,"de:9184:2555"
"1001345","München, Marienstern",11.519696516799998,48.0876889195,"de:9162:1345"
"1001126","Grünwald (Kr München), Schilcherweg",11.5474109775,48.0713162038,"de:9162:1126"
"1002545","Martinsried, Fraunhoferstraße",11.4484839747,48.110590719,"de:9184:2545"
"1001432","München, Zöllerstraße",11.4751953702,48.105211673,"de:9162:1432"
"1002583","Planegg, Thürheimstraße",11.416245215,48.1137592237,"de:9184:2583"
"1001341","München, Münsinger Straße",11.5177510579,48.0904687609,"de:9162:1341"
"1002577","Gräfelfing, Reichartstraße",11.4289238271,48.1136879605,"de:9184:2577"
"1002562","Martinsried, Nord",11.451968763600002,48.111227921099996,"de:9184:2562"
"1005491","Oberpfaffenhofen, Argelsrieder Feld",11.2746204874,48.081727791400006,"de:9188:5491"
"1001339","München, Siemensallee",11.521093039899998,48.090527687999995,"de:9162:1339"
"1001404","München, Lorettoplatz",11.488841379800002,48.1035013995,"de:9162:1404"
"1002557","Martinsried, LMU Martinsried",11.4614575924,48.1104813072,"de:9184:2557"
"1005590","Oberpfaffenhofen, Oberpfaffenhofen",11.262644103900001,48.0745107475,"de:9188:5590"
"1005457","Gilching, Friedrichshafener Straße",11.2919985283,48.0917289726,"de:9188:5457"
"1001331","München, Josephinenstraße",11.5370732816,48.0823820439,"de:9162:1331"
"1002576","Gräfelfing, Rottenbucher Straße",11.428246463399999,48.1154293265,"de:9184:2576"
"1005507","Oberpfaffenhofen, Techno Park",11.269846444999999,48.080492444200004,"de:9188:5507"
"1001540","München, Klinikum Großhadern",11.4738554486,48.108883878499995,"de:9162:1540"
"1001426","München, Max-Lebsche-Platz",11.475416478200001,48.108558249000005,"de:9162:1426"
"1002565","Gräfelfing, Würmtalstraße",11.439692009399998,48.115161877300004,"de:9184:2565"
"1001464","München, Drygalski-Allee",11.5084020331,48.0981545889,"de:9162:1464"
"1001156","München, Krankenhaus Martha Maria",11.533965666199999,48.08615575659999,"de:9162:1156"
"1005486","Oberpfaffenhofen, DLR",11.2761941844,48.08531713360001,"de:9188:5486"
"1002573","Gräfelfing, Jugendmusikschule",11.4353000986,48.1164084797,"de:9184:2573"
"1002475","Gräfelfing, Hügelstraße",11.427473146599999,48.1173410862,"de:9184:2475"
"1001125","München, Großhesseloher Brücke",11.5501824147,48.0766602192,"de:9162:1125"
"1005456","Gilching, RUAG",11.2870405779,48.0920490901,"de:9188:5456"
"1002559","Martinsried, Würmtalstraße",11.452562119100001,48.11479215440001,"de:9184:2559"
"1001338","München, Leutstettener Straße",11.5226366321,48.0934479896,"de:9162:1338"
"1005484","Oberpfaffenhofen, Claude-Dornier-Straße",11.282368866099999,48.0901224002,"de:9188:5484"
"1001474","München, Klinikum Großhadern Nord",11.466823418199999,48.112340965,"de:9162:1474"
"1002574","Gräfelfing, Eichendorffplatz",11.4312704922,48.117665699300005,"de:9184:2574"
"1006611","Germering, Freibad / Polariom",11.35210298,48.1138385228,"de:9179:6611"
"1005447","Oberpfaffenhofen, Argelsrieder Straße",11.2658192748,48.0805477453,"de:9188:5447"
"1006448","Germering, Kerschensteiner Schule",11.359230005099999,48.1152634406,"de:9179:6448"
"1006479","Germering, Riegerstraße",11.3681985185,48.116599116799996,"de:9179:6479"
"1002572","Gräfelfing, Pasinger Straße",11.438299478,48.1172415676,"de:9184:2572"
"1002587","Gräfelfing, Waldstraße",11.422758327899999,48.118594595299996,"de:9184:2587"
"1001470","München, Machtlfinger Straße",11.5134638699,48.098122145,"de:9162:1470"
"1001472","München, Klinikum Großhadern Ost",11.473938760200001,48.111249538500005,"de:9162:1472"
"1006456","Germering, Montessoristraße",11.361678122199999,48.1160414969,"de:9179:6456"
"1006471","Germering, Kerschensteiner Schule Ost",11.3597744703,48.11576111309999,"de:9179:6471"
"1005350","Geisenbrunn, Geisenbrunn",11.324994139400001,48.1082325787,"de:9188:5350"
"1006450","Germering, Theodor-Heuss-Straße",11.356150862400002,48.1155520244,"de:9179:6450"
"1006478","Germering, Neue Gautinger Straße",11.373634400899999,48.1179958516,"de:9179:6478"
"1006458","Germering, An der Markung",11.3638842447,48.1168451432,"de:9179:6458"
"1005587","Gilching, GWG Argelsried",11.3080233799,48.1030144304,"de:9188:5587"
"1001466","München, Südpark",11.5106882504,48.1005835776,"de:9162:1466"
"1002604","Gräfelfing, Finkenstraße",11.443409067,48.1179409106,"de:9184:2604"
"1001337","München, Kistlerhofstraße",11.523372607799999,48.095159800800005,"de:9162:1337"
"1001402","München, Aurikelstraße",11.4908914896,48.1080162136,"de:9162:1402"
"1001333","München, Carola-Neher-Straße",11.532932249,48.090594346,"de:9162:1333"
"1002568","Gräfelfing, Weinbuchweg",11.4420199115,48.1184737883,"de:9184:2568"
"1001301","München, Baierbrunner Straße",11.5300169292,48.0923272089,"de:9162:1301"
"1002590","Gräfelfing, Gräfelfing",11.427363313599999,48.1199756206,"de:9184:2590"
"1006477","Germering, Am Forst",11.3776983902,48.119573777599996,"de:9179:6477"
"1001574","München, Waldhüterstraße",11.467188523399999,48.114698941,"de:9162:1574"
"1001145","München, Hinterbrühl",11.5410076081,48.0867146802,"de:9162:1145"
"1006465","Germering, Waldfriedhof",11.3670051875,48.1186250787,"de:9179:6465"
"1005485","Neugilching, Landsberger Straße",11.2846693099,48.0946065109,"de:9188:5485"
"1001124","München, Menterschwaige",11.551815573499999,48.0802280164,"de:9162:1124"
"1002737","Gräfelfing, Rathaus",11.4257419086,48.12083990279999,"de:9184:2737"
"1006452","Germering, Kurt-Schumacher-Straße",11.357561490499998,48.1176733762,"de:9179:6452"
"1001324","München, Geisenhausenerstraße",11.518948355600001,48.0988377039,"de:9162:1324"
"1001424","München, Marchioninistraße",11.4768558276,48.113610131,"de:9162:1424"
"1002575","Gräfelfing, Sudetenstraße",11.4332093522,48.1208949228,"de:9184:2575"
"1001572","München, Zinckgrafstraße",11.4715498857,48.115033827299996,"de:9162:1572"
"1005370","Neugilching, Neugilching",11.288395272399999,48.097975212399994,"de:9188:5370"
"1001460","München, Aidenbachstraße",11.5237237733,48.09784130920001,"de:9162:1460"
"1006464","Germering, Fichtenstraße",11.3668913044,48.1202432748,"de:9179:6464"
"1002564","Gräfelfing, Neuer Friedhof",11.4503858399,48.119890057,"de:9184:2564"
"1001327","München, Gmunder Straße",11.5278707482,48.0965453544,"de:9162:1327"
"1002566","Gräfelfing, Lohenstraße",11.4462269371,48.1206885168,"de:9184:2566"
"1001462","München, Waldfriedhof Haupteingang",11.502187840100001,48.1076969137,"de:9162:1462"
"1005371","Neugilching, Flurgrenzstraße",11.295384543800001,48.1023171412,"de:9188:5371"
"1006454","Germering, Ringstraße",11.3558845551,48.119669540400004,"de:9179:6454"
"1001310","München, Siemenswerke",11.5316529317,48.0954815957,"de:9162:1310"
"1001303","München, Ratzingerplatz",11.5237900569,48.0993884598,"de:9162:1303"
"1001530","München, Großhadern",11.4772525432,48.1155455257,"de:9162:1530"
"1002589","Gräfelfing, Freihamer Straße",11.423091479499998,48.1236325971,"de:9184:2589"
"1006469","Germering, Friedenstraße",11.359873010100001,48.1208069944,"de:9179:6469"
"1001541","München, Hanna-Kirchner-Weg",11.4691319355,48.1176937495,"de:9162:1541"
"1001563","München, Platanenstraße",11.483292494699999,48.114574537500005,"de:9162:1563"
"1002569","Gräfelfing, Seeholzenstraße",11.4507727722,48.12139381,"de:9184:2569"
"1001562","München, Saalburgstraße",11.487531629900001,48.1137031462,"de:9162:1562"
"1006486","Germering, Lerchenstraße",11.363040455199998,48.122092654999996,"de:9179:6486"
"1006490","Germering, Otto-Wagner-Straße",11.366535718,48.122948347699996,"de:9179:6490"
"1001502","München, Kornwegerstraße",11.494771643399998,48.1121972868,"de:9162:1502"
"1006488","Germering, Don-Bosco-Straße",11.3677555498,48.1231529148,"de:9179:6488"
"1006462","Germering, Masurenweg",11.3582216916,48.1218230473,"de:9179:6462"
"1005360","Gilching, Gilching-Argelsried",11.300923539400001,48.1067487625,"de:9188:5360"
"1001144","München, Campingplatz Thalkirchen",11.543836387,48.0916633501,"de:9162:1144"
"1001302","München, Hofmannstraße",11.5290766362,48.0997519706,"de:9162:1302"
"1001535","München, Am Hedernfeld",11.469096292000001,48.1198520115,"de:9162:1535"
"1001317","München, Murnauer Straße",11.5242884635,48.1021245346,"de:9162:1317"
"1002567","Gräfelfing, Am Haag",11.4513173658,48.1232310705,"de:9184:2567"
"1001545","München, Wildanger",11.473008618000001,48.1194832804,"de:9162:1545"
"1001319","München, Aichacher Straße",11.5187690107,48.1051143907,"de:9162:1319"
"1006487","Germering, Alfons-Baumann-Straße",11.354859577200001,48.1232252062,"de:9179:6487"
"1001311","München, Waldfriedhof",11.502319990699998,48.1120952836,"de:9162:1311"
"1001123","München, Klinikum Harlaching",11.5548854884,48.0868681331,"de:9162:1123"
"1001312","München, Waldfriedhof (Wendeschleife)",11.5029890962,48.112340999,"de:9162:1312"
"1005492","Gilching, Karolingerstraße",11.2932844489,48.1066391215,"de:9188:5492"
"1001154","München, Rupert-Mayer-Straße",11.5406934521,48.096381412899994,"de:9162:1154"
"1005357","Gilching, Pähler Weg",11.296857501999998,48.1085226745,"de:9188:5357"
"1001534","München, Am Ährenfeld",11.478335171900001,48.1200471615,"de:9162:1534"
"1001532","München, Großhaderner Straße",11.4811211602,48.1194841796,"de:9162:1532"
"1001546","München, Drozzaweg",11.4756276068,48.1208172825,"de:9162:1546"
"1001450","München, Obersendling",11.5380443968,48.0983583639,"de:9162:1450"
"1001537","München, Am Hedernfeld Nord",11.472838270399999,48.1216948863,"de:9162:1537"
"1001323","München, Zielstattstraße",11.5300182356,48.10250782,"de:9162:1323"
"1005656","Gilching, Gymnasium",11.2871004663,48.1052069639,"de:9188:5656"
"1001143","München, Floßlände",11.5459300428,48.0947743795,"de:9162:1143"
"1001309","München, Werdenfelsstraße",11.507795204799999,48.1125145481,"de:9162:1309"
"1001316","München, Höglwörther Straße",11.5224460711,48.1067935006,"de:9162:1316"
"1001520","München, Haderner Stern",11.4901307167,48.1184182652,"de:9162:1520"
"1001533","München, Gelbhofstraße",11.47569503,48.1221126449,"de:9162:1533"
"1006461","Nebel (Germering), Nebel",11.3256648581,48.1195862807,"de:9179:6461"
"1001524","München, Gräfelfinger Straße",11.495151651999999,48.117280251900006,"de:9162:1524"
"1001139","München, Maria-Einsiedel-Straße",11.544137451200001,48.0970965997,"de:9162:1139"
"1001158","München, Tölzer Straße",11.5382544508,48.1003917299,"de:9162:1158"
"1001171","München, Theodolindenstraße",11.5591949222,48.08835965389999,"de:9162:1171"
"1001536","München, Haderunstraße",11.478890805299999,48.122217098200004,"de:9162:1536"
"1001315","München, Pilsenseestraße",11.5204376536,48.109060490699996,"de:9162:1315"
"1001122","München, Theodolindenplatz",11.556936418000001,48.090320550899996,"de:9162:1122"
"1001527","München, Wolkerweg",11.4872481192,48.120608847599996,"de:9162:1527"
"1001142","München, Bad Maria Einsiedel",11.547015069899999,48.096577349899995,"de:9162:1142"
"1001510","München, Holzapfelkreuth",11.502292562200001,48.1163310779,"de:9162:1510"
"1005365","Gilching, Welfenstraße",11.2956824486,48.111968984200004,"de:9188:5365"
"1001308","München, Ettalstraße",11.5138451662,48.113232765199996,"de:9162:1308"
"1001526","München, Stiftsbogen",11.4915729268,48.1206280399,"de:9162:1526"
"1001525","München, Kurparkstraße",11.4962577495,48.1195424534,"de:9162:1525"
"1001157","München, Flößergasse",11.5380529558,48.1034037302,"de:9162:1157"
"1001313","München, Grünstraße",11.5261984904,48.109066370099995,"de:9162:1313"
"1001322","München, Schneemannstraße",11.5329250202,48.106233954100006,"de:9162:1322"
"1001307","München, Luise-Kiesselbach-Platz",11.5170404762,48.113336156200006,"de:9162:1307"
"1001152","München, Steinerstraße",11.540312937400001,48.1044380352,"de:9162:1152"
"1001141","München, Zentralländstraße",11.5482027437,48.1004671958,"de:9162:1141"
"1001440","München, Thalkirchen (Tierpark)",11.5466235369,48.1014142911,"de:9162:1440"
"1001121","München, Authariplatz",11.5625868955,48.0920149557,"de:9162:1121"
"1001554","München, Gondrellplatz",11.490029079400001,48.1246232857,"de:9162:1554"
"1001321","München, Adunistraße",11.5342151802,48.1090901081,"de:9162:1321"
"1001336","München, Friedrich-Hebbel-Straße",11.5260437742,48.112753046399995,"de:9162:1336"
"1001514","München, Andreas-Vöst-Straße",11.5025117308,48.1214582857,"de:9162:1514"
"1001300","München, Mittersendling",11.536354217600001,48.1086580681,"de:9162:1300"
"1001151","München, Neuhofen",11.5399645612,48.1073685087,"de:9162:1151"
"1001306","München, Fernpaßstraße",11.522920200400002,48.1150604461,"de:9162:1306"
"1001340","München, Westpark",11.517119342199999,48.117824214500004,"de:9162:1340"
"1005363","Gilching, Weßlinger Straße",11.2911741052,48.117544227299994,"de:9188:5363"
"1001335","München, Johann-Clanze-Straße",11.533779188099999,48.1127576685,"de:9162:1335"
"1001165","München, Tierpark (Alemannenstr.)",11.5587163466,48.1003820874,"de:9162:1165"
"1001330","München, Partnachplatz",11.5263051182,48.116468414,"de:9162:1330"
"1001149","München, Heckenstallerstraße",11.539636984600001,48.1109735714,"de:9162:1149"
"1001226","München, Hinterbärenbadstraße",11.5183408308,48.120779181,"de:9162:1226"
"1001305","München, Drachenseestraße",11.5315796288,48.1168767246,"de:9162:1305"
"1001431","München, Sylvensteinstraße",11.5394668781,48.113482061400006,"de:9162:1431"
"1001166","München, Wilhelm-Kuhnert-Straße",11.561628146299999,48.1037477764,"de:9162:1166"
"1001130","München, Harras",11.5362132079,48.1168775069,"de:9162:1130"
"1001430","München, Brudermühlstraße",11.5487046266,48.1121696458,"de:9162:1430"
"1001129","München, Am Harras",11.5401111732,48.1165334141,"de:9162:1129"
"1001236","München, Ortlerstraße",11.5347036882,48.1204418062,"de:9162:1236"
"1001148","München, Schäftlarnstraße",11.5536051229,48.112314668699995,"de:9162:1148"
"1001104","München, Margaretenplatz",11.5406326632,48.1198091072,"de:9162:1104"
"1001234","München, Fuggerstraße",11.5351990615,48.123600501800006,"de:9162:1234"
"1001103","München, Sendlinger Kirche",11.5410853878,48.1217624879,"de:9162:1103"
"1001134","München, Gotzinger Platz",11.5506310752,48.1176451952,"de:9162:1134"
"1001140","München, Implerstraße",11.5483599648,48.119327069300006,"de:9162:1140"
"1001131","München, Aberlestraße",11.545014864399999,48.1224525987,"de:9162:1131"
"1001133","München, Großmarkthalle",11.5519985576,48.1194761939,"de:9162:1133"
"1001128","München, Senserstraße",11.5485843841,48.1228443805,"de:9162:1128"
"1001132","München, Lagerhausstraße",11.5550650841,48.120549315999995,"de:9162:1132"
"1000146","München, Ehrengutstraße",11.557301302499999,48.121349362000004,"de:9162:146"
"1000083","München, Tumblingerstraße",11.554088928,48.123153631300006,"de:9162:83"
"1000129","München, Roecklplatz",11.561818533099999,48.120863018899996,"de:9162:129"
"1000144","München, Zenettistraße",11.559291749799998,48.122625075,"de:9162:144"
"1002328","Faistenhaar, Raiffeisenbank",11.7158645565,47.984438015200006,"de:9184:2328"
"1002334","Faistenhaar, Weidenstraße",11.7139433694,47.987868820200006,"de:9184:2334"
"1002332","Faistenhaar, Waldsiedlung",11.710834291300001,47.9928435145,"de:9184:2332"
"1002326","Hofolding, Hofolding",11.7003168164,47.9835172075,"de:9184:2326"
"1002250","Dürrnhaar, Dürrnhaar",11.734442918100001,47.9927295204,"de:9184:2250"
"1002324","Brunnthal (b München), Ort",11.6848626064,48.0069762301,"de:9184:2324"
"1002321","Höhenkirchen-Siegertsbrunn, Brunnthaler Straße",11.7095517158,48.0161067117,"de:9184:2321"
"1002307","Brunnthal (b München), Bergstraße",11.680426050400001,48.0048774825,"de:9184:2307"
"1002240","Höhenkirchen-Siegertsbrunn, Höhenkirchen-Siegertsbrunn",11.7191896896,48.018549896900005,"de:9184:2240"
"1002322","Höhenkirchen-Siegertsbrunn, Kirche",11.712029167599999,48.0189459116,"de:9184:2322"
"1002318","Höhenkirchen-Siegertsbrunn, Schmiedstraße",11.726876390100001,48.0200343414,"de:9184:2318"
"1002260","Aying, Aying",11.7697580396,47.9692602413,"de:9184:2260"
"1002316","Höhenkirchen-Siegertsbrunn, Lindenstraße",11.7037704347,48.021488121999994,"de:9184:2316"
"1009302","Sauerlach, Robert-Bosch-Straße",11.6648475523,47.9705494731,"de:9184:9302"
"1009303","Sauerlach, Ludwig-Bölkow-Straße",11.6631900097,47.9721275153,"de:9184:9303"
"1002406","Otterloh, Otterloh",11.660113510199999,47.9960595113,"de:9184:2406"
"1009301","Sauerlach, Rudolf-Diesel-Ring",11.6607889439,47.9706455031,"de:9184:9301"
"1009304","Sauerlach, Mühlweg",11.661230478699999,47.968659206800005,"de:9184:9304"
"1002346","Aying, Peißer Straße 8",11.7767469977,47.9696877105,"de:9184:2346"
"1002350","Sauerlach, Sauerlach",11.654633956,47.9738199376,"de:9184:2350"
"1002404","Sauerlach, Schule",11.6520178089,47.978470762099995,"de:9184:2404"
"1002411","Sauerlach, Martinstraße",11.6537305306,47.9707144133,"de:9184:2411"
"1002348","Peiß, Gasthaus zur Post",11.7776930135,47.961433370200005,"de:9184:2348"
"1002270","Peiß, Peiß",11.7767883925,47.9600555907,"de:9184:2270"
"1002424","Sauerlach, Kirche",11.649972697399999,47.9718812105,"de:9184:2424"
"1004222","Neuorthofen, Neuorthofen",11.7739406646,48.0144254372,"de:9175:4222"
"1002410","Sauerlach, Waldsiedlung",11.644530794,47.99010362,"de:9184:2410"
"1002419","Lochhofen, Kleefeldstraße",11.6635633959,47.9496534365,"de:9184:2419"
"1002413","Lanzenhaar, Haarer Str.",11.643715160600001,47.9976647284,"de:9184:2413"
"1002408","Lanzenhaar, Münchener Str.",11.6420001783,47.9956987977,"de:9184:2408"
"1002230","Wächterhof, Wächterhof",11.713376401800002,48.0371162577,"de:9184:2230"
"1002311","Brunnthal (b München), St.-Georg-Str.",11.6768150439,48.02947382399999,"de:9184:2311"
"1002423","Sauerlach, Keltenstraße",11.642041290800002,47.9703368795,"de:9184:2423"
"1002313","Brunnthal (b München), Haidstraße",11.678337656,48.0304224128,"de:9184:2313"
"1002314","Neukirchstockach, Taufkirchner Straße",11.6856633778,48.0340400737,"de:9184:2314"
"1004212","Egmating, Schule",11.795520363100001,48.0010203593,"de:9175:4212"
"1004210","Egmating, Jägerweg",11.7936099363,48.0062871956,"de:9175:4210"
"1004224","Egmating, Ehamostraße",11.794148720899999,48.0056046471,"de:9175:4224"
"1002308","Neukirchstockach, Waldstraße",11.6766543478,48.0337363172,"de:9184:2308"
"1002352","Göggenhofen, Abzw. Laus",11.7886480233,47.951129269899994,"de:9184:2352"
"1002420","Lochhofen, Lochhofen, Abzw.",11.650471198,47.947581832400004,"de:9184:2420"
"1002412","Grafing (Sauerlach), Grafing (b.Sauerlach)",11.6447069603,47.9526545999,"de:9184:2412"
"1002280","Großhelfendorf, Großhelfendorf",11.7825843071,47.94451662309999,"de:9184:2280"
"1004208","Orthofen (Egmating), Orthofen",11.7998793969,48.01044429739999,"de:9175:4208"
"1002305","Brunnthal (b München), Gudrunsiedlung",11.6673143142,48.0348788596,"de:9184:2305"
"1002306","Brunnthal (b München), Abzw.Gudrunsiedlung",11.673932897699999,48.0379016456,"de:9184:2306"
"1002421","Lochhofen, Bavariastraße",11.6452493716,47.9477277347,"de:9184:2421"
"1002379","Hohenbrunn (Obb), Dorfstraße",11.702344931999999,48.0455961486,"de:9184:2379"
"1002414","Lochhofen, Michelistraße",11.6441244018,47.9458445789,"de:9184:2414"
"1002220","Hohenbrunn (Obb), Hohenbrunn",11.698890798599999,48.0468372661,"de:9184:2220"
"1002369","Hohenbrunn (Obb), Bahnhofstraße",11.7003061424,48.0479381698,"de:9184:2369"
"1002415","Arget (Bayern), Finkenweg",11.6452607526,47.9421426867,"de:9184:2415"
"1002355","Großhelfendorf, Staatsstraße",11.7935769714,47.9438083626,"de:9184:2355"
"1002416","Arget (Bayern), Oberhamer Straße",11.6452212198,47.9400920015,"de:9184:2416"
"1002418","Arget (Bayern), Holzkirchner Straße",11.6480220232,47.9376183434,"de:9184:2418"
"1002304","Brunnthal (b München), Abzw.Waldbrunn",11.670455241199999,48.0428112076,"de:9184:2304"
"1004206","Tal (Obb), Tal (Oberpframmern)",11.806145933,48.0156532966,"de:9175:4206"
"1002317","Brunnthal (b München), Eugen-Sänger-Ring",11.6645623811,48.0415530755,"de:9184:2317"
"1002383","Hohenbrunn (Obb), Hubertusstraße",11.7012917867,48.0514571992,"de:9184:2383"
"1002315","Brunnthal (b München), Zusestraße",11.661416135,48.040734444,"de:9184:2315"
"1002276","Schlag (Oberpframmern), Schlag",11.7836470186,48.03646929480001,"de:9175:2276"
"1002445","Taufkirchen (b München), Ikea",11.6565202535,48.0408728266,"de:9184:2445"
"1002274","Harthausen (Grasbrunn), Forstwirt",11.7643161431,48.0498946767,"de:9184:2274"
"1002207","Taufkirchen (b München), Hugo-Junkers-Straße",11.654734332099999,48.04322379,"de:9184:2207"
"1004219","Oberpframmern, Maibaum",11.8128927966,48.0218430277,"de:9175:4219"
"1004213","Oberpframmern, Gh. Neuwirt",11.8131754859,48.0215197181,"de:9175:4213"
"1002437","Taufkirchen (b München), Willy-Messerschmitt-Str.",11.658657009399999,48.0463022867,"de:9184:2437"
"1002241","Riemerling, Appeltwiese",11.6716616867,48.0513585092,"de:9184:2241"
"1004217","Oberpframmern, Kirche",11.814314944800001,48.021530553299996,"de:9175:4217"
"1004214","Kastenseeon, Ort",11.8293883076,47.9954904579,"de:9175:4214"
"1004404","Rauchenberg (Aying), Rauchenberg",11.8028488442,47.9343902254,"de:9184:4404"
"1002243","Riemerling, Otto-Hahn-Straße",11.6748452725,48.0549020002,"de:9184:2243"
"1004216","Kastenseeon, Bad",11.8315655453,47.993461106000005,"de:9175:4216"
"1002244","Riemerling, Rudolf-Diesel-Straße",11.6698018435,48.0548336814,"de:9184:2244"
"1002203","Ottobrunn, Robert-Koch-Straße",11.6683943251,48.054676745100004,"de:9184:2203"
"1002247","Ottobrunn, Röntgenstraße",11.6649394542,48.053740407,"de:9184:2247"
"1002245","Ottobrunn, Einsteinstraße",11.6612453229,48.0524884876,"de:9184:2245"
"1004223","Oberpframmern, Buchenweg",11.8179734851,48.0257093998,"de:9175:4223"
"1004427","Blindham (Oberbay), Blindham",11.805097053199999,47.9308685212,"de:9184:4427"
"1002389","Taufkirchen (b München), Lilienthalstraße",11.654961641200002,48.0513726112,"de:9184:2389"
"1002205","Taufkirchen (b München), Ludwig-Bölkow-Allee",11.651036383100001,48.0506412942,"de:9184:2205"
"1002196","Ottobrunn, Finkenstraße",11.6669316925,48.056830966,"de:9184:2196"
"1002388","Riemerling, Altenheim",11.700599525200001,48.064460017100004,"de:9184:2388"
"1002441","Potzham, Karwendelstraße",11.6182580112,48.03191159799999,"de:9184:2441"
"1002192","Ottobrunn, Ottostraße",11.665482760000002,48.0589222527,"de:9184:2192"
"1002386","Ottobrunn, Theodor-Körner-Straße",11.6855348125,48.0640331312,"de:9184:2386"
"1002286","Riemerling, Theodor-Heuss-Straße",11.6948373481,48.0655241074,"de:9184:2286"
"1002387","Bergham (Taufkirchen), Veilchenweg",11.629571795099999,48.041706578799996,"de:9184:2387"
"1002210","Ottobrunn, Ottobrunn",11.680268173799998,48.063029338,"de:9184:2210"
"1002284","Ottobrunn, Tulpenweg",11.6904934978,48.064963907199996,"de:9184:2284"
"1002272","Harthausen (Grasbrunn), Kriegerdenkmal",11.7725397425,48.058760824100005,"de:9184:2272"
"1002281","Ottobrunn, Friedrich-Ebert-Platz",11.667288160600002,48.0598088498,"de:9184:2281"
"1002190","Ottobrunn, Hans-Kandler-Weg",11.672763975899999,48.0615872754,"de:9184:2190"
"1002188","Ottobrunn, Karl-Stieler-Straße",11.6801409746,48.0640722311,"de:9184:2188"
"1002273","Harthausen (Grasbrunn), Feuerwehrgerätehaus",11.772008382500001,48.060612435100005,"de:9184:2273"
"1002329","Potzham, Wallbergstraße",11.6153945046,48.0329183343,"de:9184:2329"
"1004203","Aich (Oberpframmern), Aich",11.814224988800001,48.0391577582,"de:9175:4203"
"1004218","Kreuz (Glonn), Kreuz, Abzw.",11.8444987391,47.9877953167,"de:9175:4218"
"1002198","Ottobrunn, Elbeweg",11.6593338635,48.059614705,"de:9184:2198"
"1002242","Ottobrunn, Hubertusstraße",11.663736338800001,48.0613544052,"de:9184:2242"
"1002343","Potzham, Hochstraße",11.6191413599,48.037598452000005,"de:9184:2343"
"1002201","Ottobrunn, Phönix-Bad",11.6515307489,48.056902283300005,"de:9184:2201"
"1002325","Potzham, Bergstraße",11.6157166307,48.0346821477,"de:9184:2325"
"1002402","Bergham (Taufkirchen), Rosenstraße",11.6261130681,48.043377185199994,"de:9184:2402"
"1002407","Winning, Aurikelstr.",11.629083531800001,48.046210769300004,"de:9184:2407"
"1002342","Bergham (Taufkirchen), Im Mitterfeld",11.621557795200001,48.0409070567,"de:9184:2342"
"1002282","Ottobrunn, Kleiststraße",11.6862885972,48.068055281999996,"de:9184:2282"
"1002440","Potzham, Tölzer Straße",11.6139802347,48.035566697300006,"de:9184:2440"
"1002433","Altkirchen (Bayern), Eichenhausener Str",11.594348879800002,47.9602225989,"de:9184:2433"
"1002202","Ottobrunn, Isarweg",11.6532160974,48.05964140220001,"de:9184:2202"
"1004226","Schlacht (Kr EBE), Schlacht",11.844353955999999,48.004820001999995,"de:9175:4226"
"1002427","Kleineichenhausen, Kleineichenhausen",11.596605501500001,47.954141814799996,"de:9184:2427"
"1002401","Bergham (Taufkirchen), Edelweißstraße",11.6226508065,48.0436626704,"de:9184:2401"
"1002327","Potzham, Wettersteinstraße",11.6080282095,48.0317872677,"de:9184:2327"
"1002409","Winning, Riegerweg/Altersheim",11.6263547318,48.047056327,"de:9184:2409"
"1002285","Putzbrunn, Waldpark",11.6937590789,48.0708813671,"de:9184:2285"
"1002434","Altkirchen (Bayern), Altkirchen",11.5916563582,47.960365963899996,"de:9184:2434"
"1002187","Ottobrunn, Am Brunneck/Uhlandstraße",11.6769472802,48.068443146700005,"de:9184:2187"
"1002429","Großeichenhausen, Großeichenhausen",11.597733847199999,47.9484797433,"de:9184:2429"
"1002204","Ottobrunn, Parkfriedhof",11.6530273973,48.061772295500006,"de:9184:2204"
"1002184","Ottobrunn, Lenbachallee",11.6832016139,48.070385136700004,"de:9184:2184"
"1002186","Ottobrunn, Am Brunneck",11.6756834109,48.0688532936,"de:9184:2186"
"1002391","Bergham (Taufkirchen), Riegerweg",11.6244723257,48.047697733899994,"de:9184:2391"
"1002400","Taufkirchen (b München), Kriegerdenkmal",11.6186135418,48.0437123148,"de:9184:2400"
"1002238","Ottobrunn, Ortsmitte",11.6608936919,48.065204279300005,"de:9184:2238"
"1002384","Ottobrunn, Mozartstraße",11.6690757455,48.0676833194,"de:9184:2384"
"1002239","Ottobrunn, Lindenstraße",11.6569303889,48.0639694177,"de:9184:2239"
"1002382","Ottobrunn, Rathausstraße",11.6636245504,48.0661656036,"de:9184:2382"
"1002182","Ottobrunn, Waldstraße",11.6893898656,48.0722366721,"de:9184:2182"
"1002174","Putzbrunn, Wernher-von-Braun-Straße",11.7202555465,48.074366319899994,"de:9184:2174"
"1002380","Ottobrunn, Daimlerstraße",11.6532197133,48.0631039143,"de:9184:2380"
"1002279","Neubiberg, Realschule",11.6816002366,48.0711271784,"de:9184:2279"
"1002442","Furth (b München), Am Gries",11.602355986800001,48.0300950012,"de:9184:2442"
"1002405","Winning, Zacherlweg",11.6249426528,48.0494260261,"de:9184:2405"
"1002289","Putzbrunn, Hohenbrunner Straße",11.7149523035,48.0748209746,"de:9184:2289"
"1002180","Putzbrunn, Birkenweg",11.6940520607,48.0735262318,"de:9184:2180"
"1002443","Oberhaching, Lanzenhaarer Straße",11.598112849000001,48.025709384,"de:9184:2443"
"1004205","Wolfersberg, Wolfersberg",11.816178943499999,48.047839642899994,"de:9175:4205"
"1004215","Esterndorf (Oberpframmern), Esterndorf",11.838386979000001,48.0274036329,"de:9175:4215"
"1002397","Winning, Hinterm Hofanger",11.6259463548,48.0515967336,"de:9184:2397"
"1002178","Putzbrunn, Eichenstraße",11.6997063314,48.075025044099995,"de:9184:2178"
"1009251","Oberhaching, Auf der Wies",11.600538376100001,48.0310690033,"de:9184:9251"
"1002176","Putzbrunn, Kirchenzentrum",11.7155887741,48.0762165381,"de:9184:2176"
"1002206","Ottobrunn, Siemensstraße",11.6506355635,48.064310222500005,"de:9184:2206"
"1002448","Deisenhofen (b München), Hubertusplatz",11.591354826,48.0190303313,"de:9184:2448"
"1009260","Oberhaching, Kirchplatz",11.5962703233,48.0264493994,"de:9184:9260"
"1002172","Putzbrunn, Michael-Haslbeck-Straße",11.720713326699999,48.0765708341,"de:9184:2172"
"1002446","Oberhaching, Tisinstraße",11.593457532899999,48.022689174199996,"de:9184:2446"
"1002278","Neubiberg, Cramer-Klett-Straße",11.6770570267,48.0723556242,"de:9184:2278"
"1002235","Ottobrunn, Jahnstraße",11.6590260233,48.0676449939,"de:9184:2235"
"1009252","Oberhaching, Hahilingastraße",11.596900614599999,48.028151394,"de:9184:9252"
"1002287","Putzbrunn, Brennerei",11.7120415678,48.0769901544,"de:9184:2287"
"1002398","Taufkirchen (b München), Rathaus",11.615188409200002,48.0462101088,"de:9184:2398"
"1002444","Oberhaching, Kybergstraße",11.594386870800001,48.025561404600005,"de:9184:2444"
"1002256","Putzbrunn, Neubiberger Straße",11.692764041599998,48.075744192500004,"de:9184:2256"
"1002251","Neubiberg, Anzengruberstraße",11.6901613678,48.0756113085,"de:9184:2251"
"1004220","Balkham, Balkham",11.8569655619,47.9850684017,"de:9175:4220"
"1002254","Neubiberg, Lena-Christ-Straße",11.6859376605,48.0750242803,"de:9184:2254"
"1002375","Unterhaching, Mühlweg",11.6261953209,48.0542686198,"de:9184:2375"
"1002252","Neubiberg, Wotanstraße",11.679608433399999,48.0742333993,"de:9184:2252"
"1002432","Gumpertshausen, Gumpertshausen",11.5823172367,47.9644695175,"de:9184:2432"
"1002438","Taufkirchen (b München), Bahnhofstraße",11.616573336799998,48.049362469100004,"de:9184:2438"
"1002268","Möschenfeld, Möschenfeld Abzw.",11.7730347668,48.0713077245,"de:9184:2268"
"1002295","Putzbrunn, Grasbrunner Straße",11.7198960953,48.0787902381,"de:9184:2295"
"1002395","Taufkirchen (b München), Keltenring",11.611807923399999,48.0462886893,"de:9184:2395"
"1009268","Deisenhofen (b München), Ludwig-Thoma-Straße",11.5872514342,48.0192045478,"de:9184:9268"
"1002248","Neubiberg, Schulzstraße",11.676008617199999,48.0747719266,"de:9184:2248"
"1002275","Neubiberg, Walkürenstraße",11.677012380099999,48.0752064346,"de:9184:2275"
"1002365","Unterhaching, Kirchlandweg",11.6322979203,48.06006211969999,"de:9184:2365"
"1002439","Taufkirchen (b München), Tegernseer Landstraße",11.6202591669,48.053394798999996,"de:9184:2439"
"1002345","Taufkirchen (b München), Oberweg",11.615382180900001,48.0508154459,"de:9184:2345"
"1002253","Neubiberg, Barbarossastraße",11.671672076399998,48.075083404900006,"de:9184:2253"
"1002266","Grasbrunn, Grasbrunn",11.7436908749,48.07882766939999,"de:9184:2266"
"1002777","Oberhaching, Schlagerberg",11.5895292057,48.026110771000006,"de:09184:2777"
"1002288","Putzbrunn, Waldkolonie",11.7019194533,48.0798782809,"de:9184:2288"
"1002221","Grasbrunn, Lehnerstraße",11.7487796851,48.0783442406,"de:9184:2221"
"1002236","Ottobrunn, Bahnhofstraße",11.656198786500001,48.0710900864,"de:9184:2236"
