"stop_id","stop_name","stop_lon","stop_lat","stop_code"
"22005147","Roder, Forstweg",6.5312,50.4644,"de:5366:77934"
"22005652","Hellenthal, Kehr",6.40848,50.3352,"de:5366:78741"
"22007059","Dahlem (Eifel), Kronenburgerhütte",6.47688,50.3596,"de:5366:79242"
"22006522","Dahlem (Eifel), Kronenburg",6.47926,50.36181,"de:5366:79235"
"22009685","Wildbergerhütte, Wildbergerhütte/Crottorfer Str.",7.74748,50.93948,"de:5374:47964"
"22006473","Dahlem (Eifel), Fuchskaul",6.5344,50.37067,"de:5366:79131"
"22006459","Alendorf, Alendorf",6.63673,50.36854,"de:5366:79634"
"22006523","Dahlem (Eifel), Steinebrück",6.45102,50.36346,"de:5366:79255"
"22009711","Wildbergerhütte, Wildbergerhütte/Siegener Str",7.74382,50.94084,"de:5374:47965"
"22006520","Baasem, Baasem Kirche",6.49442,50.37141,"de:5366:79237"
"22006035","Hellenthal, Ardenner Center",6.38592,50.35282,"de:5366:78733"
"22006521","Baasem, Leystr.",6.49739,50.37364,"de:5366:79236"
"22009637","Baasem, Auf der Hardt",6.49601,50.37409,"de:5366:79237"
"22006524","Frauenkron, Frauenkron Abzw.",6.44699,50.37235,"de:5366:79234"
"22006525","Dahlem (Eifel), Frauenkron",6.43632,50.37216,"de:5366:79233"
"22007734","Wiehl, Wiehl Friedhof",7.54523,50.95141,"de:5374:45562"
"22006449","Dollendorf, Antoniusstr.",6.70396,50.36983,"de:5366:79931"
"22006450","Dollendorf, Dollendorf Schule",6.70723,50.37121,"de:5366:79932"
"22006534","Hellenthal, Losheim Kirche",6.37257,50.36054,"de:5366:78732"
"22006448","Dollendorf, Bünder",6.70736,50.37475,"de:5366:79933"
"22008441","Wiehl, Parsifalstr.",7.54319,50.95311,"de:5374:45564"
"22007735","Wiehl, Eichhardtstr.",7.5431,50.95505,"de:5374:45563"
"22006443","Uedelhoven, Uedelhoven",6.75885,50.37208,"de:5366:79833"
"22006446","Ahrdorf, Ahrdorf Abzw. Bahnhof",6.78877,50.37007,"de:5366:79832"
"22006444","Ahrdorf, Ahrdorf Ort",6.77766,50.37402,"de:5366:79831"
"22009044","Bomig, Bomig West",7.52771,50.96918,"de:5374:45756"
"22007999","Reichshof, Spielfeld",7.612,50.95005,"de:5374:45647"
"22006543","Harperscheid, Harperscheid Kirche",6.41234,50.52063,"de:5366:78338"
"22006541","Schöneseiffen, Schöneseiffen",6.3943,50.51835,"de:5366:78337"
"22008975","Schöneseiffen, Gemeindehaus",6.39208,50.51889,"de:5366:78343"
"22006539","Bronsfeld, Bronsfeld Abzw.",6.41994,50.51151,"de:5366:78340"
"22008828","Bomig, Max-Planck-Str. Abzw.",7.54181,50.96924,"de:5374:45752"
"22008976","Bronsfeld, Thomscheiderhof",6.42508,50.50947,"de:5366:78344"
"22006546","Berescheid, Berescheid",6.41388,50.53258,"de:5366:78334"
"22006544","Schöneseiffen, Katzenbroich",6.38884,50.53081,"de:5366:78336"
"22007733","Dieringhausen, Friedhofstr.",7.53103,50.98488,"de:5374:48540"
"22006537","Hellenthal, Wildgehege",6.43455,50.50529,"de:5366:78432"
"22007040","Bronsfeld, REWE",6.44172,50.51857,"de:5366:78244"
"22007941","Sinspert, Heerschlade",7.67777,50.9675,"de:5374:47553"
"22007953","Eckenhagen, Lepperhof Abzw.",7.70047,50.97783,"de:5374:47540"
"22006502","Dreiborn, Dreiborn Feuerwehr",6.40538,50.54267,"de:5366:78333"
"22008979","Ettelscheid, Weiermühle",6.44521,50.52747,"de:5366:78348"
"22006591","Hellenthal, Stockowerk",6.43049,50.49303,"de:5366:78434"
"22006540","Bronsfeld, Unterdorf",6.44908,50.51985,"de:5366:78243"
"22008826","Alferzhagen, Merkausen",7.5892,50.99005,"de:5374:45765"
"22008980","Ettelscheid, Ettelscheid Abzw.",6.44662,50.52757,"de:5366:78349"
"22008331","Strombach, In den Wiesen Abzw.",7.53971,51.02473,"de:5374:48435"
"22009236","Rospe, Rospe",7.55717,51.01258,"de:5374:48467"
"22008297","Niederseßmar, Auf dem Bühlerhahn Abzw.",7.56427,51.01,"de:5374:48141"
"22005690","Ettelscheid, Ettelscheid",6.44528,50.53185,"de:5366:78261"
"22006538","Hellenthal, Cafe Dressel",6.4345,50.49205,"de:5366:78433"
"22006501","Dreiborn, Dreiborn Kirche",6.41,50.54555,"de:5366:78332"
"22008977","Dreiborn, Kirchstr.",6.41243,50.54619,"de:5366:78345"
"22006500","Dreiborn, Gemeindehaus",6.4143,50.54631,"de:5366:78331"
"22008298","Niederseßmar, Madame-Curie-Str. Abzw.",7.56407,51.01156,"de:5374:48140"
"22009240","Eckenhagen, Allenbacher Str.",7.64248,50.99079,"de:5374:47545"
"22008296","Niederseßmar, Im Lütgenthal Abzw.",7.56933,51.01165,"de:5374:48139"
"22006536","Hellenthal, Hellenthal Kirche",6.43867,50.49071,"de:5366:78431"
"22006590","Hellenthal, Hellenthal Busbf",6.44244,50.49027,"de:5366:78441"
"22006548","Hellenthal, Hellenthal Hauptschule",6.44121,50.489,"de:5366:78451"
"22007042","Hellenthal, Trierer Str.",6.43344,50.48557,"de:5366:78435"
"22006515","Hellenthal, Schöller Werk",6.44724,50.48894,"de:5366:78442"
"22006511","Schleiden (Eifel), Oberhausen",6.46536,50.51012,"de:5366:78242"
"22006512","Schleiden (Eifel), Wiesgen",6.467,50.517,"de:5366:78241"
"22007627","Gummersbach, Gummersbach Kreiskrankenhaus",7.56965,51.01563,"de:5374:48135"
"22009085","Hellenthal, Gewerbegebiet Kröpsch",6.4549,50.4912,"de:5366:78438"
"22007041","Hellenthal, Blumenthal",6.46138,50.49689,"de:5366:78445"
"22006513","Hellenthal, Altes Rathaus",6.45797,50.49284,"de:5366:78444"
"22006567","Hellenthal, Jugendherberge Platiß",6.42337,50.47663,"de:5366:78436"
"22007628","Gummersbach, Kalversiefen Abzw",7.56861,51.0202,"de:5374:48136"
"22005695","Schleiden (Eifel), Scheuern",6.46484,50.53289,"de:5366:78293"
"22006510","Hellenthal, Reifferscheider Str.",6.46358,50.49691,"de:5366:78446"
"22005696","Schleiden (Eifel), Scheurener Str.",6.46869,50.5319,"de:5366:78292"
"22006404","Schleiden (Eifel), Schleiden Busbf",6.47266,50.5261,"de:5366:78231"
"22006509","Dommersbach, Dommersbach",6.46701,50.49367,"de:5366:78447"
"22007058","Schleiden (Eifel), Schleiden Schulzentrum",6.47481,50.52726,"de:5366:78263"
"22006403","Schleiden (Eifel), Schleiden Gymnasium",6.47505,50.52739,"de:5366:78232"
"22009113","Marienheide, Däinghausen",7.53097,51.06741,"de:5374:49737"
"22007508","Gummersbach, EKZ/Baumhof",7.56319,51.02715,"de:5374:48147"
"22008843","Schleiden (Eifel), Kinoplatz",6.47684,50.52875,"de:5366:78245"
"22006401","Schleiden (Eifel), Schleiden Brücke",6.47835,50.52947,"de:5366:78235"
"22009106","Marienheide, Griemeringhausen,Kaserne",7.53471,51.09252,"de:5374:49355"
"22005896","Schleiden (Eifel), Poensgenstr.",6.47893,50.52975,"de:5366:78290"
"22007507","Gummersbach, EKZ/Hebekeuser",7.56408,51.02764,"de:5374:48146"
"22006496","Schleiden (Eifel), Herhahn Post",6.45078,50.55683,"de:5366:78253"
"22006485","Schleiden (Eifel), Höddelbusch",6.47937,50.53417,"de:5366:78233"
"22006498","Schleiden (Eifel), Morsbach",6.4444,50.5599,"de:5366:78254"
"22006508","Kammerwald, Kammerwald",6.46972,50.4852,"de:5366:78531"
"22006497","Herhahn, Römerstr.",6.45635,50.55598,"de:5366:78252"
"22006547","Schleiden (Eifel), Hühnerbusch",6.46365,50.55199,"de:5366:78251"
"22008978","Schleiden (Eifel), Hähnchen",6.4832,50.53265,"de:5366:78250"
"22005691","Kerperscheid, Kerperscheid",6.48765,50.51218,"de:5366:78259"
"22006499","Schleiden (Eifel), Pfarrer-Grundmann-Str.",6.44689,50.56201,"de:5366:78255"
"22009111","Marienheide, Schöneborn Kindergarten",7.54051,51.06226,"de:5374:49735"
"22006402","Schleiden (Eifel), Schleiden Krankenhaus",6.48604,50.53287,"de:5366:78234"
"22009237","Gummersbach, Mühlenseßmar/Talstr.",7.57567,51.0248,"de:5374:48134"
"22006400","Schleiden (Eifel), Broich Höhe",6.49283,50.52321,"de:5366:78236"
"22008404","Schleiden (Eifel), Vogelsang I P Walberhof",6.43654,50.56811,"de:5366:78277"
"22008567","Schleiden (Eifel), Walberhof (B264)",6.43655,50.56812,"de:5366:78272"
"22009683","Bergneustadt, Othestr.",7.65149,51.01415,"de:5374:47145"
"22009238","Bernberg, Hesselbach Abzw.",7.60539,51.02406,"de:5374:48842"
"22006506","Hellenthal, Reifferscheid",6.4703,50.47599,"de:5366:78532"
"22006486","Olef, Olef",6.48556,50.54337,"de:5366:78136"
"22006491","Schleiden (Eifel), Kerperscheid Abzw.",6.49666,50.51369,"de:5366:78238"
"22008568","Schleiden (Eifel), Sauermühle",6.40731,50.57486,"de:5366:78271"
"22006568","Hollerath, Hollerath Post",6.40428,50.45651,"de:5366:78631"
"22009239","Dümmlinghausen, Dümmlinghausen Hagener Str.",7.61399,51.02401,"de:5374:48757"
"22007399","Hellenthal, Hahnenberg Abzw.",6.45084,50.46332,"de:5366:78548"
"22006569","Hollerath, Hollerath Parkplatz",6.39794,50.45601,"de:5366:78632"
"22006570","Hollerath, Hollerather Hof",6.39512,50.456,"de:5366:78633"
"22006558","Hellenthal, Liebfrauenhof",6.47565,50.47385,"de:5366:78534"
"22005698","Schleiden (Eifel), Kerperscheider Weg",6.50188,50.52298,"de:5366:78257"
"22006504","Hellenthal, Wollenberg Abzw.",6.49009,50.48553,"de:5366:78535"
"22008524","Hollerath, Luxemburger Str.",6.39017,50.45509,"de:5366:78644"
"22006492","Kall, Eichen Abzw.",6.50161,50.50424,"de:5366:77632"
"22009108","Holzwipper, Lienkamp Abzw.",7.57143,51.09344,"de:5374:49248"
"22006399","Schleiden (Eifel), Broich",6.50413,50.52381,"de:5366:78237"
"22009107","Holzwipper, Lienkamp",7.57785,51.09534,"de:5374:49247"
"22006571","Hollerath, Zollstelle",6.38409,50.45457,"de:5366:78634"
"22006549","Hellenthal, Wiesen Abzw.",6.47168,50.46849,"de:5366:78541"
"22006503","Felser, Felser Abzw.",6.49743,50.4897,"de:5366:78536"
"22007323","Olef, Olef Brücke",6.49027,50.55095,"de:5366:78135"
"22006550","Hellenthal, Wiesen",6.47193,50.46728,"de:5366:78542"
"22007384","Pernze, Kreuzstr. Abzw.",7.70822,51.04094,"de:5374:47337"
"22009250","Bergneustadt, Nistenbergstr.",7.66872,51.02985,"de:5374:47170"
"22008280","Holzwipper, Wilbringhausen",7.58599,51.09864,"de:5374:49246"
"22007940","Lieberhausen, Rosenthaler Höhe",7.66684,51.06037,"de:5374:48956"
"22005697","Wintzen, Wintzen",6.5082,50.53681,"de:5366:78260"
"22008203","Nümbrecht, Distelkamp",7.56912,50.91081,"de:5374:45451"
"22009197","Schleiden (Eifel), Hohenfried",6.48775,50.56152,"de:5366:78146"
"22007264","Altennümbrecht, Geringhausen Abzw.",7.5394,50.89032,"de:5374:45350"
"22007958","Herchen, In der Au",7.5087,50.78048,"de:5382:59762"
"22006559","Hescheld, Wahld Abzw.",6.46565,50.45728,"de:5366:78544"
"22006573","Hellenthal, Buchenweg",6.39935,50.44591,"de:5366:78636"
"22006572","Hellenthal, Ramscheid Abzw.",6.37898,50.44779,"de:5366:78635"
"22008074","Hescheld, Hescheld",6.46025,50.45368,"de:5366:78883"
"22007739","Waldbröl, Karl-Benz-Str. (Industriegebiet)",7.65081,50.88738,"de:5374:46167"
"22006487","Schleiden (Eifel), Nierfeld",6.49663,50.55868,"de:5366:78134"
"22008405","Schleiden (Eifel), Vogelsang I P Kulturkino",6.44907,50.58253,"de:5366:78278"
"22007738","Waldbröl, Friedrich-Krupp-Str. (Industriegebiet)",7.64446,50.88706,"de:5374:46168"
"22007737","Waldbröl, Huwil (Industiegebiet)",7.64001,50.88547,"de:5374:46166"
"22007449","Herchen, Herchen Gymnasium",7.51873,50.77793,"de:5382:59785"
"22006481","Sistig, Sistig Kirche",6.51712,50.49147,"de:5366:77631"
"22006493","Sistig, Miewes",6.51901,50.49385,"de:5366:77633"
"22008406","Schleiden (Eifel), Vogelsang I P Forum",6.44886,50.58582,"de:5366:78279"
"22005683","Schleiden (Eifel), Tränkelbachstr.",6.49897,50.56243,"de:5366:78197"
"22009242","Morsbach (Sieg), Ellinger Weg",7.72504,50.87356,"de:5374:46835"
"22006398","Golbach, Golbach",6.52365,50.52675,"de:5366:77532"
"22006551","Manscheid, Manscheid",6.4873,50.46023,"de:5366:78543"
"22006560","Sieberath, Sieberath",6.46741,50.4505,"de:5366:78545"
"22007065","Giescheid, Giescheid",6.4263,50.44061,"de:5366:78885"
"22007440","Morsbach (Sieg), Schlechtingen",7.74636,50.86093,"de:5374:46878"
"22006987","Morsbach (Sieg), Niederwarnsbach",7.7381,50.86379,"de:5374:46877"
"22007882","Morsbach (Sieg), Stentenbach (Rundverkehr)",7.73448,50.86333,"de:5374:46861"
"22006488","Schleiden (Eifel), Schleidener Str.",6.49945,50.56594,"de:5366:78133"
"22008760","Waldbröl, Niederbladersbach",7.55692,50.85014,"de:5374:46244"
"22008128","Leuscheid, Alser Weg",7.55826,50.7626,"de:5382:59772"
"22009109","Morsbach (Sieg), Berghof",7.66878,50.86708,"de:5374:46654"
"22009470","Herfen, Herfen Abzw.",7.61271,50.86085,"de:5374:46354"
"22008901","Leuscheid, Leuscheid Kirche",7.56184,50.77001,"de:5382:59736"
"22006397","Golbach, Untergolbach",6.52927,50.52747,"de:5366:77531"
"22006574","Hellenthal, Ramscheider Höhe",6.37863,50.43862,"de:5366:78637"
"22006561","Wolfert, Kradenhövel",6.47193,50.44814,"de:5366:78845"
"22009243","Morsbach (Sieg), Wissener Str",7.70744,50.85345,"de:5374:46846"
"22008014","Windeck, Am Sonnenhang",7.58891,50.81185,"de:5382:59858"
"22006552","Hellenthal, Winten",6.49135,50.45504,"de:5366:78936"
"22006489","Schleiden (Eifel), Gemünd Kirche",6.49832,50.57243,"de:5366:78132"
"22009548","Wolfert, Wittscheid Ort",6.4617,50.44222,"de:5366:78840"
"22006563","Wolfert, Wittscheid",6.45984,50.44148,"de:5366:78843"
"22008969","Golbach, Untergolbach Kapelle",6.53364,50.528,"de:5366:77535"
"22007973","Geilhausen, Blütenweg",7.63972,50.77085,"de:5382:59934"
"22006562","Wolfert, Unterwolfert",6.46664,50.44322,"de:5366:78844"
"22008070","Wolfert, Zehnstelle/Sägewerk",6.45702,50.43966,"de:5366:78882"
"22007047","Schleiden (Eifel), Gemünd Mitte",6.50282,50.57119,"de:5366:78137"
"22008965","Wolfert, Oberwolfert",6.46761,50.44206,"de:5366:78848"
"22006553","Hellenthal, Heiden Abzw.",6.49219,50.45267,"de:5366:78935"
"22006518","Benenberg, Benenberg",6.51659,50.46965,"de:5366:77733"
"22008215","Geilhausen, Geilhausen Bf",7.63868,50.77147,"de:5382:59904"
"22006532","Rescheid, Rescheid",6.4342,50.43322,"de:5366:78831"
"22006494","Kall, Köpfchen",6.5387,50.50878,"de:5366:77432"
"22008964","Wolfert, Oberwolfert Kirche",6.46474,50.43978,"de:5366:78847"
"22007758","Dahlerau, Herkingrade",7.32386,51.21919,"de:5374:41948"
"22006480","Krekel, Wildenburg Abzw.",6.52222,50.4735,"de:5366:77731"
"22008569","Schleiden (Eifel), Dürener Str.",6.50033,50.57646,"de:5366:78150"
"22008090","Hellenthal, Kamberg",6.41888,50.42981,"de:5366:78886"
"22006575","Miescheid, Miescheid Abzw.",6.37586,50.43084,"de:5366:78638"
"22007056","Kall, Diefenbach",6.53813,50.49008,"de:5366:77634"
"22006482","Kall, Rinnen Post",6.54424,50.51334,"de:5366:77431"
"22006587","Schleiden (Eifel), Mauel",6.5154,50.56961,"de:5366:78141"
"22006565","Rescheid, Grube Wohlfahrt",6.43862,50.43033,"de:5366:78841"
"22006564","Wolfert, Besucherbergwerk",6.45309,50.43272,"de:5366:78842"
"22006530","Rescheid, Rescheid Kreuzung",6.42975,50.42868,"de:5366:78832"
"22007057","Steinfelderheistert, Steinfelderheistert",6.54164,50.49528,"de:5366:77635"
"22008091","Schwalenbach, Schwalenbach",6.42364,50.42763,"de:5366:78884"
"22008963","Miescheid, Miescheid Ort",6.38298,50.42783,"de:5366:78650"
"22006554","Oberschömbach, Unterschömbach",6.49301,50.44532,"de:5366:78934"
"22007717","Dahlerau, Grunewald",7.32013,51.22212,"de:5374:41943"
"22008113","Gillenberg, Gillenberg",6.54402,50.49094,"de:5366:77831"
"22007690","Dahlerau, Wuppermarkt",7.30567,51.21926,"de:5374:41936"
"22006479","Krekel, Krekel",6.53227,50.4708,"de:5366:77732"
"22008126","Wolfert, Oberdalmerscheid",6.47263,50.43386,"de:5366:78887"
"22006557","Hellenthal, Hecken",6.51284,50.45331,"de:5366:78931"
"22007192","Dahlerau, Dahlerau Bf",7.31062,51.22155,"de:5374:41941"
"22007716","Dahlerau, Dahlerau Post",7.30991,51.22168,"de:5374:41940"
"22006556","Hellenthal, Kreuzberg",6.50344,50.44651,"de:5366:78932"
"22007696","Dahlerau, Dahlerau Sparkasse",7.30791,51.22196,"de:5374:41937"
"22006495","Kall, Wilhelmstal",6.55326,50.51818,"de:5366:77433"
"22008962","Hellenthal, Schnorrenberg Siedlung",6.43722,50.4241,"de:5366:78846"
"22008572","Wolfgarten, Wolfgarten Ort",6.49611,50.59078,"de:5366:78151"
"22006519","Hammerhütte, Hammerhütte",6.51276,50.36154,"de:5366:79238"
"22006586","Anstois, Anstois",6.54199,50.55469,"de:5366:77133"
"22006529","Hellenthal, Schnorrenberg",6.44115,50.42348,"de:5366:78833"
"22006396","Kall, Arbeitsamt",6.55105,50.53966,"de:5366:77131"
"22005687","Wolfgarten, Wolfgarten Kreuzung",6.50635,50.58665,"de:5366:78153"
"22008970","Sötenich, Sötenich Post",6.55588,50.52447,"de:5366:77435"
"22008330","Dahlerau, Vogelsmühle Kirche",7.3079,51.22239,"de:5374:41951"
"22007745","Dahlerau, Remlingrade",7.30721,51.24042,"de:5374:41944"
"22006555","Oberschömbach, Oberschömbach",6.4978,50.43956,"de:5366:78933"
"22005686","Wolfgarten, Forsthaus",6.50225,50.59022,"de:5366:78152"
"22006566","Udenbreth, Unterdorf",6.39162,50.41984,"de:5366:78642"
"22006483","Sötenich, Sötenich",6.55717,50.52566,"de:5366:77434"
"22009832","Steinenbrück, Talstr.",7.22724,50.93959,"de:5378:37865"
"22007061","Kall, Kall Hauptschule",6.55133,50.54493,"de:5366:77181"
"22005659","Sötenich, Elzenberg",6.55744,50.52664,"de:5366:77437"
"22008667","Hellenthal, Schnorrenberg Abzw.",6.43664,50.41966,"de:5366:78834"
"22006346","Kall, Kall Bf",6.55725,50.53851,"de:5366:77101"
"22009553","Untereschbach, Polizei",7.21279,50.9463,"de:5378:37446"
"22009552","Kall, Kall Busbf/Trierer Str.",6.55852,50.53929,"de:5366:77171"
"22006585","Kall, Gemünder Str.",6.55802,50.54192,"de:5366:77132"
"22006593","Udenbreth, Udenbreth Post",6.38827,50.41633,"de:5366:78641"
"22006387","Kall, Wahlen Kirche",6.5567,50.4861,"de:5366:77833"
"22006386","Kall, Marmagener Str.",6.55977,50.48517,"de:5366:77834"
"22007609","Bensberg, Am Bockenberg",7.18882,50.95712,"de:5378:31553"
"22009831","Steinenbrück, Steinenbrück Schule",7.22687,50.9414,"de:5378:37864"
"22007068","Paulushof, Paulushof",6.53152,50.45119,"de:5366:78981"
"22008523","Udenbreth, Neuhof I",6.40792,50.41287,"de:5366:78643"
"22008573","Wolfgarten, Haus Kermeter",6.46886,50.61062,"de:5366:78276"
"22006592","Udenbreth, Oberdorf",6.38901,50.41305,"de:5366:78640"
"22006576","Udenbreth, Am Weißer Stein",6.3806,50.41231,"de:5366:78639"
"22005991","Steinenbrück, Südhang",7.23615,50.93921,"de:5378:37351"
"22006339","Mechernich, Voißel",6.56062,50.57139,"de:5366:75543"
"22005993","Steinenbrück, Olper Str. / ALDI",7.22705,50.94218,"de:5378:37360"
"22009162","Dahlem (Eifel), Am Hassel",6.45955,50.39586,"de:5366:79246"
"22007052","Schmidtheim, Astrid-Lindgren-Schule",6.55656,50.42001,"de:5366:79342"
"22006526","Dahlem (Eifel), Berk",6.46033,50.38408,"de:5366:79232"
"22009828","Untereschbach, HIT Markt",7.21538,50.94737,"de:5378:37445"
"22009589","Schmidtheim, Schmidtheim Bf",6.55188,50.41319,"de:5366:79301"
"22009132","Steinenbrück, Altenbrück",7.22128,50.94515,"de:5378:37347"
"22005992","Steinenbrück, Im Reutersberg",7.23484,50.94185,"de:5378:37361"
"22006579","Schmidtheim, Schmidtheim Dorfplatz",6.56014,50.41652,"de:5366:79331"
"22006533","Hellenthal, Losheimergraben",6.34456,50.3794,"de:5366:78731"
"22006470","Schmidtheim, Gartenstr.",6.56019,50.4129,"de:5366:79332"
"22009638","Dahlem (Eifel), Schmidtheimer Str.",6.55213,50.39604,"de:5366:79287"
"22006471","Dahlem (Eifel), Alte Schule",6.54515,50.38733,"de:5366:79132"
"22007053","Dahlem (Eifel), Dahlem Schule",6.54986,50.38685,"de:5366:79142"
"22006472","Dahlem (Eifel), Dahlem Bf",6.55069,50.38592,"de:5366:79101"
"22006372","Bouderath, Bouderath Post",6.73268,50.51582,"de:5366:76532"
"22006373","Roderath, Roderath",6.7137,50.50649,"de:5366:76531"
"22006371","Bouderath, Bouderath Kirche",6.73427,50.51881,"de:5366:76533"
"22009825","Overath, Sanddornweg",7.24763,50.93888,"de:5378:37863"
"22006411","Holzmülheim, Erftquelle",6.73025,50.49939,"de:5366:76931"
"22006414","Witscheiderhof, Weissenstein",6.74814,50.51673,"de:5366:73534"
"22006412","Holzmülheim, Holzmülheim Kapelle",6.73536,50.50037,"de:5366:76932"
"22008933","Holzmülheim, Radermacher",6.73314,50.4993,"de:5366:76934"
"22006274","Nettersheim, Unterdorf",6.6924,50.52874,"de:5366:76432"
"22006374","Frohngau, Frohngau",6.70862,50.49488,"de:5366:76732"
"22005990","Overath, Föhrenweg",7.24327,50.94045,"de:5378:37362"
"22006273","Nettersheim, Pesch Mitte",6.68861,50.5319,"de:5366:76431"
"22006409","Nettersheim, Buirhaus",6.72675,50.48956,"de:5366:76832"
"22006370","Bad Münstereifel, Kolvenbach",6.75088,50.53363,"de:5366:73533"
"22005994","Steinenbrück, Forstweg",7.23402,50.94387,"de:5378:37350"
"22006410","Nettersheim, Buir",6.72919,50.48784,"de:5366:76833"
"22005989","Overath, Neuenhauser Str.",7.24825,50.93995,"de:5378:37363"
"22009721","Overath, Netto-Markt",7.25611,50.93829,"de:5378:37255"
"22005723","Nöthen, Hohner Weg",6.72205,50.54639,"de:5366:73437"
"22005973","Bad Münstereifel, Tempelanlage",6.71087,50.54705,"de:5366:73438"
"22006276","Nöthen, Nöthen",6.72573,50.54845,"de:5366:73432"
"22005727","Bad Münstereifel, Wartehalle",6.76477,50.50007,"de:5366:73000"
"22006275","Bad Münstereifel, Gilsdorf",6.71327,50.54892,"de:5366:73431"
"22006377","Engelgau, Auf der Lüh",6.67497,50.49724,"de:5366:76631"
"22006817","Nöthen, Hohn Abzw.",6.73725,50.54746,"de:5366:73434"
"22006376","Engelgau, Vereinshaus",6.67802,50.49348,"de:5366:76632"
"22006816","Bad Münstereifel, Nöthener Tannen",6.74608,50.54714,"de:5366:73433"
"22006375","Nettersheim, Birkenheck",6.69087,50.48433,"de:5366:76731"
"22006102","Bad Münstereifel, Eicherscheid",6.76959,50.53377,"de:5366:73531"
"22005722","Nöthen, Nöthener Mühle",6.72085,50.55327,"de:5366:73439"
"22007303","Bad Münstereifel, Dorfstr.",6.77754,50.51105,"de:5366:73631"
"22005817","Zingsheim, Zingsheim Schule",6.65845,50.51028,"de:5366:76342"
"22006818","Bad Münstereifel, Ahrstr.",6.78032,50.51102,"de:5366:73633"
"22006272","Harzheim, Harzheim",6.68649,50.54983,"de:5366:75835"
"22006103","Bad Münstereifel, Oberfollmühle",6.77661,50.53126,"de:5366:73532"
"22007045","Zingsheim, Zingsheim Rathaus",6.65677,50.50904,"de:5366:76331"
"22006378","Zingsheim, Nettersheim Abzw.",6.65682,50.50842,"de:5366:76333"
"22006379","Zingsheim, Zingsheim Post",6.6555,50.51186,"de:5366:76332"
"22006129","Vollmert, Vollmert",6.77595,50.49581,"de:5366:73632"
"22009824","Overath, Hohkeppeler Str.",7.25716,50.94044,"de:5378:37862"
"22006100","Bad Münstereifel, Eifelbad",6.76304,50.54768,"de:5366:73131"
"22008707","Nettersheim, Bundesstr.",6.71259,50.47312,"de:5366:76834"
"22005995","Steinenbrück, Stichermühle",7.23853,50.94671,"de:5378:37359"
"22005726","Bad Münstereifel, Orchheimer Tor",6.76339,50.55177,"de:5366:73142"
"22009628","Bad Münstereifel, Kurhaus",6.75936,50.55376,"de:5366:73140"
"22008988","Nettersheim, Am Stutzwald",6.71917,50.46961,"de:5366:76839"
"22006421","Mechernich, Dreimühlen",6.66087,50.54415,"de:5366:75737"
"22005985","Overath, Mittelbech",7.2458,50.94894,"de:5378:37364"
"22006419","Mechernich, Kreuzweg",6.65065,50.53613,"de:5366:75739"
"22005725","Bad Münstereifel, Klosterplatz",6.76346,50.55507,"de:5366:73197"
"22006420","Mechernich, Kallmuth Abzw.",6.65213,50.54089,"de:5366:75738"
"22006422","Eiserfey, Eiserfey Post",6.65934,50.54952,"de:5366:75736"
"22008021","Rodert, Rodert Ort",6.77795,50.54986,"de:5366:73136"
"22008808","Eiserfey, Am Weinberg",6.66053,50.55112,"de:5366:75740"
"22006247","Mechernich, Holzheim Kapelle",6.69814,50.56543,"de:5366:75833"
"22006391","Zingsheim, Zingsheim Siedlung",6.63734,50.51915,"de:5366:76334"
"22006099","Bad Münstereifel, Bad Münstereifel Bf",6.76448,50.55883,"de:5366:73101"
"22006105","Bad Münstereifel, Mahlberg Abzw.",6.79999,50.50653,"de:5366:73634"
"22006246","Mechernich, Weiler Str.",6.69615,50.5687,"de:5366:75832"
"22006423","Eiserfey, Vollem Abzw.",6.65726,50.55455,"de:5366:75735"
"22008925","Eiserfey, Vollem Insel Abzw.",6.65562,50.5557,"de:5366:75730"
"22007390","Dahlerau, Dahlhausen",7.30477,51.21734,"de:5374:41945"
"22006380","Nettersheim, Nettersheim Kloster",6.63515,50.49512,"de:5366:76131"
"22006106","Bad Münstereifel, Mahlberg",6.80943,50.51027,"de:5366:73635"
"22007698","Dahlerau, Keilbecker Str.",7.31331,51.21796,"de:5374:41939"
"22008587","Mechernich, Urfey",6.63672,50.54299,"de:5366:75741"
"22006135","Bad Münstereifel, Gewerbegebiet/Ärztehaus",6.76336,50.56778,"de:5366:73133"
"22006381","Nettersheim, Nettersheim Bf",6.6304,50.4934,"de:5366:76101"
"22006424","Eiserfey, Bergheim Abzw.",6.65615,50.56159,"de:5366:75734"
"22006417","Blankenheim (Eifel), Lindweiler",6.74799,50.45797,"de:5366:79532"
"22008017","Bad Münstereifel, Auf dem Bruch",6.81429,50.51033,"de:5366:73637"
"22006819","Vussem, Vussem Schule",6.66613,50.56689,"de:5366:75733"
"22009629","Bad Münstereifel, Iversheimer Str.",6.7467,50.57432,"de:5366:73234"
"22008991","Blankenheim (Eifel), Sportplatz Abzw.",6.74282,50.45649,"de:5366:79537"
"22006582","Nettersheim, Steinfelder Str.",6.62732,50.49415,"de:5366:76132"
"22006101","Nettersheim, Nettersheim Bf / Gleis 1",6.62964,50.4905,"de:5366:76136"
"22006107","Bad Münstereifel, Michelsberg",6.81661,50.50975,"de:5366:73636"
"22009484","Blankenheim (Eifel), Rohr Kirche",6.73548,50.45365,"de:5366:79539"
"22006820","Vussem, Vussem Post",6.66959,50.57093,"de:5366:75732"
"22006416","Blankenheim (Eifel), Rohr",6.73329,50.45308,"de:5366:79533"
"22005986","Overath, Weberhöhe",7.27085,50.94491,"de:5378:37238"
"22006407","Blankenheim (Eifel), Mülheimerhaus",6.68067,50.45554,"de:5366:79438"
"22006245","Weiler am Berge, Weiler am Berge",6.70114,50.57987,"de:5366:75831"
"22006392","Zingsheim, Weyer Siedlung",6.61669,50.52439,"de:5366:76335"
"22006108","Bad Münstereifel, Wasserscheide",6.81918,50.50069,"de:5366:73639"
"22005746","Nettersheim, Nettersheim Schule",6.62358,50.49016,"de:5366:76195"
"22006109","Bad Münstereifel, An der Hüh",6.82229,50.50835,"de:5366:73638"
"22007757","Dahlerau, Auf der Brede",7.31952,51.21812,"de:5374:41947"
"22006425","Mechernich, Bergheim Feuerwehr",6.64986,50.56814,"de:5366:75631"
"22006087","Scheuerheck, Hülloch Abzw.",6.81478,50.54933,"de:5366:73840"
"22006111","Bad Münstereifel, Esch Abzw.",6.82395,50.49529,"de:5366:73751"
"22008989","Blankenheim (Eifel), Mülheim Kindergarten",6.68103,50.45003,"de:5366:79447"
"22006426","Mechernich, Lorbach",6.63476,50.56112,"de:5366:75633"
"22006406","Blankenheim (Eifel), Mülheim",6.68376,50.44884,"de:5366:79437"
"22006086","Scheuerheck, Decke Tönnes",6.82435,50.53826,"de:5366:73839"
"22008939","Mechernich, Unterdorf",6.65009,50.57213,"de:5366:75638"
"22006136","Iversheim, Alte Landstr.",6.77035,50.57906,"de:5366:73231"
"22008992","Blankenheim (Eifel), Paulinenhof",6.72964,50.44469,"de:5366:79538"
"22006270","Breitenbenden, Breitenbenden",6.67433,50.58149,"de:5366:75731"
"22006110","Reckerscheid, Siedlung Gödderz",6.83163,50.51108,"de:5366:73739"
"22005662","Kall, Margaretenhof",6.60636,50.52449,"de:5366:77183"
"22007689","Dahlerau, Dahlhausen Brücke",7.30962,51.21531,"de:5374:41935"
"22009385","Kallmuth, Kaller Str.",6.61955,50.55423,"de:5366:75636"
"22008990","Blankenheim (Eifel), Butscheid Siedlung",6.72697,50.44155,"de:5366:79536"
"22006427","Kallmuth, Kallmuth Friedhof",6.62012,50.55619,"de:5366:75634"
"22006137","Iversheim, Iversheim Bf/Mitte",6.76931,50.58321,"de:5366:73201"
"22007309","Nitterscheid, Fichtenweg",6.82719,50.48594,"de:5366:73756"
"22009080","Herkenrath, Am Kierdorfer Feld",7.19018,50.98419,"de:5378:31440"
"22009018","Blankenheim (Eifel), Am Mürel",6.66187,50.44934,"de:5366:79452"
"22006243","Mechernich, Rißdorf",6.71531,50.59269,"de:5366:75931"
"22009025","Iversheim, Arloffer Weg",6.77217,50.58513,"de:5366:73237"
"22006124","Bad Münstereifel, Sasserath Ort",6.82233,50.47533,"de:5366:73741"
"22007389","Dahlerau, Neuenhammer",7.32741,51.21158,"de:5374:41934"
"22006123","Nitterscheid, Nitterscheid Ort",6.83186,50.4833,"de:5366:73755"
"22006393","Urft, Urft Abzw.",6.59403,50.52079,"de:5366:77335"
"22007034","Reckerscheid, Reckerscheid",6.84386,50.50889,"de:5366:73737"
"22009718","Mechernich, Vierwege",6.66326,50.58869,"de:5366:75139"
"22006119","Willerscheid, Willerscheid",6.84327,50.49739,"de:5366:73738"
"22006240","Mechernich, Wachendorf Ort",6.7407,50.59634,"de:5366:75934"
"22008906","Mechernich, Kläranlage",6.67358,50.59236,"de:5366:75166"
"22006239","Mechernich, Wachendorf Kapelle",6.74293,50.59614,"de:5366:75935"
"22006125","Bad Münstereifel, Sasserath Abzw.",6.83108,50.47567,"de:5366:73742"
"22007387","Dahlerau, Uelfebad",7.34477,51.20987,"de:5374:41932"
"22006267","Mechernich, Rathergasse",6.65499,50.58867,"de:5366:75133"
"22006098","Scheuerheck, Scheuerheck Abzw.",6.8487,50.52997,"de:5366:73837"
"22009228","Mechernich, Heerstr.",6.65319,50.58855,"de:5366:75138"
"22005653","Dottel, Dottel",6.59664,50.54811,"de:5366:77334"
"22006583","Nettersheim, Bahrhaus",6.58839,50.49932,"de:5366:76133"
"22006269","Mechernich, Nyonsplatz",6.65631,50.59061,"de:5366:75134"
"22008913","Mechernich, Feytal",6.65854,50.59195,"de:5366:75185"
"22005759","Radevormwald, Eich",7.40768,51.20243,"de:5374:41656"
"22007388","Dahlerau, Luhnermühle",7.33147,51.20832,"de:5374:41933"
"22005966","Vilkerath, Wüsterhöhe",7.27314,50.95608,"de:5378:37164"
"22006394","Kall, Keldenich Post",6.58661,50.53506,"de:5366:77333"
"22006266","Mechernich, Stiftsweg",6.65211,50.59185,"de:5366:75131"
"22007051","Herkenrath, Johanniterstr.",7.19454,50.9891,"de:5378:31439"
"22006120","Bad Münstereifel, Honerath Abzw.",6.84998,50.49022,"de:5366:73752"
"22006097","Scheuerheck, Scheuerheck",6.85327,50.53411,"de:5366:73838"
"22006112","Bad Münstereifel, Soller",6.85573,50.50486,"de:5366:73736"
"22006130","Bad Münstereifel, Neichen Abzw.",6.85583,50.52642,"de:5366:73836"
"22006395","Kall, Keldenich Kirche",6.58449,50.53746,"de:5366:77332"
"22006484","Urft, Urft Bf",6.58017,50.51235,"de:5366:77901"
"22006126","Hilterscheid, Hilterscheid",6.83931,50.47211,"de:5366:73743"
"22007046","Blankenheim (Eifel), Finkenberg Schulzentrum",6.65866,50.43611,"de:5366:79439"
"22005823","Radevormwald, Feldmannshaus",7.40259,51.20183,"de:5374:41655"
"22006139","Bad Münstereifel, Kalkar Ort",6.7739,50.59734,"de:5366:73331"
"22006122","Mutscheid, Mutscheid",6.84677,50.47956,"de:5366:73754"
"22005979","Blankenheim (Eifel), Bücherecke",6.64552,50.43946,"de:5366:79453"
"22006238","Mechernich, Antweiler Kirche",6.74686,50.60336,"de:5366:75936"
"22009865","Radevormwald, Kettlershaus",7.41356,51.19954,"de:5374:41657"
"22006277","Katzvey, Katzvey",6.68287,50.60248,"de:5366:75240"
"22006434","Blankenheim (Eifel), Blankenheim Rathaus",6.65169,50.43686,"de:5366:79436"
"22008890","Strempt, Strempt Post",6.6204,50.58023,"de:5366:75141"
"22006338","Mechernich, Schimmelsweg",6.65308,50.59545,"de:5366:75135"
"22006241","Mechernich, Lessenich Siedlung",6.72701,50.60558,"de:5366:75933"
"22006263","Mechernich, Mechernich Bf",6.64179,50.59141,"de:5366:75101"
"22006121","Bad Münstereifel, Hardtbrücke",6.85127,50.48394,"de:5366:73753"
"22006132","Bad Münstereifel, Haus Hardt",6.86033,50.52238,"de:5366:73834"
"22006436","Blankenheim (Eifel), Reetz",6.69625,50.42583,"de:5366:79543"
"22006584","Urft, Gasthaus Waldesruh",6.5756,50.51104,"de:5366:77932"
"22006433","Blankenheim (Eifel), Dumke",6.64089,50.43918,"de:5366:79434"
"22007000","Mechernich, Dietrich-Bonhoeffer-Str.",6.65326,50.59706,"de:5366:75177"
"22006138","Arloff, Kalkar Abzw.",6.78414,50.59715,"de:5366:73332"
"22009588","Kall, Scheven Bf",6.59229,50.55964,"de:5366:77201"
"22009384","Kalenberg, Westschachtstr.",6.59784,50.56561,"de:5366:75544"
"22006405","Blankenheim (Eifel), Trierer Str.",6.64409,50.43726,"de:5366:79435"
"22007391","Dahlerau, Oberdahlhausen",7.31719,51.20504,"de:5374:41942"
"22008141","Strempt, Sankt-Rochus-Platz",6.61736,50.58152,"de:5366:75157"
"22007392","Radevormwald, Turnhalle",7.35286,51.20574,"de:5374:41931"
"22006133","Lethert, Lethert",6.86404,50.51772,"de:5366:73833"
"22006242","Mechernich, Lessenich Ort",6.72197,50.60827,"de:5366:75932"
"22006140","Arloff, Arloff Bf",6.78692,50.59763,"de:5366:73301"
"22006341","Kalenberg, Kalenberg",6.60004,50.56994,"de:5366:75542"
"22006278","Kommern, Hochwildpark",6.68035,50.60546,"de:5366:75239"
"22005865","Radevormwald, Grafweg",7.39584,51.20117,"de:5374:41654"
"22008994","Blankenheim (Eifel), Heidehof Abzw.",6.70916,50.4227,"de:5366:79547"
"22006279","Kommern, Kommern Süd",6.6698,50.60377,"de:5366:75238"
"22008916","Kall, Scheven",6.58841,50.55901,"de:5366:77231"
"22005749","Marmagen, Marmagen Schule",6.58307,50.47922,"de:5366:76239"
"22006131","Bad Münstereifel, Holzem",6.86521,50.52733,"de:5366:73835"
"22009635","Marialinden, Schlingenthal",7.36479,50.9516,"de:5378:37555"
"22007017","Mechernich, Antweiler Mitte",6.746,50.60833,"de:5366:75937"
"22009546","Marmagen, Eifelhöhenklinik Abzw.",6.58004,50.48274,"de:5366:76238"
"22008971","Urft, Forsthaus Abzw.",6.57207,50.50244,"de:5366:77933"
"22009386","Kall, Siemensring/Benzstr.",6.57667,50.54268,"de:5366:77141"
"22006432","Blankenheimerdorf, Zollstock",6.63154,50.43952,"de:5366:79433"
"22008887","Mechernich, Stollenhütte",6.6118,50.58146,"de:5366:75153"
"22006134","Lethert, Frings",6.86848,50.51643,"de:5366:73832"
"22006431","Blankenheimerdorf, Blankenheimerdorf Kirche",6.6244,50.44181,"de:5366:79432"
"22007755","Radevormwald, Hermannstr.",7.34868,51.20278,"de:5374:41648"
"22008893","Kommern, Am Bruch",6.6711,50.60614,"de:5366:75230"
"22007452","Radevormwald, Vorm Holte",7.37424,51.19832,"de:5374:41643"
"22006382","Marmagen, Eiffelplatz",6.58145,50.4774,"de:5366:76233"
"22006309","Mechernich, Roggendorf",6.62605,50.59098,"de:5366:75151"
"22008435","Radevormwald, Krankenhaus",7.35362,51.19887,"de:5374:41660"
"22007577","Herkenrath, Oberasselborn",7.20132,50.99815,"de:5378:31462"
"22006310","Mechernich, Strempt Abzw.",6.61899,50.58811,"de:5366:75152"
"22007162","Wermelskirchen, Strandbad",7.21633,51.15874,"de:5378:34567"
"22005870","Radevormwald, Heidersteg",7.3169,51.18834,"de:5374:41881"
"22008891","Mechernich, Elisabethhütte",6.63421,50.59588,"de:5366:75162"
"22006384","Marmagen, Schleidener Str.",6.57849,50.47872,"de:5366:76234"
"22006311","Mechernich, Hostel Abzw.",6.6172,50.58793,"de:5366:75154"
"22006128","Effelsberg, Effelsberg",6.87167,50.51591,"de:5366:73831"
"22006257","Denrath, Denrath",6.61121,50.58492,"de:5366:75143"
"22005969","Vilkerath, Unterheide",7.30984,50.96997,"de:5378:37739"
"22008307","Wermelskirchen, Im Wolfhagen",7.2087,51.1473,"de:5378:34149"
"22006256","Schützendorf, Schützendorf Abzw.",6.60445,50.58119,"de:5366:75536"
"22008328","Kommern, Eichenwald",6.63053,50.59586,"de:5366:75164"
"22006127","Ohlerath, Ohlerath",6.85247,50.46736,"de:5366:73744"
"22006141","Kirspenich, Fabrikstr.",6.79574,50.60051,"de:5366:73333"
"22006113","Hummerzheim, Hummerzheim",6.86984,50.49687,"de:5366:73735"
"22007286","Radevormwald, Kräwinkel",7.31308,51.18505,"de:5374:41899"
"22006340","Kalenberg, Schalthaus",6.59402,50.57355,"de:5366:75541"
"22008993","Blankenheim (Eifel), Freilinger See Camp Abzw.",6.71678,50.41725,"de:5366:79546"
"22006478","Marmagen, Feuerwache",6.57696,50.47521,"de:5366:76231"
"22009146","Wermelskirchen, Waldfriedhof Eickerberg",7.20691,51.14302,"de:5378:34172"
"22009743","Sellscheid, Viktoriastr. / Toom Markt",7.20054,51.13487,"de:5378:34366"
"22006389","Kall, Steinfeld Kloster",6.56437,50.50252,"de:5366:77931"
"22005978","Wermelskirchen, Wolfshagener Str.",7.21198,51.14455,"de:5378:34186"
"22006096","Bad Münstereifel, Konrad Adenauer Höhe",6.87072,50.53916,"de:5366:73931"
"22007172","Wermelskirchen, Ortlinghaus",7.22559,51.15389,"de:5378:34840"
"22007048","Kall, Keldenicher Str.",6.56664,50.54055,"de:5366:77331"
"22006343","Wallenthal, Wallenthal",6.57996,50.56345,"de:5366:77232"
"22008165","Mechernich, Burg Zievel",6.72275,50.61629,"de:5366:75951"
"22006312","Mechernich, Hosteler Weg",6.61459,50.5922,"de:5366:75155"
"22006337","Kommern, Mechernicher Weg",6.65099,50.60731,"de:5366:75236"
"22009839","Wermelskirchen, Am Krupin",7.18843,51.11939,"de:5378:34437"
"22006437","Blankenheim (Eifel), Reetzer Str.",6.72527,50.41432,"de:5366:79542"
"22006345","Kall, Heistert",6.56474,50.54453,"de:5366:77134"
"22008920","Kommern, Becherhofer Weg",6.65503,50.60967,"de:5366:75229"
"22006280","Kommern, Becherhofer Kreuz",6.6528,50.60935,"de:5366:75237"
"22006344","Wallenthal, Wallenthalerhöhe",6.56969,50.5557,"de:5366:77233"
"22005711","Wermelskirchen, Tente Supermarkt",7.19034,51.12115,"de:5378:34469"
"22008543","Lommersdorf, Lommersdorf Gossen",6.74121,50.41348,"de:5366:79535"
"22008892","Kommern, Kommern Grundschule",6.65148,50.60976,"de:5366:75262"
"22006418","Lommersdorf, Lommersdorf Kirche",6.74799,50.41342,"de:5366:79531"
"22008911","Kommern, B266 / Seeweg",6.63747,50.60599,"de:5366:75263"
"22008998","Blankenheim (Eifel), Freilingen Kindergarten",6.7293,50.41194,"de:5366:79548"
"22008604","Firmenich, Satzvey Schule",6.69978,50.61997,"de:5366:75363"
"22006430","Blankenheim (Eifel), Lentges Mühle",6.59989,50.44287,"de:5366:79431"
"22006435","Blankenheim (Eifel), Reetzer Weg",6.68372,50.41285,"de:5366:79544"
"22006281","Kommern, Gielsgasse",6.64588,50.61066,"de:5366:75235"
"22006438","Blankenheim (Eifel), Freilingen Kapelle",6.73177,50.41032,"de:5366:79541"
"22008594","Satzvey, Satzvey",6.70589,50.62114,"de:5366:75361"
"22008885","Kommern, Am Hang",6.64027,50.60958,"de:5366:75264"
"22006255","Schützendorf, Schützendorf",6.59751,50.58897,"de:5366:75535"
"22006237","Kreuzweingarten, Maria Rast",6.76814,50.61763,"de:5366:72432"
"22006143","Kreuzweingarten, Kreuzweingarten Feuerwehr",6.79186,50.61174,"de:5366:72436"
"22006282","Kommern, Kommern Mitte",6.64783,50.61249,"de:5366:75231"
"22007177","Wermelskirchen, Kenkhausen",7.22819,51.15273,"de:5378:34837"
"22008915","Mechernich, Lückerath Grundschule",6.59181,50.58638,"de:5366:75534"
"22009587","Satzvey, Satzvey Bf",6.71303,50.62296,"de:5366:75301"
"22007173","Wermelskirchen, Heinhausstr.",7.22491,51.15029,"de:5378:34158"
"22009363","Wermelskirchen, Karolinenstr.",7.20492,51.13426,"de:5378:34132"
"22006283","Kommern, Kommern Post",6.65298,50.61585,"de:5366:75232"
"22006429","Blankenheim (Eifel), Blankenheim (Wald) Bf",6.59346,50.44184,"de:5366:79401"
"22009074","Kommern, Kölner Str.",6.65616,50.617,"de:5366:75245"
"22006313","Hostel, Hostel",6.61027,50.60046,"de:5366:75436"
"22009593","Kreuzweingarten, Kreuzweingarten Bf",6.7965,50.61323,"de:5366:72402"
"22006336","Kommern, Schaven",6.66089,50.61906,"de:5366:75234"
"22006451","Blankenheim (Eifel), Oberahreck",6.68833,50.40728,"de:5366:79731"
"22008327","Mechernich, Lückerath Forst",6.584,50.58583,"de:5366:75562"
"22008275","Firmenich, Lichtenberg",6.69323,50.62624,"de:5366:75362"
"22007073","Nonnenbach, Nonnenbach",6.63417,50.41484,"de:5366:79645"
"22008329","Mechernich, Bescheid",6.5693,50.58048,"de:5366:75584"
"22006334","Firmenich, Firmenich Denkmal",6.68671,50.62916,"de:5366:75333"
"22006477","Nettersheim, Milzenhäuschen",6.56452,50.45339,"de:5366:76232"
"22009160","Gummersbach, Osterhofstr.",7.49947,51.04524,"de:5374:48341"
"22007175","Wermelskirchen, Remscheider Str.",7.21912,51.14449,"de:5378:34157"
"22006452","Blankenheim (Eifel), Vellerhof Abzw.",6.70926,50.39889,"de:5366:79838"
"22006331","Firmenich, Firmenich Mitte",6.69196,50.63146,"de:5366:75335"
"22006144","Euskirchen, Diamantstr.",6.79867,50.62127,"de:5366:72435"
"22006335","Firmenich, Eifel-Therme-Zikkurat",6.67887,50.63008,"de:5366:75334"
"22008862","Euskirchen, Klosterpfad",6.84035,50.60393,"de:5366:72540"
"22006284","Gehn, Gehn",6.65441,50.62579,"de:5366:75233"
"22008860","Euskirchen, Weidenweg",6.83585,50.60686,"de:5366:72538"
"22006314","Mechernich, Glehn",6.595,50.60352,"de:5366:75435"
"22009090","Wermelskirchen, Jörgensgasse",7.21238,51.13788,"de:5378:34167"
"22007951","Egen, Bruch",7.39758,51.17421,"de:5374:45252"
"22008063","Mechernich, Wielspütz",6.56341,50.5821,"de:5366:75581"
"22008861","Euskirchen, Ohmstr.",6.8386,50.60718,"de:5366:72539"
"22006253","Bleibuir, Bleibuir",6.57157,50.58978,"de:5366:75533"
"22006236","Billig, Billig",6.77789,50.62921,"de:5366:72431"
"22009026","Wermelskirchen, Wermelskirchen Markt/Taubengasse",7.2163,51.14101,"de:5378:34180"
"22006330","Obergartzem, Obergartzem Schule",6.69689,50.63477,"de:5366:75336"
"22007661","Euskirchen, Im Weingarten",6.83339,50.61151,"de:5366:72541"
"22008138","Mechernich, Hof Brüsselbach",6.59679,50.60833,"de:5366:75261"
"22009841","Blankenheim (Eifel), Vellerhof",6.70085,50.39433,"de:5366:79842"
"22006147","Euskirchen, Ev. Gemeindehaus",6.8104,50.62375,"de:5366:72444"
"22006329","Obergartzem, RWZ",6.70054,50.63801,"de:5366:75337"
"22006454","Hüngersdorf, Esser",6.67815,50.3954,"de:5366:79732"
"22006455","Hüngersdorf, Hüngersdorf Schule",6.68068,50.39458,"de:5366:79733"
"22008878","Euskirchen, An den Eichen",6.81479,50.62359,"de:5366:72451"
"22008136","Mechernich, Hof Schmitz",6.60164,50.61542,"de:5366:75265"
"22006439","Ahrhütte, Dollendorf Abzw.",6.72667,50.39128,"de:5366:79837"
"22006328","Obergartzem, Industriepark",6.7106,50.64015,"de:5366:75338"
"22006071","Euskirchen, Stotzheim Friedhof",6.81141,50.62612,"de:5366:72443"
"22006440","Ahrhütte, Sonsmühle",6.7283,50.3906,"de:5366:79836"
"22006368","Eicks, Gestüt Rosenhof",6.60549,50.61825,"de:5366:75434"
"22007010","Euskirchen, Euskirchener Heide",6.76581,50.6379,"de:5366:72433"
"22006315","Eicks, Eicks",6.61693,50.6242,"de:5366:75433"
"22009232","Schmitzhöhe, CVJM-Heim",7.29101,50.98224,"de:5374:43939"
"22008133","Bergbuir, Bergbuir Jugendhalle",6.56594,50.5968,"de:5366:75532"
"22007063","Ahrhütte, Schloßtal",6.71228,50.38914,"de:5366:79840"
"22008879","Euskirchen, Wassermannstr.",6.8186,50.62554,"de:5366:72452"
"22008877","Euskirchen, Kreuzberger Str.",6.81415,50.62771,"de:5366:72450"
"22006327","Obergartzem, Veynau Abzw.",6.71381,50.64329,"de:5366:75339"
"22008880","Euskirchen, Centaurstr.",6.81629,50.62774,"de:5366:72453"
"22006689","Wermelskirchen, Herrlinghausen Süd",7.19477,51.11625,"de:5378:34466"
"22006441","Ahrhütte, Kirwel",6.7393,50.38768,"de:5366:79835"
"22007629","Gummersbach, Neusiedler Weg",7.49174,51.04028,"de:5374:48338"
"22008876","Euskirchen, Hinter den Gärten",6.81452,50.62998,"de:5366:72449"
"22006447","Ahrhütte, Schloßtal Abzw.",6.72076,50.38599,"de:5366:79839"
"22006069","Euskirchen, Stotzheim Markt",6.81237,50.63162,"de:5366:72441"
"22006072","Niederkastenholz, Niederkastenholz",6.83246,50.62438,"de:5366:72639"
"22006442","Blankenheim (Eifel), Neuhof",6.7486,50.38533,"de:5366:79834"
"22009592","Euskirchen, Stotzheim Bf",6.81095,50.63412,"de:5366:72401"
"22008875","Euskirchen, Sonnenstr.",6.81125,50.63464,"de:5366:72448"
"22006456","Ripsdorf, Eldorfer Str.",6.66041,50.38721,"de:5366:79631"
"22008859","Flamersheim, Rotkehlchenweg",6.8483,50.62123,"de:5366:72645"
"22007166","Wermelskirchen, Gartenweg",7.21042,51.13289,"de:5378:34159"
"22009575","Wermelskirchen, Tente-Rollen",7.19807,51.1183,"de:5378:34467"
"22006073","Flamersheim, Wolfskaule",6.8554,50.61949,"de:5366:72637"
"22008303","Wermelskirchen, Wermelskirchen Friedhof",7.22232,51.14273,"de:5378:34144"
"22008881","Flamersheim, Zeisigstr.",6.84638,50.6241,"de:5366:72640"
"22007169","Wermelskirchen, Königstr.",7.21418,51.13535,"de:5378:34171"
"22006457","Ripsdorf, Ripsdorf Kirche",6.65585,50.38591,"de:5366:79632"
"22006233","Euskirchen, Dr.-Schönenborn-Str.",6.78728,50.6445,"de:5366:72141"
"22005811","Dabringhausen, Dabringhausen Friedhof",7.18994,51.09642,"de:5378:34566"
"22006151","Euskirchen, Marienhospital",6.79193,50.64365,"de:5366:72143"
"22006285","Schwerfen, Beuelstr.",6.64637,50.64385,"de:5366:74731"
"22006065","Flamersheim, Pützgasse",6.84993,50.6235,"de:5366:72632"
"22006326","Wißkirchen, Kommerner Str.",6.7336,50.65168,"de:5366:72331"
"22006074","Euskirchen, Schweinheim Dorfplatz",6.86916,50.61304,"de:5366:72638"
"22008304","Wermelskirchen, Am Wasserturm",7.2292,51.14515,"de:5378:34140"
"22006068","Euskirchen, Jupiterstr.",6.81268,50.63876,"de:5366:72442"
"22007167","Wermelskirchen, Stettiner Str.",7.21383,51.13252,"de:5378:34160"
"22008003","Wermelskirchen, Schulzentrum Ost",7.22718,51.14324,"de:5378:34154"
"22006064","Flamersheim, Fasanenstr.",6.85401,50.62292,"de:5366:72636"
"22008768","Euskirchen, Selbachstr.",6.785,50.6465,"de:5366:72176"
"22009233","Schmitzhöhe, Schönenborn",7.28524,50.98765,"de:5374:43940"
"22008882","Flamersheim, Ringsheimer Weg",6.85695,50.62157,"de:5366:72641"
"22007178","Wermelskirchen, Lüffringhausen",7.23666,51.14875,"de:5378:34838"
"22006316","Floisdorf, Floisdorf",6.61236,50.63595,"de:5366:75432"
"22009091","Wermelskirchen, Wermelskirchen Realschule",7.2185,51.13557,"de:5378:34168"
"22007019","Euenheim, Schloßmühlenstr.",6.74284,50.65305,"de:5366:72344"
"22006458","Ripsdorf, Loheweg",6.65203,50.38401,"de:5366:79633"
"22006063","Flamersheim, Speckelsteinstr.",6.8534,50.62436,"de:5366:72635"
"22009259","Hohbusch, Hohbusch",7.32658,50.98161,"de:5374:43945"
"22008676","Euskirchen, Uhlandstr.",6.77755,50.64937,"de:5366:72157"
"22008536","Euskirchen, Boenerstr.",6.78701,50.64801,"de:5366:72165"
"22008799","Euskirchen, Pappelallee",6.77591,50.65021,"de:5366:72178"
"22008798","Euskirchen, Thomas-Eßer-Str.",6.79083,50.64785,"de:5366:72177"
"22006321","Euenheim, Euenheim",6.74817,50.65432,"de:5366:72332"
"22006293","Zülpich, Enzen Schule",6.69406,50.65476,"de:5366:74531"
"22008858","Flamersheim, Kranichstr.",6.85411,50.62619,"de:5366:72644"
"22008940","Euskirchen, Rudolf-Diesel-Str./DHL",6.79611,50.64682,"de:5366:72130"
"22006067","Roitzheim, Roitzheim Post",6.81199,50.64297,"de:5366:72742"
"22009099","Wermelskirchen, Neuschäferhöhe",7.21726,51.13361,"de:5378:34170"
"22009727","Egen, Müllensiepen",7.39496,51.16926,"de:5374:42146"
"22008771","Euskirchen, Theodor-Körner-Str.",6.77635,50.65173,"de:5366:72179"
"22008431","Biesfeld, Engeldorf",7.25524,51.00002,"de:5378:35344"
"22008537","Euskirchen, Lindenweg",6.77363,50.65251,"de:5366:72161"
"22008857","Flamersheim, Taubenstr.",6.85413,50.62795,"de:5366:72643"
"22006148","Roitzheim, Roitzheim Mitte",6.80914,50.64497,"de:5366:72741"
"22008534","Euskirchen, Philipp-Reis-Str.",6.78999,50.65034,"de:5366:72172"
"22008874","Roitzheim, Felix-Wankel-Str.",6.80636,50.64666,"de:5366:72159"
"22008772","Euskirchen, Augenbroicher Str.",6.78505,50.65188,"de:5366:72180"
"22006322","Euenheim, Alte Tuchfabrik",6.76096,50.65573,"de:5366:72333"
"22008883","Euskirchen, Südstr.",6.78801,50.65147,"de:5366:72035"
"22008599","Mechernich, Oberdorf",6.58787,50.63174,"de:5366:75438"
"22006317","Mechernich, Unterdorf",6.59149,50.63406,"de:5366:75431"
"22008872","Euskirchen, Georgstr.",6.77272,50.65487,"de:5366:72034"
"22008773","Euskirchen, Schillerpark",6.78247,50.65333,"de:5366:72181"
"22008806","Euskirchen, Gottfried-Kinkel-Str.",6.78891,50.65274,"de:5366:72199"
"22006152","Euskirchen, Obi-Markt",6.79174,50.65301,"de:5366:72144"
"22006153","Euskirchen, Euskirchen Finanzamt",6.78739,50.65406,"de:5366:72139"
"22006149","Euskirchen, Albert-Latz-Str.",6.8014,50.65197,"de:5366:72145"
"22009035","Euskirchen, Sparkassenzentrum",6.80772,50.65039,"de:5366:72054"
"22006461","Blankenheim (Eifel), Waldorf Nr. 2",6.61722,50.38444,"de:5366:79636"
"22007001","Euskirchen, Miele Werk",6.79684,50.65334,"de:5366:72146"
"22006460","Blankenheim (Eifel), Waldorf",6.62096,50.3828,"de:5366:79635"
"22008873","Euskirchen, Ruhrpark",6.78773,50.65619,"de:5366:72158"
"22006062","Palmersheim, Gutshof",6.85797,50.63425,"de:5366:72633"
"22006066","Kuchenheim, Rheinisches Industriemuseum",6.82345,50.6495,"de:5366:72735"
"22007591","Wermelskirchen, Haus Vogelsang",7.22396,51.13751,"de:5378:34174"
"22008856","Palmersheim, Rodderbach",6.85633,50.63873,"de:5366:72642"
"22006052","Kuchenheim, Kuchenheim Markt",6.82748,50.65042,"de:5366:72731"
"22006053","Kuchenheim, Händelstr.",6.82409,50.65153,"de:5366:72733"
"22008850","Kuchenheim, Auf der Fuhr",6.82132,50.653,"de:5366:72743"
"22006051","Kuchenheim, Kuchenheimer Str.",6.83256,50.64952,"de:5366:72732"
"22009576","Bürvenich, Goldsteinhof",6.62346,50.65536,"de:5366:74877"
"22008855","Kuchenheim, Telemannstr.",6.83805,50.65031,"de:5366:72748"
"22007168","Wermelskirchen, Krankenhaus",7.22158,51.13506,"de:5378:34162"
"22009596","Kuchenheim, Kuchenheim Bf",6.83374,50.65546,"de:5366:72701"
"22008560","Bürvenich, Lager",6.59669,50.65533,"de:5366:74841"
"22005742","Odendorf, Jülicher Ring",6.87453,50.648,"de:5382:52440"
"22005868","Odendorf, Bendenweg II",6.87107,50.65156,"de:5382:52447"
"22005867","Odendorf, Bendenweg I",6.87321,50.65086,"de:5382:52446"
"22008430","Biesfeld, Offermannsheide",7.2641,50.99725,"de:5378:35345"
"22006922","Herrig, Peter-Mörs-Platz",6.72579,50.80158,"de:5362:86732"
"22006921","Herrig, Herrig Siedlung",6.73461,50.80097,"de:5362:86731"
"22005898","Wermelskirchen, Bachstr.",7.22719,51.13874,"de:5378:34148"
"22005904","Lechenich, Josef-Zilken-Str.",6.75449,50.8006,"de:5362:86175"
"22007004","Lechenich, Am Welschbach",6.75814,50.79734,"de:5362:86155"
"22007804","Gymnich, Mellerhöfe",6.72119,50.82273,"de:5362:86741"
"22006920","Lechenich, Gierlings",6.75916,50.80065,"de:5362:86142"
"22007805","Erftstadt, Erp Grundschule",6.72487,50.77001,"de:5362:86850"
"22008819","Lechenich, Nikolaus-Ehlen-Str.",6.7623,50.79142,"de:5362:86150"
"22006361","Erftstadt, Steinfelder Str.",6.72508,50.76838,"de:5362:86831"
"22006366","Lechenich, Lechenich Markt",6.76586,50.79994,"de:5362:86141"
"22006365","Ahrem, Ahrem Ort",6.76276,50.78495,"de:5362:86151"
"22006896","Lechenich, Frenzenstr.",6.76535,50.8054,"de:5362:86144"
"22007825","Lechenich, Lechenich Grundschule Süd",6.7694,50.7939,"de:5362:86193"
"22007806","Ahrem, Am Hermeshof",6.76537,50.7838,"de:5362:86152"
"22006360","Erftstadt, Gladbacher Str.",6.7211,50.76353,"de:5362:86832"
"22006895","Erftstadt, Konradsheim",6.76629,50.81249,"de:5362:86531"
"22006899","Lechenich, Bonner Str.",6.77266,50.7997,"de:5362:86140"
"22006839","Lechenich, Lechenich Schulzentrum",6.77042,50.80766,"de:5362:86131"
"22007179","Wermelskirchen, Elbringhausen",7.23553,51.14435,"de:5378:34835"
"22007181","Wermelskirchen, Wüstenhof",7.24084,51.14727,"de:5378:34839"
"22006901","Lechenich, An der Patria",6.77809,50.79714,"de:5362:86137"
"22006894","Dirmerzheim, Dirmerzheim Süd",6.765,50.82116,"de:5362:86532"
"22007811","Dirmerzheim, Kindergarten",6.763,50.82336,"de:5362:86592"
"22006838","Lechenich, Kölner Ring",6.77959,50.80186,"de:5362:86139"
"22007135","Ahrem, Haus Loosen",6.76652,50.76972,"de:5362:86194"
"22009842","Lechenich, Wirtschaftspark",6.78347,50.79448,"de:5362:86147"
"22006998","Gymnich, Maarweg",6.74655,50.83447,"de:5362:86631"
"22006893","Dirmerzheim, Dirmerzheim Kirche",6.76556,50.82638,"de:5362:86533"
"22007810","Dirmerzheim, Platzstr.",6.76768,50.82507,"de:5362:86591"
"22006892","Gymnich, Kunibertusplatz",6.74307,50.8365,"de:5362:86632"
"22007802","Gymnich, Brüggener Str.",6.74643,50.83696,"de:5362:86641"
"22006810","Gymnich, Gymnich Post",6.74155,50.8383,"de:5362:86633"
"22009487","Wermelskirchen, Wirtsmühle",7.22876,51.13928,"de:5378:34350"
"22006902","Lechenich, Römerhof",6.78861,50.79253,"de:5362:86136"
"22006890","Gymnich, Kerpener Str.",6.7336,50.84176,"de:5362:86634"
"22008432","Kürten, Hähn Abzw.",7.23981,51.00996,"de:5378:35343"
"22006891","Gymnich, Pilgerweg",6.73627,50.84151,"de:5362:86635"
"22005903","Gymnich, Gymnich Grundschule",6.74611,50.8395,"de:5362:86675"
"22007803","Gymnich, Bruderschaft",6.7568,50.83954,"de:5362:86642"
"22009579","Gymnich, Gymnicher Mühle",6.72412,50.84657,"de:5362:86637"
"22009554","Erftstadt, Ackerstr.",6.76868,50.75761,"de:5362:86939"
"22006364","Erftstadt, Niederweg",6.77761,50.76272,"de:5362:86931"
"22007039","Blessem, Klaus-Schäfer-Str.",6.79729,50.81079,"de:5362:86363"
"22009542","Erftstadt, Talstr.",6.77155,50.75719,"de:5362:86975"
"22005805","Dabringhausen, Dabringhausen Carpe Diem",7.19586,51.09542,"de:5378:34565"
"22007038","Blessem, Von-Stephan-Str.",6.80028,50.80978,"de:5362:86362"
"22006362","Erftstadt, Weiße Burg",6.77155,50.75511,"de:5362:86936"
"22009072","Erftstadt, Zülpicher Str.",6.76692,50.75205,"de:5362:86937"
"22006359","Zülpich, Weiler in der Ebene",6.70684,50.7431,"de:5366:74233"
"22007813","Erftstadt, Hubert-Vilz-Platz",6.77444,50.75522,"de:5362:86935"
"22006363","Erftstadt, Friesheim Kirche",6.77576,50.75551,"de:5362:86934"
"22007138","Erftstadt, Kindergarten",6.77879,50.75599,"de:5362:86961"
"22007137","Erftstadt, Industriegebiet",6.77596,50.75224,"de:5362:86962"
"22007208","Blessem, Schwarzau Abzw.",6.80528,50.81588,"de:5362:86369"
"22006900","Liblar, Frauenthal",6.8083,50.8099,"de:5362:86361"
"22007139","Erftstadt, Im Längsbusch",6.80123,50.82369,"de:5362:86456"
"22008202","Dabringhausen, Mehrzweckhalle",7.19553,51.09419,"de:5378:34550"
"22009260","Unterfrielinghausen, Unterfrielinghausen",7.33262,50.98477,"de:5374:43942"
"22007209","Liblar, Liblar Friedhof",6.81011,50.81532,"de:5362:86334"
"22006911","Liblar, Liblar Kirche",6.81194,50.81243,"de:5362:86333"
"22006358","Erftstadt, Scheuren",6.72978,50.73596,"de:5362:86952"
"22007189","Kerpen (Rheinl), Brüggen Post",6.77456,50.8477,"de:5362:87271"
"22006357","Borr, Borr",6.74536,50.73764,"de:5362:86951"
"22006907","Liblar, Liblar Einkaufszentrum",6.81602,50.80459,"de:5362:86344"
"22006898","Bliesheim, Karolingerstr.",6.81429,50.78311,"de:5362:86235"
"22006936","Kerpen (Rheinl), Brüggen Feuerwehr",6.77302,50.84885,"de:5362:87241"
"22006931","Erftstadt, Köttingen Süd",6.80784,50.82337,"de:5362:86431"
"22009089","Wermelskirchen, Frohntaler Str.",7.22012,51.1307,"de:5378:34166"
"22006934","Kierdorf, Kierdorf Mitte",6.78764,50.84184,"de:5362:86442"
"22006932","Erftstadt, Köttingen Mitte",6.80506,50.82791,"de:5362:86432"
"22006935","Kerpen (Rheinl), Am alten Bahnhof",6.77915,50.84681,"de:5362:87240"
"22006933","Kierdorf, Kierdorf Süd",6.79436,50.83806,"de:5362:86441"
"22006937","Kerpen (Rheinl), Rodderweg",6.76874,50.85161,"de:5362:87243"
"22007140","Kerpen (Rheinl), Taunusstr.",6.77937,50.84748,"de:5362:87272"
"22006906","Liblar, Schloss Buschfeld",6.8189,50.79882,"de:5362:86231"
"22006910","Liblar, Schloß Gracht",6.81583,50.81312,"de:5362:86341"
"22007188","Kerpen (Rheinl), Matthias-Werner-Str.",6.76211,50.85435,"de:5362:87245"
"22007970","Wermelskirchen, Straussenfarm",7.20277,51.1072,"de:5378:34556"
"22008831","Liblar, Am Giezenbach",6.81183,50.82179,"de:5362:86336"
"22007037","Bliesheim, Bliesheim Grundschule",6.81721,50.78222,"de:5362:86236"
"22005902","Erftstadt, Hubert-Rüttger-Str.",6.81208,50.8219,"de:5362:86475"
"22009088","Wermelskirchen, Kastanienweg",7.2215,51.12965,"de:5378:34165"
"22006873","Niederbolheim, Niederbolheim Ort",6.63116,50.82943,"de:5362:87761"
"22008642","Wermelskirchen, Industriestr.",7.24135,51.14443,"de:5378:34836"
"22006938","Kerpen (Rheinl), Balkhausen",6.75753,50.85689,"de:5362:87244"
"22007165","Liblar, Marienplatz",6.81706,50.8162,"de:5362:86371"
"22006905","Bliesheim, Merowingerstr.",6.82144,50.78912,"de:5362:86232"
"22006356","Erftstadt, Borr Abzw.",6.7616,50.73729,"de:5362:86942"
"22008830","Liblar, Rosenstr.",6.81801,50.81801,"de:5362:86335"
"22007822","Liblar, Am Hahnacker",6.81902,50.81607,"de:5362:86366"
"22006939","Türnich, Türnich Markt",6.75365,50.85961,"de:5362:87251"
"22006903","Bliesheim, Bliesheim Markt",6.82105,50.78151,"de:5362:86234"
"22006840","Zülpich, Marienholz",6.70291,50.73066,"de:5366:74232"
"22006909","Liblar, Bahnhofstr.",6.82284,50.81074,"de:5362:86342"
"22009498","Bliesheim, Im Höhlchen",6.82111,50.77833,"de:5362:86237"
"22006908","Liblar, Theodor-Heuss-Str.",6.82457,50.80681,"de:5362:86343"
"22006904","Bliesheim, Linde",6.82504,50.78443,"de:5362:86233"
"22007200","Kerpen (Rheinl), Martinusschule",6.70215,50.86498,"de:5362:87172"
"22006355","Erftstadt, Niederberg",6.76887,50.73583,"de:5362:86941"
"22006940","Türnich, Türnich Rathaus",6.74761,50.86359,"de:5362:87252"
"22006889","Kerpen (Rheinl), Hahnenstr.",6.69715,50.8658,"de:5362:87130"
"22007170","Wermelskirchen, Am Stadtrand",7.22369,51.13058,"de:5378:34155"
"22008932","Liblar, Heidebroichstr.",6.83018,50.80587,"de:5362:86340"
"22008931","Liblar, Am Vogelsang",6.82995,50.80957,"de:5362:86339"
"22006941","Türnich, Nußbaumallee",6.74235,50.86711,"de:5362:87253"
"22005770","Langenich, Lindenstr.",6.67259,50.86268,"de:5362:87153"
"22008176","Kerpen (Rheinl), Kath. Grundschule",6.70043,50.86811,"de:5362:87167"
"22006913","Liblar, Erftstadt Bf",6.83297,50.80692,"de:5362:86301"
"22006943","Türnich, Industriegebiet I",6.75311,50.86723,"de:5362:87262"
"22009261","Schmitzhöhe, Vellingen Brücke",7.32064,50.98816,"de:5374:43938"
"22006850","Kerpen (Rheinl), Kerpen Mitte",6.69316,50.86885,"de:5362:87131"
"22006851","Kerpen (Rheinl), Lindenhof",6.68698,50.86788,"de:5362:87149"
"22009257","Oberfrielinghausen, Oberfrielinghausen Abzw.",7.34075,50.98707,"de:5374:43944"
"22007648","Kerpen (Rheinl), Altes Rathaus",6.69629,50.87041,"de:5362:87132"
"22006852","Kerpen (Rheinl), Langenich",6.67161,50.86597,"de:5362:87151"
"22007964","Türnich, Industriegebiet II",6.75808,50.86807,"de:5362:87232"
"22008174","Kerpen (Rheinl), Ev. Grundschule",6.6984,50.87139,"de:5362:87137"
"22006847","Kerpen (Rheinl), Schützenstr.",6.68627,50.86971,"de:5362:87148"
"22006869","Kerpen (Rheinl), Burgstr.",6.69972,50.87248,"de:5362:87133"
"22006848","Kerpen (Rheinl), Neues Rathaus",6.69312,50.87201,"de:5362:87141"
"22008433","Biesfeld, Hufe",7.24259,51.01352,"de:5378:35342"
"22007156","Kerpen (Rheinl), Alte Landstr.",6.68898,50.87186,"de:5362:87171"
"22005901","Weilerswist, Auenhof",6.83372,50.76836,"de:5366:71177"
"22009545","Kerpen (Rheinl), Auf dem Vorst",6.70327,50.87546,"de:5362:87134"
"22006853","Blatzheim, Bergerhausen",6.64793,50.86263,"de:5362:87739"
"22006856","Blatzheim, Blatzheim Kapelle",6.62652,50.85131,"de:5362:87742"
"22006849","Kerpen (Rheinl), Nordring/Maastrichter Str.",6.68596,50.87401,"de:5362:87147"
"22006854","Blatzheim, Blatzheim Siedlung",6.63905,50.85895,"de:5362:87740"
"22006855","Blatzheim, Blatzheim Mitte",6.63011,50.85397,"de:5362:87741"
"22006846","Kerpen (Rheinl), Mödrath Abzw.",6.69285,50.87539,"de:5362:87142"
"22005766","Blatzheim, Blatzheim Schule",6.64768,50.86344,"de:5362:87743"
"22009095","Wermelskirchen, OBI",7.24816,51.14582,"de:5378:34834"
"22006915","Liblar, Liblarer See",6.83765,50.82663,"de:5362:86331"
"22009494","Manheim, Manheim-neu West",6.65372,50.86778,"de:5362:87588"
"22008178","Mödrath, Kath. Grundschule",6.69562,50.87844,"de:5362:87145"
"22006353","Zülpich, Koenen",6.74048,50.71478,"de:5366:74333"
"22009258","Oberfrielinghausen, Oberfrielinghausen",7.3385,50.98891,"de:5374:43943"
"22007649","Kerpen (Rheinl), Phillipp-Schneider-Str.",6.69253,50.87924,"de:5362:87143"
"22008434","Biesfeld, Am Domberg Abzw.",7.24458,51.01595,"de:5378:35341"
"22009495","Manheim, Manheim-neu Ost",6.66729,50.87452,"de:5362:87589"
"22006887","Kerpen (Rheinl), ABZ",6.67848,50.87722,"de:5362:87181"
"22007686","Zülpich, Mülheimer Str.",6.73984,50.71303,"de:5366:74337"
"22008000","Gimborn, Oberboinghausen",7.48225,51.06887,"de:5374:49637"
"22006841","Rövenich, Rövenich Abzw.",6.68093,50.71443,"de:5366:74231"
"22006218","Weilerswist, Altenzentrum",6.84171,50.75946,"de:5366:71133"
"22006944","Kerpen (Rheinl), Kerpen Marienfeld",6.71732,50.88349,"de:5362:87135"
"22006308","Wichterich, Am alten Bahnhof",6.73988,50.71103,"de:5366:74332"
"22006219","Weilerswist, Weilerswist Sparkasse",6.8395,50.75501,"de:5366:71132"
"22006216","Weilerswist, Swisterberg",6.85071,50.7716,"de:5366:71135"
"22006217","Weilerswist, Waldhof",6.84775,50.76512,"de:5366:71134"
"22005964","Kerpen (Rheinl), Boschstr.",6.67208,50.87961,"de:5362:87195"
"22008818","Weilerswist, Deutscher Platz",6.8383,50.75185,"de:5366:71136"
"22007801","Weilerswist, Klein Vernich",6.82566,50.74029,"de:5366:71534"
"22008175","Kerpen (Rheinl), Max-Planck-Str.",6.67357,50.88085,"de:5362:87194"
"22009586","Weilerswist, Berliner Str.",6.84004,50.7527,"de:5366:71150"
"22005962","Kerpen (Rheinl), Lörsfelder Busch",6.67715,50.88174,"de:5362:87189"
"22005774","Kerpen (Rheinl), Zeißstr.",6.66966,50.88067,"de:5362:87193"
"22007032","Türnich, Frechener Str. / B264",6.77833,50.87847,"de:5362:82498"
"22006307","Wichterich, Wichterich Post",6.74042,50.70807,"de:5366:74331"
"22006352","Rövenich, Rövenich",6.68775,50.70914,"de:5366:74234"
"22006222","Weilerswist, Josefstr.",6.83711,50.74671,"de:5366:71532"
"22007344","Weilerswist, Horchheim",6.815,50.73025,"de:5366:71538"
"22007956","Weilerswist, Weilerswist Gesamtschule",6.84086,50.74894,"de:5366:71148"
"22007007","Wichterich, Frankfurter Str.",6.74028,50.70699,"de:5366:74334"
"22006306","Niederelvenich, Niederelvenich",6.71831,50.70569,"de:5366:74335"
"22007960","Weilerswist, Weilerswist Rathaus",6.84514,50.75199,"de:5366:71143"
"22006221","Weilerswist, Weilerswist Bf",6.84506,50.75027,"de:5366:71101"
"22009028","Berrenrath, Berrenrath Siedlung",6.81759,50.86535,"de:5362:83269"
"22007338","Weilerswist, Jülicher Str.",6.83074,50.73721,"de:5366:71537"
"22009256","Wüstenhof, Wüstenhof",7.35001,50.99106,"de:5374:43737"
"22008564","Zülpich, Bessenich",6.65584,50.71307,"de:5366:74152"
"22006383","Remshagen, :metabolon",7.4285,51.01553,"de:5374:43537"
"22006223","Weilerswist, Groß Vernich Kirche",6.8358,50.73976,"de:5366:71531"
"22007397","Lommersum, Mühlenhof",6.80653,50.72134,"de:5366:71745"
"22006215","Badorf, Birkhof",6.8681,50.79293,"de:5362:84349"
"22006224","Weilerswist, Groß Vernich Siedlung",6.83145,50.73458,"de:5366:71533"
"22009255","Lindlar, Klespe Abzw.",7.34641,50.99953,"de:5374:43736"
"22009577","Waldbruch, Waldbruch Abzw.",7.32538,51.00309,"de:5374:43746"
"22008646","Lindlar, Unterheiligenhoven",7.35034,51.00494,"de:5374:43734"
"22009380","Oberelvenich, Hauptstr.",6.70694,50.70095,"de:5366:74338"
"22006305","Oberelvenich, Oberelvenich Ort",6.70682,50.6999,"de:5366:74336"
"22009148","Wermelskirchen, Oberhebbinghausen",7.26825,51.13039,"de:5378:34648"
"22005963","Kerpen (Rheinl), Zum Schlichshof",6.59499,50.85614,"de:5362:87641"
"22007493","Lommersum, Hollergasse",6.79939,50.71314,"de:5366:71746"
"22007527","Lommersum, Niederberger Str.",6.79522,50.71133,"de:5366:71748"
"22008800","Lommersum, Wichtericher Weg",6.79324,50.71001,"de:5366:71744"
"22009150","Wermelskirchen, Oberrautenbach",7.26313,51.12542,"de:5378:34650"
"22006369","Lommersum, Unterdorf",6.79754,50.71072,"de:5366:71742"
"22007644","Kerpen (Rheinl), Fließstr.",6.59129,50.85651,"de:5362:87631"
"22009149","Wermelskirchen, Hebbinghausen",7.26972,51.1263,"de:5378:34649"
"22009245","Frielingsdorf, Eibachstr.",7.43773,51.05108,"de:5374:43245"
"22009770","Götzenkirchen, Im alten Hof",6.71678,50.89837,"de:5362:87391"
"22008188","Kerpen (Rheinl), Daimlerstr.",6.66766,50.89315,"de:5362:87478"
"22006225","Derkum, Hausweiler",6.81652,50.71625,"de:5366:71631"
"22008279","Lindlar, Lindlar Schulzentrum",7.37131,51.01621,"de:5374:43659"
"22007110","Wermelskirchen, Strandbad Dhünn",7.25048,51.104,"de:5378:34647"
"22006354","Lommersum, Lommersum Kirche",6.79576,50.70698,"de:5366:71741"
"22008195","Kerpen (Rheinl), Europaring",6.6836,50.89693,"de:5362:87485"
"22008254","Lindlar, Industriepark Klause",7.40677,51.03015,"de:5374:43348"
"22008565","Zülpich, Bergheimer Str.",6.65943,50.7014,"de:5366:74151"
"22007646","Kerpen (Rheinl), Buir Post",6.58598,50.85701,"de:5362:87639"
"22009234","Lindlar, Rathaus/Klinik",7.3832,51.02139,"de:5374:43646"
"22008710","Kürten, Kürten Kirche",7.2632,51.05383,"de:5378:35154"
"22006304","Zülpich, Lüssem",6.69054,50.69457,"de:5366:74432"
"22006916","Brühl (Erftkreis), Heide Abzw.",6.86908,50.83955,"de:5362:84532"
"22006945","Götzenkirchen, Götzenkirchen",6.71538,50.90113,"de:5362:87381"
"22005717","Wipperfürth, Hallenbad Mühlenberg",7.40975,51.11623,"de:5374:42247"
"22007547","Brühl (Erftkreis), Grubenstr.",6.87314,50.83393,"de:5362:84562"
"22008206","Wipperfürth, Albert-Schweitzer-Schule",7.3895,51.12121,"de:5374:42242"
"22008282","Kürten, Ahlenbacher Mühle",7.27203,51.05421,"de:5378:35140"
"22006842","Zülpich, Abzw. Bahnhof",6.65962,50.69889,"de:5366:74133"
"22008173","Kerpen (Rheinl), Buir Gemein. Grundschule",6.58143,50.85629,"de:5362:87699"
"22007910","Zülpich, Zülpich Bf",6.66181,50.69819,"de:5366:74101"
"22009383","Untersülze, Untersülze",7.35833,51.02867,"de:5374:43342"
"22006845","Kerpen (Rheinl), Markusweg",6.68058,50.89986,"de:5362:87431"
"22008632","Kürten, Olpe Kirche",7.28676,51.04455,"de:5378:35243"
"22009098","Knapsack, Gartenstr.",6.85376,50.85987,"de:5362:83177"
"22008553","Zülpich, Flimm",6.63347,50.70529,"de:5366:74944"
"22006351","Oberwichterich, Oberwichterich",6.7434,50.69158,"de:5366:72233"
"22008943","Alt-Hürth, Dr.-Krauß-Str.",6.85501,50.85988,"de:5362:83173"
"22006787","Kerpen (Rheinl), Buir Kirche",6.58198,50.85959,"de:5362:87640"
"22006226","Derkum, Derkum",6.8145,50.70838,"de:5366:71731"
"22008827","Kerpen (Rheinl), Hüttenstr.",6.65974,50.89769,"de:5362:87482"
"22008837","Kerpen (Rheinl), Jugendzentrum Sindorf",6.66565,50.89935,"de:5362:87475"
"22006779","Frechen, Kirche",6.7562,50.90226,"de:5362:82753"
"22008552","Zülpich, Victor Rolff",6.63798,50.70141,"de:5366:74156"
"22006303","Nemmenich, Nemmenich",6.68263,50.69097,"de:5366:74431"
"22007645","Kerpen (Rheinl), Hohlweg",6.5831,50.86356,"de:5362:87642"
"22008180","Kerpen (Rheinl), Golzheimer Str.",6.57493,50.85657,"de:5362:87677"
"22008554","Zülpich, Schneider",6.62729,50.70429,"de:5366:74943"
"22009567","Kerpen (Rheinl), Sindorf (S)",6.6809,50.90361,"de:5362:87401"
"22006946","Kerpen (Rheinl), Akazienweg",6.71227,50.9068,"de:5362:87380"
"22006299","Zülpich, Zülpich Friedhof",6.65412,50.69489,"de:5366:74132"
"22006780","Frechen, Grefrath Sparkasse",6.76099,50.9038,"de:5362:82752"
"22008820","Zülpich, Am Silberberg",6.64602,50.69607,"de:5366:74130"
"22009042","Knapsack, Kapellenstr.",6.85989,50.86302,"de:5362:83174"
"22009585","Derkum, Derkum Bf",6.81672,50.70488,"de:5366:71701"
"22008289","Wipperfürth, Grundschule Ringstr.",7.39617,51.11468,"de:5374:42246"
"22008626","Kürten, Höhenstr.",7.28413,51.05032,"de:5378:35242"
"22008555","Füssenich, Füssenich Kloster",6.62354,50.70325,"de:5366:74942"
"22008952","Kerpen (Rheinl), Zeisigweg",6.66364,50.90292,"de:5362:87483"
"22009189","Kerpen (Rheinl), Ärztehaus",6.67649,50.90527,"de:5362:87449"
"22008540","Lommersum, Bodenheim",6.79921,50.69741,"de:5366:71743"
"22006350","Euskirchen, Altwerk",6.737,50.68564,"de:5366:72232"
"22007660","Kürten, Splash Bad/Wende",7.28855,51.05638,"de:5378:35151"
"22008708","Kürten, Eulensiefen",7.30049,51.06097,"de:5378:35147"
"22008724","Kürten, Biesenbach",7.30692,51.05655,"de:5378:35238"
"22008725","Kürten, Holl",7.31064,51.05871,"de:5378:35239"
"22007021","Zülpich, Zülpich Post",6.64966,50.6933,"de:5366:74131"
"22006227","Derkum, Ottenheim",6.81388,50.7019,"de:5366:71732"
"22006786","Kerpen (Rheinl), Buir Bf",6.57342,50.86206,"de:5362:87601"
"22007157","Kerpen (Rheinl), Fontänestr.",6.71366,50.9096,"de:5362:87372"
"22009056","Alt-Hürth, Talmühlenstr.",6.86019,50.8657,"de:5362:83176"
"22007650","Manheim, Manheim Kirche",6.60236,50.88249,"de:5362:87531"
"22008709","Kürten, Häcksbilstein",7.30941,51.06333,"de:5378:35148"
"22009129","Kerpen (Rheinl), Astrid-Lindgren-Str.",6.6631,50.90429,"de:5362:87491"
"22008645","Kürten, Im Hassel",7.31621,51.06244,"de:5378:35244"
"22006349","Euskirchen, Frauenberg Kirche",6.738,50.68411,"de:5366:72231"
"22006774","Habbelrath, Mehrzweckhalle",6.75038,50.90867,"de:5362:82662"
"22007120","Kürten, Furth Abzw.",7.33068,51.07223,"de:5378:35146"
"22007142","Manheim, Manheim Markt",6.5993,50.88197,"de:5362:87542"
"22006947","Kerpen (Rheinl), Horrem Markt",6.71178,50.91079,"de:5362:87379"
"22008556","Füssenich, Jugendheim",6.61911,50.70202,"de:5366:74941"
"22005821","Dabringhausen, Lüdorf",7.17753,51.08475,"de:5378:34545"
"22005820","Dabringhausen, Luchtenberg",7.15659,51.08113,"de:5378:34542"
"22009012","Habbelrath, Steinbergstr.",6.7567,50.90911,"de:5362:82663"
"22008822","Wermelskirchen, Rausmühle",7.18005,51.09933,"de:5378:34435"
"22007780","Burscheid (Rheinl), Kaltenherberg",7.1327,51.08393,"de:5378:32240"
"22007662","Pattscheid, Romberg",7.0653,51.09144,"de:5316:22444"
"22009158","Kerpen (Rheinl), Michael-Ende-Str.",6.66479,50.90673,"de:5362:87492"
"22005716","Wermelskirchen, Neu-Löh",7.18035,51.10761,"de:5378:34471"
"22005714","Wermelskirchen, Löh",7.18076,51.10976,"de:5378:34470"
"22006766","Kerpen (Rheinl), Alte Kirche",6.6731,50.90856,"de:5362:87433"
"22007633","Zülpich, Adenauerplatz",6.65315,50.68918,"de:5366:74157"
"22009773","Kerpen (Rheinl), Gartenstr.",6.68278,50.91019,"de:5362:87479"
"22006768","Kerpen (Rheinl), Sindorf Schulzentrum",6.68964,50.91104,"de:5362:87442"
"22008821","Wermelskirchen, Bechhausen",7.16664,51.10337,"de:5378:34434"
"22006843","Habbelrath, Holzhausenstr.",6.75732,50.91022,"de:5362:82661"
"22008170","Burscheid (Rheinl), Abzw. Dohm",7.09226,51.09283,"de:5378:32437"
"22008015","Zülpich, Münstertor",6.65109,50.68911,"de:5366:74136"
"22008557","Füssenich, Bonn",6.61405,50.70169,"de:5366:74940"
"22007145","Kerpen (Rheinl), Mittelstr.",6.71257,50.913,"de:5362:87371"
"22007501","Habbelrath, Möscheburg",6.75423,50.91089,"de:5362:82651"
"22008643","Burscheid (Rheinl), Ösinghausener Str.",7.141,51.09567,"de:5378:32243"
"22006767","Kerpen (Rheinl), Tönneshäuschen",6.68113,50.91077,"de:5362:87441"
"22005981","Wermelskirchen, Nüxhausen",7.16545,51.10693,"de:5378:34436"
"22008169","Burscheid (Rheinl), Blasberg",7.10121,51.0952,"de:5378:32436"
"22008256","Burscheid (Rheinl), Witzheldener Str.",7.15327,51.10354,"de:5378:32252"
"22008525","Zülpich, Römerbad",6.64846,50.68919,"de:5366:74153"
"22006771","Kerpen (Rheinl), Horrem Berufschule",6.71448,50.91369,"de:5362:87378"
"22007731","Wermelskirchen, Pohlhauser Str.",7.18711,51.13942,"de:5378:34342"
"22007513","Alt-Hürth, Mittelstr.",6.86456,50.86921,"de:5362:83159"
"22007732","Wermelskirchen, An der Mark",7.18472,51.14469,"de:5378:34346"
"22005976","Habbelrath, Nell-Breuning-Berufskolleg",6.75167,50.91255,"de:5362:82655"
"22008926","Hürth (Rheinl), Zur Gotteshülfe",6.84782,50.88155,"de:5362:83344"
"22009372","Hünger, Haid",7.18122,51.13654,"de:5378:34348"
"22006776","Habbelrath, Habbelrath Kath. Kirche",6.74915,50.9129,"de:5362:82653"
"22006778","Habbelrath, Lutherstr.",6.75527,50.91234,"de:5362:82665"
"22007134","Witzhelden, Pilgerheim Talblick",7.07415,51.10781,"de:5378:33441"
"22009486","Oberwinkelhausen, Oberwinkelhausen 2",7.17263,51.13098,"de:5378:34351"
"22009373","Oberwinkelhausen, Oberwinkelhausen",7.17183,51.13086,"de:5378:34349"
"22009368","Büschhausen, Büschhausen",7.17279,51.13596,"de:5378:34334"
"22006883","Grube Carl, Rosmarweg",6.78328,50.90768,"de:5362:82474"
"22007141","Manheim, Jägerring",6.5927,50.88413,"de:5362:87541"
"22009369","Unterwinkelhausen, Stolzenberg",7.16946,51.13479,"de:5378:34345"
"22006772","Kerpen (Rheinl), Winterberg",6.72045,50.91521,"de:5362:87349"
"22006773","Kerpen (Rheinl), Neubottenbroich",6.72708,50.91526,"de:5362:87350"
"22009366","Sellscheid, Untersellscheid",7.17275,51.14405,"de:5378:34344"
"22007651","Kerpen (Rheinl), Mühlenfeld",6.66978,50.91153,"de:5362:87435"
"22009370","Unterwinkelhausen, Unterwinkelhausen",7.16608,51.13439,"de:5378:34347"
"22008263","Opladen, Rat-Deycks-Schule",7.00049,51.07841,"de:5316:22182"
"22008010","Gleuel, Grenzweg",6.82727,50.89411,"de:5362:83356"
"22009222","Leichlingen, Oskar-Erbslöh-Str.",7.02044,51.09317,"de:5378:33151"
"22007598","Hürth (Rheinl), Von-Geyr-Ring",6.85384,50.87986,"de:5362:83481"
"22006884","Grube Carl, Grefrather Weg",6.78978,50.90725,"de:5362:82473"
"22009429","Leichlingen, Sternstr.",6.99709,51.08618,"de:5378:33238"
"22007643","Manheim, Bochheim Abzw.",6.61126,50.89486,"de:5362:87532"
"22008007","Leichlingen, Schule Kirchstr.",7.02267,51.10907,"de:5378:33162"
"22009079","Leichlingen, Windgesheide",7.00443,51.11162,"de:5378:33147"
"22008505","Grube Carl, Am Bellerhammer",6.78739,50.90814,"de:5362:82754"
"22009076","Leichlingen, Birkenstr.",7.00239,51.1187,"de:5378:33148"
"22009077","Leichlingen, Gravenberger Weg",7.00219,51.12055,"de:5378:33149"
"22009034","Leverkusen, Zum Claashäuschen",7.04011,51.0708,"de:5316:23346"
"22009037","Leverkusen, Biesenbach Wende",7.03666,51.06898,"de:5316:23347"
"22007171","Wermelskirchen, Maria in der Aue",7.1684,51.07379,"de:5378:34547"
"22008593","Leverkusen, Biesenbacher Weg",7.04442,51.06986,"de:5316:23345"
"22008591","Leverkusen, Zauberkuhle Wende",7.05045,51.07217,"de:5316:23344"
"22006882","Grube Carl, Heinz-Köhler-Weg",6.79317,50.90742,"de:5362:82472"
"22008550","Ülpenich, Lövenicher Weg",6.67658,50.67983,"de:5366:74542"
"22008299","Leverkusen, Obere Höhenstr.",7.04881,51.07131,"de:5316:23348"
"22006701","Frechen, Herbertskaul",6.80833,50.90295,"de:5362:82456"
"22006297","Zülpich, Hoven Ort",6.64469,50.68619,"de:5366:74135"
"22008295","Leverkusen, Winterberg",7.04714,51.07027,"de:5316:23342"
"22008522","Leverkusen, Zauberkuhle",7.05164,51.07155,"de:5316:23343"
"22006777","Habbelrath, Habbelrath Sportzentrum",6.75321,50.91526,"de:5362:82666"
"22007548","Leverkusen, Untere Höhenstr.",7.04766,51.06932,"de:5316:23341"
"22008935","Quettingen, In der Dasladen",7.03684,51.06335,"de:5316:22367"
"22009041","Alt-Hürth, Werner-Disse-Str.",6.86616,50.87361,"de:5362:83175"
"22006885","Grube Carl, Danziger Str.",6.78418,50.91079,"de:5362:82475"
"22008847","Bensberg, Technologie-Park",7.18475,50.95947,"de:5378:31559"
"22008825","Lützenkirchen, In der Wüste",7.06182,51.06523,"de:5316:23356"
"22007914","Odenthal, Am Stragholzer Kreuz",7.16817,51.05987,"de:5378:36548"
"22008574","Zülpich, Maus",6.64162,50.68584,"de:5366:74155"
"22007155","Moitzfeld, Moitzfeld Kirche",7.1852,50.96645,"de:5378:31565"
"22008824","Lützenkirchen, Sporrenberger Mühle",7.06914,51.06404,"de:5316:23359"
"22006886","Grube Carl, Am Wasserturm",6.79041,50.90973,"de:5362:82476"
"22007503","Frechen, An St. Severin/Mühlenbach",6.80025,50.90748,"de:5362:82479"
"22007762","Lützenkirchen, Hütte",7.05649,51.05867,"de:5316:23365"
"22009043","Großbüllesheim, Am Silberberg",6.82888,50.69633,"de:5366:72953"
"22009468","Ülpenich, Ringstr.",6.69638,50.67527,"de:5366:74544"
"22009188","Euskirchen, Reichsstr.",6.81236,50.68967,"de:5366:72955"
"22006700","Frechen, Burgschule",6.80678,50.90619,"de:5362:82452"
"22005891","Bensberg, Reginharstr.",7.1648,50.95866,"de:5378:31558"
"22006228","Großbüllesheim, Wüschheim",6.813,50.68966,"de:5366:72932"
"22007916","Odenthal, Neschen Schule",7.17536,51.05083,"de:5378:36530"
"22007129","Moitzfeld, Moitzfeld",7.17671,50.96577,"de:5378:31560"
"22009054","Odenthal, Reisegarten Schöllerhof",7.14143,51.0639,"de:5378:36549"
"22009075","Refrath, Im Hilgersfeld",7.11228,50.94972,"de:5378:31637"
"22006881","Frechen, Broichgasse",6.79983,50.90884,"de:5362:82471"
"22009253","Großbüllesheim, Großbüllesheim Sportplatz",6.81759,50.6906,"de:5366:72098"
"22009159","Großbüllesheim, Scottstr.",6.81201,50.68815,"de:5366:72948"
"22009032","Euskirchen, Gustav-Nachtigal-Str.",6.81413,50.68881,"de:5366:72946"
"22009006","Großbüllesheim, Procter & Gamble-Str.",6.82544,50.69293,"de:5366:72950"
"22008823","Steinbüchel, Kamp",7.07563,51.06172,"de:5316:23257"
"22007054","Bergisch Gladbach, Wingertsheide",7.12303,50.95111,"de:5378:31638"
"22006348","Euskirchen, Mercator-Kaserne",6.76326,50.67573,"de:5366:72234"
"22007907","Bergisch Gladbach, Ernst-Reuter-Str.",7.14118,50.95409,"de:5378:31657"
"22007905","Bergisch Gladbach, Mozartstr.",7.13867,50.95383,"de:5378:31658"
"22005912","Bensberg, An der Schmitten",7.15318,50.95818,"de:5378:31576"
"22009087","Bergisch Gladbach, Schubertstr.",7.13489,50.95351,"de:5378:31660"
"22009379","Zülpich, Marienborn",6.64318,50.68136,"de:5366:74138"
"22007504","Frechen, Blindgasse",6.80123,50.91066,"de:5362:82480"
"22009254","Großbüllesheim, Großbüllesheim Grundschule",6.81753,50.6884,"de:5366:72059"
"22007743","Müggenhausen, Abzw. Schwarzmaar",6.87358,50.71881,"de:5366:71333"
"22009169","Ülpenich, Ülpenich Ortsausgang",6.69464,50.67255,"de:5366:74543"
"22005911","Bensberg, Rosenhecke",7.16081,50.96178,"de:5378:31575"
"22008592","Euskirchen, Von-Binsfeld-Str.",6.79372,50.68024,"de:5366:72944"
"22006230","Großbüllesheim, Großbüllesheim Bf",6.8162,50.68678,"de:5366:72901"
"22005913","Bensberg, Uhlweg",7.1481,50.95726,"de:5378:31577"
"22006319","Dürscheven, Dürscheven",6.71448,50.67018,"de:5366:74533"
"22005954","Bensberg, Schloßstr./PROgymnasium",7.16355,50.96401,"de:5378:31587"
"22006765","Heppendorf, Heppendorf",6.64042,50.91388,"de:5362:89841"
"22008539","Euskirchen, Kessenich",6.79348,50.6784,"de:5366:72936"
"22008866","Großbüllesheim, Feldgartenstr.",6.81995,50.68611,"de:5366:72940"
"22007770","Steinbüchel, Theodor-Adorno-Str.",7.05839,51.05295,"de:5316:23248"
"22009050","Großbüllesheim, Schneppenheimer Weg",6.82584,50.68796,"de:5366:72951"
"22009114","Bensberg, Feuerwache",7.16789,50.9666,"de:5378:31535"
"22007906","Bergisch Gladbach, Tulpenstr.",7.13022,50.95426,"de:5378:31659"
"22005914","Bensberg, Kauler Str.",7.15703,50.96216,"de:5378:31578"
"22009817","Odenthal, Scheuren Post",7.1705,51.04642,"de:5378:36340"
"22008562","Juntersdorf, Juntersdorf Ort",6.60617,50.68926,"de:5366:74931"
"22007610","Bergisch Gladbach, Rathenaustr.",7.14038,50.95708,"de:5378:31635"
"22006229","Großbüllesheim, Talstr.",6.81987,50.684,"de:5366:72933"
"22008934","Bensberg, Bensberg Rathaus",7.16298,50.96579,"de:5378:31530"
"22008563","Juntersdorf, Juntersdorf Bf",6.6018,50.69016,"de:5366:74932"
"22006290","Zülpich, Lövenich Kirche",6.66795,50.67091,"de:5366:74633"
"22009251","Euskirchen, Reinaldstr.",6.78763,50.67391,"de:5366:72056"
"22005952","Bensberg, Schloßstr./Kino",7.16043,50.96567,"de:5378:31586"
"22005915","Bensberg, Bensberg Schloß",7.15986,50.96652,"de:5378:31579"
"22009252","Euskirchen, Josef-Franke-Str.",6.79072,50.67388,"de:5366:72057"
"22008596","Euskirchen, Theodor-Nießen-Str.",6.79176,50.67407,"de:5366:72945"
"22008782","Euskirchen, Eupener Str.",6.77076,50.66982,"de:5366:72190"
"22007626","Heppendorf, Mönchskaul",6.61725,50.91163,"de:5362:89832"
"22006706","Frechen, Lindenstr.",6.80468,50.9169,"de:5362:82468"
"22008865","Großbüllesheim, Wingertsberg",6.82176,50.68221,"de:5366:72939"
"22007769","Steinbüchel, Steinbücheler Str.",7.06105,51.05016,"de:5316:23247"
"22006291","Zülpich, Rotbach",6.66615,50.66897,"de:5366:74634"
"22008781","Euskirchen, Memelstr.",6.768,50.66823,"de:5366:72189"
"22009086","Großbüllesheim, Industriegebiet",6.82943,50.68451,"de:5366:72954"
"22007035","Bergisch Gladbach, Am Burgtor",7.12259,50.95656,"de:5378:31650"
"22006296","Floren, Floren",6.64909,50.67182,"de:5366:74682"
"22005921","Bensberg, Schloßstr.",7.15779,50.96646,"de:5378:31571"
"22008529","Euskirchen, Brandenburger Str.",6.77309,50.66867,"de:5366:72167"
"22008793","Euskirchen, Peter-Simons-Str.",6.78923,50.67183,"de:5366:72152"
"22008852","Schlebusch, Am Gesundheitspark",7.03646,51.03075,"de:5316:23174"
"22009049","Großbüllesheim, Heinrich-Barth-Str.",6.8359,50.68637,"de:5366:72952"
"22006347","Euskirchen, Euskirchen Friedhof",6.7742,50.66842,"de:5366:72135"
"22008278","Schlebusch, Andreasstr.",7.04332,51.03732,"de:5316:23172"
"22006231","Euskirchen, Erlenhof",6.8094,50.6765,"de:5366:72931"
"22008538","Euskirchen, Friedrichsruh",6.78979,50.67128,"de:5366:72168"
"22008888","Bergheim (Erft), Heppendorfer Str.",6.6551,50.92429,"de:5362:88233"
"22005922","Bensberg, Deutscher Platz",7.15495,50.96649,"de:5378:31580"
"22008260","Schlebusch, Schule Ophovener Str.",7.0516,51.04184,"de:5316:23139"
"22006320","Elsig, Elsig",6.73802,50.663,"de:5366:72334"
"22009133","Bergisch Gladbach, Buddestr.",7.15143,50.96637,"de:5378:31540"
"22008530","Euskirchen, Monschauer Str.",6.7694,50.66616,"de:5366:72163"
"22008651","Euskirchen, Jülicher Ring/Friedhof",6.77821,50.66758,"de:5366:72174"
"22007549","Linzenich, Im Thiergarten",6.6713,50.66558,"de:5366:74637"
"22007558","Bergheim (Erft), Wiedenaustr.",6.65893,50.92621,"de:5362:88234"
"22009795","Manfort, Dünenweg",7.03728,51.02532,"de:5316:21254"
"22006718","Bergheim (Erft), Ahe Feuerwehr",6.65928,50.92648,"de:5362:88231"
"22009750","Quadrath-Ichendorf, Parkstr.",6.70177,50.93161,"de:5362:88359"
"22008864","Großbüllesheim, Filchner Str.",6.82472,50.67938,"de:5366:72938"
"22005923","Bensberg, Milchborntalweg",7.15644,50.96975,"de:5378:31581"
"22008795","Euskirchen, Röntgenstr.",6.78059,50.6671,"de:5366:72154"
"22005930","Bensberg, Elisabethstr.",7.14813,50.967,"de:5378:31584"
"22007673","Steinbüchel, Im Jücherfeld",7.06875,51.04716,"de:5316:23246"
"22005925","Bensberg, Jakob-Euler-Str.",7.15087,50.96895,"de:5378:31583"
"22008532","Euskirchen, Klevische Str.",6.78834,50.66807,"de:5366:72164"
"22006708","Frechen, Hücheln",6.80254,50.92244,"de:5362:82352"
"22008871","Euskirchen, Stettiner Str.",6.77546,50.66545,"de:5366:72033"
"22009143","Quadrath-Ichendorf, Kurzer Weg",6.68926,50.93191,"de:5362:88349"
"22006702","Frechen, Wiesenweg",6.81478,50.91908,"de:5362:82463"
"22008780","Euskirchen, Thüringer Str.",6.7726,50.6645,"de:5366:72188"
"22009547","Quadrath-Ichendorf, Quadra-Park",6.69924,50.9336,"de:5362:88360"
"22007631","Linzenich, Enzener Str.",6.66929,50.66319,"de:5366:74639"
"22008796","Euskirchen, Charleviller Platz",6.78449,50.666,"de:5366:72155"
"22008884","Euskirchen, Schillingstr.",6.78737,50.66656,"de:5366:72036"
"22006292","Linzenich, Linzenich",6.66972,50.66295,"de:5366:74635"
"22007984","Schlebusch, Am Borsberg",7.0529,51.03798,"de:5316:23199"
"22008558","Zülpich, Langendorf",6.61613,50.67542,"de:5366:74836"
"22008805","Euskirchen, St.-Vither-Str.",6.78031,50.66468,"de:5366:72198"
"22005924","Bensberg, Am Milchbornbach",7.15364,50.97062,"de:5378:31582"
"22007604","Quadrath-Ichendorf, Altenheim",6.68457,50.93356,"de:5362:88347"
"22009646","Refrath, Holunderweg",7.11037,50.9622,"de:5378:31656"
"22008792","Euskirchen, Im Kleinefeldchen",6.79162,50.66615,"de:5366:72151"
"22008690","Bergheim (Erft), Ahe Gemeinschaftsgrundschule",6.66113,50.93071,"de:5362:88237"
"22008889","Herrenstrunden, Herrenstrunden Kirche",7.1814,51.00768,"de:5378:31335"
"22008784","Euskirchen, Bergerstr.",6.78406,50.66442,"de:5366:72192"
"22008785","Euskirchen, Sebastianusstr.",6.78627,50.66479,"de:5366:72193"
"22008783","Euskirchen, Malmedyer Str.",6.7797,50.66348,"de:5366:72191"
"22008870","Euskirchen, Weststr.",6.78172,50.66378,"de:5366:72032"
"22008863","Kleinbüllesheim, Rigaer Str.",6.82674,50.67565,"de:5366:72937"
"22006709","Buschbell, Alte Kirche",6.79694,50.92705,"de:5362:82251"
"22009144","Quadrath-Ichendorf, Uhlandstr.",6.68919,50.93493,"de:5362:88350"
"22006154","Kleinbüllesheim, Kleinbüllesheim Siedlung",6.81916,50.67286,"de:5366:72935"
"22006877","Buschbell, Neue Kirche",6.80189,50.92604,"de:5362:82254"
"22009691","Euskirchen, In den Herrenbenden",6.79549,50.66601,"de:5366:72156"
"22009142","Quadrath-Ichendorf, Quadrath Gesamtschule",6.68205,50.93474,"de:5362:88348"
"22008846","Bergisch Gladbach, Altenwohnheim/Mediterana",7.14,50.9669,"de:5378:31539"
"22006295","Zülpich, Merzenich",6.63444,50.66743,"de:5366:74636"
"22008527","Euskirchen, Trierer Str.",6.77468,50.6614,"de:5366:72169"
"22007076","Schlebusch, Straßburger Str.",7.04492,51.02417,"de:5316:23150"
"22008786","Euskirchen, Mühlenstr.",6.78851,50.66391,"de:5366:72194"
"22006717","Quadrath-Ichendorf, Oleanderstr.",6.67314,50.93402,"de:5362:88341"
"22008779","Euskirchen, Dürener Str.",6.77756,50.66177,"de:5366:72187"
"22006716","Frechen, Klosterhof",6.7581,50.9348,"de:5362:82156"
"22006875","Buschbell, Am Apostelhof",6.7939,50.92886,"de:5362:82252"
"22007901","Eikamp, Meisenweg",7.17728,51.01522,"de:5378:36436"
"22006879","Buschbell, Im Würzgarten",6.80599,50.92613,"de:5362:82256"
"22009644","Refrath, Halbenmorgen",7.10803,50.96452,"de:5378:31655"
"22006155","Kleinbüllesheim, Kleinbüllesheim Kirche",6.82503,50.67343,"de:5366:72934"
"22007913","Refrath, Kicke",7.11491,50.96516,"de:5378:31640"
"22006785","Quadrath-Ichendorf, Grundschule am Tierpark",6.68343,50.93574,"de:5362:88387"
"22009737","Sielsdorf, Am Randkanal",6.86626,50.90244,"de:5362:83562"
"22009145","Quadrath-Ichendorf, Bürgerhaus",6.68506,50.93618,"de:5362:88356"
"22008791","Euskirchen, Jahnstr.",6.79374,50.66411,"de:5366:72150"
"22007201","Leverkusen, Meckhofer Feld",7.08432,51.04758,"de:5316:23266"
"22006876","Buschbell, Tulpenweg",6.79889,50.92863,"de:5362:82253"
"22007771","Schlebusch, Vincent-van-Gogh-Str.",7.07115,51.04221,"de:5316:23155"
"22006294","Zülpich, Neuer Weg",6.69278,50.65661,"de:5366:74532"
"22006770","Widdendorf, Widdendorf",6.62043,50.92403,"de:5362:89831"
"22007917","Scherf, Kapellenweg",7.16154,51.03375,"de:5378:36335"
"22008787","Euskirchen, Baumstr.",6.78845,50.66232,"de:5366:72195"
"22007603","Quadrath-Ichendorf, Quadrath-Ichendorf Bf",6.68878,50.93724,"de:5362:88301"
"22008638","Schlebusch, Leimbacher Hof",7.05902,51.03495,"de:5316:23140"
"22008790","Euskirchen, Am Schwalbenberg",6.79611,50.66381,"de:5366:72149"
"22006325","Euskirchen, Kirchstr.",6.78555,50.66148,"de:5366:72134"
"22006288","Sinzenich, Sinzenich Post",6.65023,50.6617,"de:5366:74632"
"22008936","Schlebusch, Ernst-Ludwig-Kirchner-Str.",7.06613,51.03671,"de:5316:23173"
"22008528","Euskirchen, Hofpfad",6.77616,50.65924,"de:5366:72166"
"22008788","Euskirchen, Spiegelstr.",6.78993,50.66177,"de:5366:72196"
"22008848","Bergisch Gladbach, Dombach-Sander-Str.",7.16014,50.98872,"de:5378:31346"
"22008533","Euskirchen, Erftstadion",6.80022,50.6641,"de:5366:72171"
"22008996","Frechen, Augustinusstr.",6.77385,50.93515,"de:5362:82148"
"22007614","Bergisch Gladbach, Hüttenstr.",7.1341,50.97484,"de:5378:31753"
"22006710","Buschbell, Katharina-Kraemer-Weg",6.78961,50.93258,"de:5362:82250"
"22006324","Euskirchen, Kommerner Str.",6.77994,50.65933,"de:5366:72137"
"22008713","Edelrath, Neuenhausgasse",7.07283,51.03188,"de:5316:23182"
"22008923","Odenthal, Menrath Abzw.",7.12007,51.03869,"de:5378:36143"
"22009799","Frechen, Am Windmühlenfeld",6.78198,50.93463,"de:5362:82158"
"22007612","Bergisch Gladbach, Wiesenstr.",7.1332,50.98013,"de:5378:31742"
"22006323","Euskirchen, Berufskolleg",6.77412,50.6576,"de:5366:72138"
"22008868","Euskirchen, Klosterplatz/Galleria",6.78701,50.65981,"de:5366:72160"
"22007419","Frechen, Euro Park/Briefzentrum",6.83593,50.92058,"de:5362:82495"
"22007187","Thorr, Wiebachhof",6.64273,50.93281,"de:5362:88236"
"22007143","Bergisch Gladbach, Sanderhöhe",7.14751,50.98934,"de:5378:31267"
"22007008","Euskirchen, Paul-Gerhard-Schule",6.79352,50.66033,"de:5366:72147"
"22006287","Sinzenich, Sinzenich Kirche",6.64733,50.65942,"de:5366:74631"
"22009568","Frechen, Königsdorf Bf",6.77828,50.93661,"de:5362:82101"
"22008789","Euskirchen, Pützbergring",6.80247,50.66211,"de:5366:72197"
"22008775","Euskirchen, Nahestr.",6.78192,50.65765,"de:5366:72183"
"22006057","Euskirchen, Euskirchen Rathaus",6.79717,50.66059,"de:5366:72131"
"22008776","Euskirchen, Gerberstr.",6.78502,50.65797,"de:5366:72184"
"22007675","Engstenberg, Osenau Nord",7.09506,51.03588,"de:5316:23271"
"22009176","Frechen, EuroPark Lekkerland",6.83518,50.92249,"de:5362:82436"
"22008774","Euskirchen, Marienschule",6.77881,50.65636,"de:5366:72182"
"22008597","Euskirchen, Emil-Fischer-Str.",6.80079,50.66085,"de:5366:72053"
"22007613","Bergisch Gladbach, Birkenhain",7.12675,50.98182,"de:5378:31741"
"22008797","Euskirchen, Veybachstr.",6.78834,50.65787,"de:5366:72175"
"22006056","Euskirchen, Keltenring",6.80425,50.66111,"de:5366:72132"
"22006688","Bergisch Gladbach, Heiligenstock",7.14722,50.99306,"de:5378:31243"
"22006058","Euskirchen, Euskirchen Bf",6.79253,50.65795,"de:5366:72101"
"22007430","Wüllenrath, Am Wiebach",6.58871,50.92018,"de:5362:89780"
"22006159","Euskirchen, Eschenruhe",6.86216,50.67836,"de:5366:72834"
"22007144","Bergisch Gladbach, Jakob-Kirch-Str.",7.14139,50.99028,"de:5378:31268"
"22007615","Bergisch Gladbach, Arbeitsagentur",7.1334,50.98601,"de:5378:31242"
"22006158","Euskirchen, Dom Esch Mitte",6.86003,50.67568,"de:5366:72833"
"22008924","Odenthal, Odenthal Kirche",7.11754,51.03364,"de:5378:36144"
"22006719","Thorr, Thorr Kirche",6.62895,50.93735,"de:5362:88241"
"22006055","Euskirchen, Zuckerfabrik Bf",6.81318,50.65736,"de:5366:72702"
"22006723","Berrendorf, Berrendorf Schule",6.59019,50.92607,"de:5362:89740"
"22006054","Kuchenheim, Kuchenheim R W E",6.81496,50.6564,"de:5366:72734"
"22006156","Weidesheim, Dadenbergring",6.83579,50.66255,"de:5366:72832"
"22006722","Berrendorf, Berrendorf",6.58701,50.92631,"de:5362:89741"
"22007911","Rommerscheid, Großer Busch",7.14871,51.00049,"de:5378:31283"
"22008711","Bergisch Gladbach, Fachhochschule",7.12263,50.98356,"de:5378:31269"
"22007915","Odenthal, Odenthal Schule",7.11733,51.03071,"de:5378:36130"
"22006720","Grouven, Grouven Post",6.60567,50.93617,"de:5362:89731"
"22009626","Duckterath, Duckterath (S)",7.10346,50.9848,"de:5378:31202"
"22009452","Odenthal, An der Dhünn",7.10915,51.03097,"de:5378:36132"
"22006721","Grouven, Brockendorfer Weg",6.60104,50.93546,"de:5362:89732"
"22005702","Bergisch Gladbach, Hornstr.",7.13182,50.99613,"de:5378:31891"
"22008561","Bürvenich, Eppenich",6.58947,50.66209,"de:5366:74831"
"22007912","Bergisch Gladbach, Im Scheurenfeld",7.08084,51.00904,"de:5378:31146"
"22006157","Weidesheim, Weidesheim Mitte",6.84222,50.65948,"de:5366:72831"
"22006724","Elsdorf (Erftkreis), Giesendorf",6.5801,50.92848,"de:5362:89751"
"22009451","Hand, Carl-von-Ossietzky-Str.",7.10233,50.99125,"de:5378:31168"
"22008559","Bürvenich, Wildenburg",6.5999,50.65699,"de:5366:74842"
"22009382","Bergisch Gladbach, BELKAW arena",7.11616,50.99451,"de:5378:31294"
"22009163","Hebborn, Peter-Landwehr-Str.",7.11417,50.99651,"de:5378:31839"
"22007998","Hand, Von-Ketteler-Str./Kolpingstr.",7.10646,50.99665,"de:5378:31170"
"22008647","Hebborn, Im Kleefeld",7.12379,51.00105,"de:5378:31844"
"22009229","Bergisch Gladbach, Hannenbusch",7.11829,50.99899,"de:5378:31857"
"22009124","Hebborn, Pannenberg",7.10088,50.99886,"de:5378:31853"
"22009126","Hebborn, Steinenkamp",7.10115,51.00005,"de:5378:31855"
"22006725","Elsdorf (Erftkreis), Köln-Aachener Str.",6.5735,50.93497,"de:5362:89645"
"22006729","Elsdorf (Erftkreis), Arnoldusschule",6.57152,50.93523,"de:5362:89644"
"22006730","Elsdorf (Erftkreis), Elsdorf Busbf",6.56274,50.93745,"de:5362:89641"
"22007997","Paffrath, Paffrath Friedhof",7.10228,51.00135,"de:5378:31171"
"22006005","Hilberath, Forsthaus",6.98471,50.57326,"de:5382:52942"
"22009068","Hebborn, Amselweg",7.11454,51.00083,"de:5378:31849"
"22006007","Meckenheim (Rheinl), Altendorf Mühle",6.99877,50.58427,"de:5382:51236"
"22006008","Meckenheim (Rheinl), Altendorf Gärtnerei",7.00976,50.5883,"de:5382:51235"
"22009067","Hebborn, Am Urnenfeld",7.11946,51.00681,"de:5378:31848"
"22006091","Bad Münstereifel, Eichen",6.91861,50.542,"de:5366:73942"
"22007975","Meckenheim (Rheinl), Altendorf Schule",7.0127,50.59279,"de:5382:51241"
"22009122","Hebborn, Im Drosselhain",7.11242,51.00195,"de:5378:31852"
"22006012","Ersdorf, Ersdorf Kirche",7.00443,50.59499,"de:5382:51232"
"22006092","Bad Münstereifel, Kirchsahr Abzw.",6.90715,50.53699,"de:5366:73936"
"22006084","Todenfeld, Todenfeld",6.9462,50.57817,"de:5382:52936"
"22007023","Bad Münstereifel, Hochthürmer Blick",6.90531,50.53944,"de:5366:73966"
"22006090","Bad Münstereifel, Maulbach",6.91295,50.55399,"de:5366:73943"
"22007969","Bad Münstereifel, Limbacher Str.",6.90248,50.54184,"de:5366:73934"
"22006093","Bad Münstereifel, Maulbacher Weg",6.90249,50.54251,"de:5366:73935"
"22009724","Bad Münstereifel, Ochsenbendchen",6.9005,50.54163,"de:5366:73938"
"22009103","Fritzdorf, Eckendorfer Str.",7.08398,50.59612,"de:5382:51545"
"22007996","Bergisch Gladbach, Nußbaumer Kamp",7.10444,51.00426,"de:5378:31172"
"22007994","Hebborn, Reuterstr.",7.11422,51.00428,"de:5378:31838"
"22009357","Fritzdorf, Windmühlenstr.",7.09285,50.59506,"de:5382:51546"
"22006094","Bad Münstereifel, Limbach",6.8944,50.53893,"de:5366:73933"
"22009125","Hebborn, Römerfeld",7.10578,51.00502,"de:5378:31854"
"22008744","Wormersdorf, Schützenplatz",6.98725,50.60247,"de:5382:52841"
"22007995","Bergisch Gladbach, Nußbaumer Berg",7.1069,51.00459,"de:5378:31173"
"22006089","Bad Münstereifel, Scheuren",6.9018,50.55781,"de:5366:73944"
"22006013","Wormersdorf, Kantenberg",6.9929,50.60491,"de:5382:52832"
"22006085","Rheinbach, Berscheid",6.92635,50.58009,"de:5382:52935"
"22009636","Wormersdorf, Wormersdorf Kirche",6.98997,50.60544,"de:5382:52844"
"22009123","Hebborn, Keltenweg",7.10968,51.00494,"de:5378:31856"
"22006014","Wormersdorf, Wormersdorf Denkmal",6.98926,50.60623,"de:5382:52831"
"22008746","Wormersdorf, Kannenbäckerstr.",6.98476,50.6065,"de:5382:52843"
"22006079","Kurtenberg, Kurtenberg",6.91579,50.58058,"de:5382:52934"
"22006080","Rheinbach, Neukirchen",6.92782,50.58842,"de:5382:52933"
"22006115","Odesheim, Hospelt Abzw.",6.88034,50.49355,"de:5366:73734"
"22006095","Bad Münstereifel, Wald",6.88013,50.53787,"de:5366:73932"
"22006210","Wachtberg (Kr Siegburg), Adendorf Sportplatz",7.05586,50.61322,"de:5382:51532"
"22006211","Wachtberg (Kr Siegburg), Burg Münchhausen",7.04758,50.61435,"de:5382:51533"
"22008712","Opladen, Am Knechtsgraben",7.01797,51.07309,"de:5316:22175"
"22006081","Irlenbusch, Irlenbusch",6.92934,50.59121,"de:5382:52932"
"22007670","Opladen, Talstr.",7.01002,51.07085,"de:5316:22171"
"22007760","Opladen, Villa Römer",6.99626,51.07452,"de:5316:22181"
"22007671","Quettingen, Görlitzer Str.",7.02087,51.0654,"de:5316:22361"
"22007105","Wachtberg (Kr Siegburg), Klein Villip Abzw. L123",7.07436,50.61267,"de:5382:51534"
"22006114","Odesheim, Odesheim",6.87851,50.48819,"de:5366:73733"
"22007778","Quettingen, Feldstr./Kolbergerstr.",7.02085,51.06419,"de:5316:22355"
"22007768","Quettingen, Schützenplatz",7.02322,51.0628,"de:5316:22360"
"22006116","Hünkhoven, Hünkhoven",6.88086,50.48084,"de:5366:73732"
"22008408","Quettingen, Funkenturm",7.01476,51.06364,"de:5316:22377"
"22008409","Quettingen, Kesselhaus",7.01148,51.06388,"de:5316:22378"
"22005758","Hitdorf, Antoniushof",6.90413,51.06616,"de:5316:21490"
"22005757","Hitdorf, Stöckenstr.",6.91005,51.06583,"de:5316:21489"
"22009141","Meckenheim (Rheinl), Schützenstr.",7.02573,50.62065,"de:5382:51159"
"22006082","Rheinbach, Merzbach",6.93281,50.6003,"de:5382:52931"
"22009221","Rupperath, Hünkhovener Kreuz 9",6.87794,50.47529,"de:5366:73747"
"22007212","Fixheide, wupsi Betriebshof",7.01762,51.05456,"de:5316:22160"
"22005756","Hitdorf, Weinhäuserstr.",6.91538,51.0646,"de:5316:21488"
"22009954","Fixheide, wupsi Betriebshof (Einfahrt)",7.01718,51.0535,"de:5316:22305"
"22008276","Hitdorf, Werftstr.",6.9124,51.06284,"de:5316:21437"
"22007394","Köln, St. Vincenz-Haus",6.96526,50.94884,"de:5315:11861"
"22006117","Rupperath, Rupperath",6.87837,50.47208,"de:5366:73731"
"22006078","Rheinbach, Winterburg",6.9025,50.58415,"de:5382:52954"
"22008601","Meckenheim (Rheinl), Josef-Kreuser-Str.",7.01605,50.62276,"de:5382:51143"
"22008382","Opladen, Birkenberg",6.99466,51.06018,"de:5316:22183"
"22008277","Hitdorf, Parkstr.",6.91643,51.06134,"de:5316:21438"
"22008999","Köln, Danzierstr.",7.00022,50.9591,"de:5315:19233"
"22007667","Küppersteg, Silbersee",7.00543,51.05099,"de:5316:22245"
"22006015","Meckenheim (Rheinl), Wißfeldstr.",7.01763,50.62446,"de:5382:51156"
"22008756","Köln, Blumenberg (S)",6.8826,51.03721,"de:5315:16701"
"22007664","Küppersteg, Waldstr.",6.98655,51.05356,"de:5316:22275"
"22007666","Küppersteg, Robert-Blum-Str.",7.00238,51.04662,"de:5316:22244"
"22007663","Küppersteg, Freiheitstr.",6.99634,51.04907,"de:5316:22252"
"22006083","Rheinbach, Waldwinkel",6.9444,50.61126,"de:5382:52542"
"22006077","Rheinbach, Sürst-Hardt",6.89995,50.58809,"de:5382:52953"
"22007761","Küppersteg, Montessoriweg",7.00237,51.04509,"de:5316:22246"
"22007753","Rheindorf, Löhstr.",6.95337,51.05484,"de:5316:21362"
"22008886","Meckenheim (Rheinl), Bahnhofstr.",7.01552,50.62705,"de:5382:51142"
"22008844","Meckenheim (Rheinl), Le-Mée-Platz",7.03785,50.62754,"de:5382:51152"
"22008730","Rheinbach, Glasfachschule/Stadthalle",6.96035,50.61848,"de:5382:52574"
"22007107","Manfort, Finanzamt",7.01653,51.03264,"de:5316:21235"
"22008733","Rheinbach, Waldfriedhof",6.94147,50.61446,"de:5382:52577"
"22008937","Rheindorf, An der Dingbank",6.94366,51.05416,"de:5316:21347"
"22009425","Rheinbach, Ölmühlenweg",6.94518,50.61646,"de:5382:52584"
"22006207","Werthhoven, Wasserhäuschen",7.14231,50.60651,"de:5382:51744"
"22009426","Rheinbach, Märkte",6.96325,50.6226,"de:5382:52585"
"22006039","Rheinbach, Obstversuchsanlage",6.98781,50.62799,"de:5382:52535"
"22006205","Werthhoven, Am Nußbäumchen",7.13497,50.61147,"de:5382:51742"
"22009424","Rheinbach, Burgacker",6.94128,50.61695,"de:5382:52583"
"22008727","Rheinbach, Bei den Birken",6.95678,50.62195,"de:5382:52571"
"22009427","Rheinbach, Rotdorn",6.95954,50.62293,"de:5382:52586"
"22006206","Werthhoven, Werthhoven Mitte",7.13948,50.60983,"de:5382:51743"
"22006200","Wachtberg (Kr Siegburg), Haus Wülfing",7.11589,50.61916,"de:5382:51733"
"22009541","Rheinbach, Luhrheck",6.95442,50.6217,"de:5382:52588"
"22008622","Rheindorf, Hitdorfer Str.",6.94018,51.05381,"de:5316:21346"
"22009789","Rheinbach, Breslauer Str.",6.94197,50.618,"de:5382:52568"
"22008755","Rheinbach, Meckenheimer Str.",6.9626,50.6251,"de:5382:52557"
"22009785","Rheinbach, Berliner Str.",6.93942,50.61813,"de:5382:52567"
"22006179","Wachtberg (Kr Siegburg), Kranhofstr.",7.10446,50.6242,"de:5382:51734"
"22007763","Bürrig, Markusweg",6.97996,51.05099,"de:5316:22257"
"22006076","Queckenberg, Queckenberg",6.89148,50.59373,"de:5382:52952"
"22009793","Rheinbach, Stifterweg",6.94939,50.622,"de:5382:52570"
"22009797","Rheinbach, Mittelweg",6.95061,50.62285,"de:5382:52578"
"22009543","Rheinbach, Schützenhalle",6.95521,50.62436,"de:5382:52589"
"22007774","Rheindorf, Am Hohen Ufer",6.95071,51.05372,"de:5316:21364"
"22007900","Rheinbach, Römerkanal Bf",6.96898,50.62826,"de:5382:52502"
"22008938","Rheindorf, Auf der Griesse",6.94584,51.05231,"de:5316:21348"
"22009791","Rheinbach, Sürster Weg",6.944,50.62188,"de:5382:52569"
"22007665","Manfort, BayArena",7.00334,51.03904,"de:5316:22234"
"22007775","Rheindorf, Buschkämpchen",6.95297,51.05195,"de:5316:21363"
"22009800","Rheinbach, Burg",6.95018,50.62429,"de:5382:52579"
"22009784","Rheinbach, Regerstr.",6.93711,50.62001,"de:5382:52566"
"22009776","Rheinbach, Dederichsgraben",6.94271,50.622,"de:5382:52546"
"22006021","Rheinbach, Himmeroder Wall",6.94859,50.62397,"de:5382:52541"
"22006019","Rheinbach, Voigtstor",6.95405,50.62566,"de:5382:52534"
"22006204","Werthhoven, Institut",7.1319,50.61773,"de:5382:51741"
"22006075","Rheinbach, Loch",6.8918,50.59733,"de:5382:52951"
"22007766","Manfort, Pfeilshofstr.",7.01256,51.03079,"de:5316:21262"
"22006038","Rheinbach, Gymnasiumstr.",6.95315,50.62616,"de:5382:52536"
"22009801","Rheinbach, Bachstr.",6.95063,50.62552,"de:5382:52580"
"22009768","Rheinbach, Gnadenkirche",6.95455,50.62678,"de:5382:52558"
"22009574","Chorweiler, Chorweiler Nord (S)",6.89266,51.02817,"de:5315:16301"
"22007754","Manfort, Baltrumstr.",7.01377,51.02786,"de:5316:21263"
"22009775","Rheinbach, Beethovenstr.",6.94078,50.62358,"de:5382:52565"
"22006199","Wachtberg (Kr Siegburg), Alte Molkerei",7.12711,50.62179,"de:5382:51732"
"22007114","Rheinbach, Hauptstr.",6.94788,50.62607,"de:5382:52532"
"22007909","Manfort, Manfort Friedhof",7.00594,51.0299,"de:5316:21240"
"22007765","Bürrig, Olof-Palme-Str.",6.98675,51.04046,"de:5316:22256"
"22009769","Rheinbach, Römerkanal (Bus)",6.95204,50.62767,"de:5382:52559"
"22007677","Wiesdorf, Zeppelinstr.",6.99721,51.0289,"de:5316:21164"
"22007904","Wiesdorf, Leverkusen Rathaus",6.98649,51.0336,"de:5316:21140"
"22006088","Rheinbach, Gut Waldau",6.91396,50.61402,"de:5382:52551"
"22009759","Rheinbach, Rheinbach Rathaus",6.95023,50.62795,"de:5382:52543"
"22009774","Rheinbach, In dem Busch",6.93764,50.62435,"de:5382:52564"
"22009104","Villip, Wachtberger Weg",7.09715,50.63245,"de:5382:51638"
"22008851","Wiesdorf, CHEMPARK Tor 4",6.98322,51.02783,"de:5316:21149"
"22009804","Rheinbach, Schumannstr.",6.94266,50.62731,"de:5382:52560"
"22007678","Wiesdorf, Niederfeldstr.",6.97157,51.03228,"de:5316:21133"
"22006973","Flittard, CHEMPARK Tor 10",6.98987,51.01082,"de:5315:19992"
"22009423","Rheinbach, Fliederstr.",6.93562,50.62551,"de:5382:52582"
"22006711","Frechen, Neufreimersdorf",6.78263,50.93769,"de:5362:82150"
"22009805","Rheinbach, Weberstr.",6.93817,50.62708,"de:5382:52563"
"22006181","Villip, Villip Post",7.09442,50.63535,"de:5382:51641"
"22006178","Villiprott, Villiprott Sportplatz",7.08266,50.63763,"de:5382:51633"
"22006189","Wachtberg (Kr Siegburg), Berkum Rathaus",7.13304,50.62448,"de:5382:51731"
"22009803","Rheinbach, Am neuen Wasserwerk",6.94891,50.63093,"de:5382:52548"
"22006177","Villip, Villip Kirche",7.0918,50.63647,"de:5382:51631"
"22008732","Rheinbach, Rosenstr.",6.93405,50.62643,"de:5382:52576"
"22007113","Rheinbach, Industriestr.",6.9591,50.6341,"de:5382:52537"
"22007089","Worringen, Sankt-Tönnis-Platz",6.8641,51.06404,"de:5315:16870"
"22006032","Meckenheim (Rheinl), Am Hambuch",7.01812,50.64296,"de:5382:51434"
"22008845","Meckenheim (Rheinl), Industriepark (S)",7.02716,50.6435,"de:5382:51402"
"22007742","Villip, Hauptstr.",7.0936,50.63774,"de:5382:51634"
"22009014","Frechen, Bergstr.",6.7797,50.93892,"de:5362:82162"
"22006043","Rheinbach, Sonnenscheinstr.",6.94223,50.63095,"de:5382:52556"
